<NMEA(GBGSV, numMsg=2, msgNum=2, numSV=8, svid_01=30, elv_01=8.0, az_01=215, cno_01=42, svid_02=32, elv_02=58.0, az_02=79, cno_02=51, svid_03=35, elv_03=10.0, az_03=322, cno_03=39, svid_04=37, elv_04=39.0, az_04=150, cno_04=49, signalID=1)>000: 2447 4247 5356 2c32 2c32 2c30 382c 3330  | b'$GBGSV,2,2,08,30' |
016: 2c30 382c 3231 352c 3432 2c33 322c 3538  | b',08,215,42,32,58' |
032: 2c30 3739 2c35 312c 3335 2c31 302c 3332  | b',079,51,35,10,32' |
048: 322c 3339 2c33 372c 3339 2c31 3530 2c34  | b'2,39,37,39,150,4' |
064: 392c 312a 3741 0d0a                      | b'9,1*7A\r\n' |
<NMEA(GBGSV, numMsg=2, msgNum=1, numSV=6, svid_01=20, elv_01=56.0, az_01=305, cno_01=10, svid_02=23, elv_02=41.0, az_02=76, cno_02=8, svid_03=25, elv_03=10.0, az_03=36, cno_03=11, svid_04=29, elv_04=22.0, az_04=267, cno_04=8, signalID=3)>000: 2447 4247 5356 2c32 2c31 2c30 362c 3230  | b'$GBGSV,2,1,06,20' |
016: 2c35 362c 3330 352c 3130 2c32 332c 3431  | b',56,305,10,23,41' |
032: 2c30 3736 2c30 382c 3235 2c31 302c 3033  | b',076,08,25,10,03' |
048: 362c 3131 2c32 392c 3232 2c32 3637 2c30  | b'6,11,29,22,267,0' |
064: 382c 332a 3739 0d0a                      | b'8,3*79\r\n' |
<NMEA(GBGSV, numMsg=2, msgNum=2, numSV=6, svid_01=32, elv_01=58.0, az_01=79, cno_01=11, svid_02=37, elv_02=39.0, az_02=150, cno_02=10, signalID=3)>000: 2447 4247 5356 2c32 2c32 2c30 362c 3332  | b'$GBGSV,2,2,06,32' |
016: 2c35 382c 3037 392c 3131 2c33 372c 3339  | b',58,079,11,37,39' |
032: 2c31 3530 2c31 302c 332a 3742 0d0a       | b',150,10,3*7B\r\n' |
<NMEA(GBGSV, numMsg=1, msgNum=1, numSV=1, svid_01=19, elv_01=9.0, az_01=287, cno_01=, signalID=0)>000: 2447 4247 5356 2c31 2c31 2c30 312c 3139  | b'$GBGSV,1,1,01,19' |
016: 2c30 392c 3238 372c 2c30 2a34 410d 0a    | b',09,287,,0*4A\r\n' |
<NMEA(GNTXT, numMsg=1, msgNum=1, msgType=0, text=txbuf alloc)>000: 2447 4e54 5854 2c30 312c 3031 2c30 302c  | b'$GNTXT,01,01,00,' |
016: 7478 6275 6620 616c 6c6f 632a 3631 0d0a  | b'txbuf alloc*61\r\n' |
<NMEA(GNRMC, time=19:19:11.250000, status=A, lat=43.8826720767, NS=N, lon=-72.1578985883, EW=W, spd=0.488, cog=321.61, date=2023-09-05, mv=, mvEW=, posMode=R, navStatus=V)>000: 2447 4e52 4d43 2c31 3931 3931 312e 3235  | b'$GNRMC,191911.25' |
016: 2c41 2c34 3335 322e 3936 3033 3234 362c  | b',A,4352.9603246,' |
032: 4e2c 3037 3230 392e 3437 3339 3135 332c  | b'N,07209.4739153,' |
048: 572c 302e 3438 382c 3332 312e 3631 2c30  | b'W,0.488,321.61,0' |
064: 3530 3932 332c 2c2c 522c 562a 3043 0d0a  | b'50923,,,R,V*0C\r\n' |
<NMEA(GNVTG, cogt=321.61, cogtUnit=T, cogm=, cogmUnit=M, sogn=0.488, sognUnit=N, sogk=0.904, sogkUnit=K, posMode=D)>000: 2447 4e56 5447 2c33 3231 2e36 312c 542c  | b'$GNVTG,321.61,T,' |
016: 2c4d 2c30 2e34 3838 2c4e 2c30 2e39 3034  | b',M,0.488,N,0.904' |
032: 2c4b 2c44 2a32 380d 0a                   | b',K,D*28\r\n' |
<NMEA(GNGGA, time=19:19:11.250000, lat=43.8826720767, NS=N, lon=-72.1578985883, EW=W, quality=4, numSV=12, HDOP=0.6, alt=143.136, altUnit=M, sep=-32.547, sepUnit=M, diffAge=, diffStation=0)>000: 2447 4e47 4741 2c31 3931 3931 312e 3235  | b'$GNGGA,191911.25' |
016: 2c34 3335 322e 3936 3033 3234 362c 4e2c  | b',4352.9603246,N,' |
032: 3037 3230 392e 3437 3339 3135 332c 572c  | b'07209.4739153,W,' |
048: 342c 3132 2c30 2e36 302c 3134 332e 3133  | b'4,12,0.60,143.13' |
064: 362c 4d2c 2d33 322e 3534 372c 4d2c 2c30  | b'6,M,-32.547,M,,0' |
080: 3030 302a 3731 0d0a                      | b'000*71\r\n' |
<NMEA(GNGSA, opMode=A, navMode=3, svid_01=46, svid_02=44, svid_03=24, svid_04=18, svid_05=10, svid_06=12, svid_07=23, svid_08=15, svid_09=32, svid_10=, svid_11=, svid_12=, PDOP=1.15, HDOP=0.6, VDOP=0.97, systemId=1)>000: 2447 4e47 5341 2c41 2c33 2c34 362c 3434  | b'$GNGSA,A,3,46,44' |
016: 2c32 342c 3138 2c31 302c 3132 2c32 332c  | b',24,18,10,12,23,' |
032: 3135 2c33 322c 2c2c 2c31 2e31 352c 302e  | b'15,32,,,,1.15,0.' |
048: 3630 2c30 2e39 372c 312a 3037 0d0a       | b'60,0.97,1*07\r\n' |
<NMEA(GNGSA, opMode=A, navMode=3, svid_01=69, svid_02=87, svid_03=85, svid_04=80, svid_05=71, svid_06=73, svid_07=70, svid_08=79, svid_09=, svid_10=, svid_11=, svid_12=, PDOP=1.15, HDOP=0.6, VDOP=0.97, systemId=2)>000: 2447 4e47 5341 2c41 2c33 2c36 392c 3837  | b'$GNGSA,A,3,69,87' |
016: 2c38 352c 3830 2c37 312c 3733 2c37 302c  | b',85,80,71,73,70,' |
032: 3739 2c2c 2c2c 2c31 2e31 352c 302e 3630  | b'79,,,,,1.15,0.60' |
048: 2c30 2e39 372c 322a 3031 0d0a            | b',0.97,2*01\r\n' |
<NMEA(GNGSA, opMode=A, navMode=3, svid_01=36, svid_02=5, svid_03=31, svid_04=34, svid_05=4, svid_06=11, svid_07=9, svid_08=, svid_09=, svid_10=, svid_11=, svid_12=, PDOP=1.15, HDOP=0.6, VDOP=0.97, systemId=3)>000: 2447 4e47 5341 2c41 2c33 2c33 362c 3035  | b'$GNGSA,A,3,36,05' |
016: 2c33 312c 3334 2c30 342c 3131 2c30 392c  | b',31,34,04,11,09,' |
032: 2c2c 2c2c 2c31 2e31 352c 302e 3630 2c30  | b',,,,,1.15,0.60,0' |
048: 2e39 372c 332a 3036 0d0a                 | b'.97,3*06\r\n' |
<NMEA(GNGSA, opMode=A, navMode=3, svid_01=37, svid_02=32, svid_03=29, svid_04=20, svid_05=23, svid_06=, svid_07=, svid_08=, svid_09=, svid_10=, svid_11=, svid_12=, PDOP=1.15, HDOP=0.6, VDOP=0.97, systemId=4)>000: 2447 4e47 5341 2c41 2c33 2c33 372c 3332  | b'$GNGSA,A,3,37,32' |
016: 2c32 392c 3230 2c32 332c 2c2c 2c2c 2c2c  | b',29,20,23,,,,,,,' |
032: 2c31 2e31 352c 302e 3630 2c30 2e39 372c  | b',1.15,0.60,0.97,' |
048: 342a 3034 0d0a                           | b'4*04\r\n' |
<NMEA(GPGSV, numMsg=3, msgNum=1, numSV=11, svid_01=10, elv_01=60.0, az_01=312, cno_01=50, svid_02=12, elv_02=13.0, az_02=119, cno_02=39, svid_03=15, elv_03=24.0, az_03=75, cno_03=43, svid_04=18, elv_04=28.0, az_04=190, cno_04=44, signalID=1)>000: 2447 5047 5356 2c33 2c31 2c31 312c 3130  | b'$GPGSV,3,1,11,10' |
016: 2c36 302c 3331 322c 3530 2c31 322c 3133  | b',60,312,50,12,13' |
032: 2c31 3139 2c33 392c 3135 2c32 342c 3037  | b',119,39,15,24,07' |
048: 352c 3433 2c31 382c 3238 2c31 3930 2c34  | b'5,43,18,28,190,4' |
064: 342c 312a 3641 0d0a                      | b'4,1*6A\r\n' |
<NMEA(GPGSV, numMsg=3, msgNum=2, numSV=11, svid_01=21, elv_01=7.0, az_01=327, cno_01=37, svid_02=22, elv_02=2.0, az_02=25, cno_02=18, svid_03=23, elv_03=77.0, az_03=110, cno_03=49, svid_04=24, elv_04=55.0, az_04=67, cno_04=48, signalID=1)>000: 2447 5047 5356 2c33 2c32 2c31 312c 3231  | b'$GPGSV,3,2,11,21' |
016: 2c30 372c 3332 372c 3337 2c32 322c 3032  | b',07,327,37,22,02' |
032: 2c30 3235 2c31 382c 3233 2c37 372c 3131  | b',025,18,23,77,11' |
048: 302c 3439 2c32 342c 3535 2c30 3637 2c34  | b'0,49,24,55,067,4' |
064: 382c 312a 3638 0d0a                      | b'8,1*68\r\n' |
<NMEA(GPGSV, numMsg=3, msgNum=3, numSV=11, svid_01=32, elv_01=31.0, az_01=265, cno_01=45, svid_02=44, elv_02=23.0, az_02=235, cno_02=43, svid_03=46, elv_03=15.0, az_03=246, cno_03=40, signalID=1)>000: 2447 5047 5356 2c33 2c33 2c31 312c 3332  | b'$GPGSV,3,3,11,32' |
016: 2c33 312c 3236 352c 3435 2c34 342c 3233  | b',31,265,45,44,23' |
032: 2c32 3335 2c34 332c 3436 2c31 352c 3234  | b',235,43,46,15,24' |
048: 362c 3430 2c31 2a35 370d 0a              | b'6,40,1*57\r\n' |
<NMEA(GPGSV, numMsg=2, msgNum=1, numSV=7, svid_01=10, elv_01=60.0, az_01=312, cno_01=40, svid_02=12, elv_02=13.0, az_02=119, cno_02=34, svid_03=15, elv_03=24.0, az_03=75, cno_03=36, svid_04=18, elv_04=28.0, az_04=190, cno_04=40, signalID=6)>000: 2447 5047 5356 2c32 2c31 2c30 372c 3130  | b'$GPGSV,2,1,07,10' |
016: 2c36 302c 3331 322c 3430 2c31 322c 3133  | b',60,312,40,12,13' |
032: 2c31 3139 2c33 342c 3135 2c32 342c 3037  | b',119,34,15,24,07' |
048: 352c 3336 2c31 382c 3238 2c31 3930 2c34  | b'5,36,18,28,190,4' |
064: 302c 362a 3631 0d0a                      | b'0,6*61\r\n' |
<NMEA(GPGSV, numMsg=2, msgNum=2, numSV=7, svid_01=23, elv_01=77.0, az_01=110, cno_01=44, svid_02=24, elv_02=55.0, az_02=67, cno_02=41, svid_03=32, elv_03=31.0, az_03=265, cno_03=40, signalID=6)>000: 2447 5047 5356 2c32 2c32 2c30 372c 3233  | b'$GPGSV,2,2,07,23' |
016: 2c37 372c 3131 302c 3434 2c32 342c 3535  | b',77,110,44,24,55' |
032: 2c30 3637 2c34 312c 3332 2c33 312c 3236  | b',067,41,32,31,26' |
048: 352c 3430 2c36 2a35 310d 0a              | b'5,40,6*51\r\n' |
<NMEA(GPGSV, numMsg=2, msgNum=1, numSV=5, svid_01=2, elv_01=1.0, az_01=332, cno_01=, svid_02=8, elv_02=2.0, az_02=303, cno_02=, svid_03=25, elv_03=1.0, az_03=156, cno_03=, svid_04=27, elv_04=1.0, az_04=270, cno_04=, signalID=0)>000: 2447 5047 5356 2c32 2c31 2c30 352c 3032  | b'$GPGSV,2,1,05,02' |
016: 2c30 312c 3333 322c 2c30 382c 3032 2c33  | b',01,332,,08,02,3' |
032: 3033 2c2c 3235 2c30 312c 3135 362c 2c32  | b'03,,25,01,156,,2' |
048: 372c 3031 2c32 3730 2c2c 302a 3644 0d0a  | b'7,01,270,,0*6D\r\n' |
<NMEA(GPGSV, numMsg=2, msgNum=2, numSV=5, svid_01=27, elv_01=1.0, az_01=270, cno_01=, signalID=0)>000: 2447 5047 5356 2c32 2c32 2c30 352c 3237  | b'$GPGSV,2,2,05,27' |
016: 2c30 312c 3237 302c 2c30 2a35 310d 0a    | b',01,270,,0*51\r\n' |
<NMEA(GLGSV, numMsg=3, msgNum=1, numSV=10, svid_01=69, elv_01=14.0, az_01=82, cno_01=45, svid_02=70, elv_02=62.0, az_02=21, cno_02=39, svid_03=71, elv_03=37.0, az_03=300, cno_03=49, svid_04=73, elv_04=17.0, az_04=161, cno_04=45, signalID=1)>000: 2447 4c47 5356 2c33 2c31 2c31 302c 3639  | b'$GLGSV,3,1,10,69' |
016: 2c31 342c 3038 322c 3435 2c37 302c 3632  | b',14,082,45,70,62' |
032: 2c30 3231 2c33 392c 3731 2c33 372c 3330  | b',021,39,71,37,30' |
048: 302c 3439 2c37 332c 3137 2c31 3631 2c34  | b'0,49,73,17,161,4' |
064: 352c 312a 3739 0d0a                      | b'5,1*79\r\n' |
<NMEA(GLGSV, numMsg=3, msgNum=2, numSV=10, svid_01=79, elv_01=26.0, az_01=38, cno_01=46, svid_02=80, elv_02=45.0, az_02=103, cno_02=50, svid_03=85, elv_03=25.0, az_03=227, cno_03=46, svid_04=86, elv_04=38.0, az_04=284, cno_04=48, signalID=1)>000: 2447 4c47 5356 2c33 2c32 2c31 302c 3739  | b'$GLGSV,3,2,10,79' |
016: 2c32 362c 3033 382c 3436 2c38 302c 3435  | b',26,038,46,80,45' |
032: 2c31 3033 2c35 302c 3835 2c32 352c 3232  | b',103,50,85,25,22' |
048: 372c 3436 2c38 362c 3338 2c32 3834 2c34  | b'7,46,86,38,284,4' |
064: 382c 312a 3744 0d0a                      | b'8,1*7D\r\n' |
<NMEA(GLGSV, numMsg=3, msgNum=3, numSV=10, svid_01=87, elv_01=13.0, az_01=338, cno_01=40, svid_02=, elv_02=, az_02=, cno_02=47, signalID=1)>000: 2447 4c47 5356 2c33 2c33 2c31 302c 3837  | b'$GLGSV,3,3,10,87' |
016: 2c31 332c 3333 382c 3430 2c2c 2c2c 3437  | b',13,338,40,,,,47' |
032: 2c31 2a34 420d 0a                        | b',1*4B\r\n' |
<NMEA(GLGSV, numMsg=2, msgNum=1, numSV=6, svid_01=69, elv_01=14.0, az_01=82, cno_01=33, svid_02=71, elv_02=37.0, az_02=300, cno_02=34, svid_03=73, elv_03=17.0, az_03=161, cno_03=33, svid_04=79, elv_04=26.0, az_04=38, cno_04=33, signalID=3)>000: 2447 4c47 5356 2c32 2c31 2c30 362c 3639  | b'$GLGSV,2,1,06,69' |
016: 2c31 342c 3038 322c 3333 2c37 312c 3337  | b',14,082,33,71,37' |
032: 2c33 3030 2c33 342c 3733 2c31 372c 3136  | b',300,34,73,17,16' |
048: 312c 3333 2c37 392c 3236 2c30 3338 2c33  | b'1,33,79,26,038,3' |
064: 332c 332a 3743 0d0a                      | b'3,3*7C\r\n' |
<NMEA(GLGSV, numMsg=2, msgNum=2, numSV=6, svid_01=80, elv_01=45.0, az_01=103, cno_01=37, svid_02=85, elv_02=25.0, az_02=227, cno_02=35, signalID=3)>000: 2447 4c47 5356 2c32 2c32 2c30 362c 3830  | b'$GLGSV,2,2,06,80' |
016: 2c34 352c 3130 332c 3337 2c38 352c 3235  | b',45,103,37,85,25' |
032: 2c32 3237 2c33 352c 332a 3738 0d0a       | b',227,35,3*78\r\n' |
<NMEA(GLGSV, numMsg=1, msgNum=1, numSV=1, svid_01=94, elv_01=2.0, az_01=34, cno_01=, signalID=0)>000: 2447 4c47 5356 2c31 2c31 2c30 312c 3934  | b'$GLGSV,1,1,01,94' |
016: 2c30 322c 3033 342c 2c30 2a34 300d 0a    | b',02,034,,0*40\r\n' |
<NMEA(GAGSV, numMsg=2, msgNum=1, numSV=7, svid_01=4, elv_01=25.0, az_01=69, cno_01=37, svid_02=5, elv_02=42.0, az_02=268, cno_02=42, svid_03=9, elv_03=73.0, az_03=28, cno_03=43, svid_04=11, elv_04=13.0, az_04=178, cno_04=32, signalID=2)>000: 2447 4147 5356 2c32 2c31 2c30 372c 3034  | b'$GAGSV,2,1,07,04' |
016: 2c32 352c 3036 392c 3337 2c30 352c 3432  | b',25,069,37,05,42' |
032: 2c32 3638 2c34 322c 3039 2c37 332c 3032  | b',268,42,09,73,02' |
048: 382c 3433 2c31 312c 3133 2c31 3738 2c33  | b'8,43,11,13,178,3' |
064: 322c 322a 3745 0d0a                      | b'2,2*7E\r\n' |
<NMEA(GAGSV, numMsg=2, msgNum=2, numSV=7, svid_01=31, elv_01=20.0, az_01=110, cno_01=37, svid_02=34, elv_02=40.0, az_02=298, cno_02=42, svid_03=36, elv_03=47.0, az_03=221, cno_03=43, signalID=2)>000: 2447 4147 5356 2c32 2c32 2c30 372c 3331  | b'$GAGSV,2,2,07,31' |
016: 2c32 302c 3131 302c 3337 2c33 342c 3430  | b',20,110,37,34,40' |
032: 2c32 3938 2c34 322c 3336 2c34 372c 3232  | b',298,42,36,47,22' |
048: 312c 3433 2c32 2a34 330d 0a              | b'1,43,2*43\r\n' |
<NMEA(GAGSV, numMsg=2, msgNum=1, numSV=7, svid_01=4, elv_01=25.0, az_01=69, cno_01=42, svid_02=5, elv_02=42.0, az_02=268, cno_02=46, svid_03=9, elv_03=73.0, az_03=28, cno_03=49, svid_04=11, elv_04=13.0, az_04=178, cno_04=37, signalID=7)>000: 2447 4147 5356 2c32 2c31 2c30 372c 3034  | b'$GAGSV,2,1,07,04' |
016: 2c32 352c 3036 392c 3432 2c30 352c 3432  | b',25,069,42,05,42' |
032: 2c32 3638 2c34 362c 3039 2c37 332c 3032  | b',268,46,09,73,02' |
048: 382c 3439 2c31 312c 3133 2c31 3738 2c33  | b'8,49,11,13,178,3' |
064: 372c 372a 3732 0d0a                      | b'7,7*72\r\n' |
<NMEA(GAGSV, numMsg=2, msgNum=2, numSV=7, svid_01=31, elv_01=20.0, az_01=110, cno_01=41, svid_02=34, elv_02=40.0, az_02=298, cno_02=44, svid_03=36, elv_03=47.0, az_03=221, cno_03=47, signalID=7)>000: 2447 4147 5356 2c32 2c32 2c30 372c 3331  | b'$GAGSV,2,2,07,31' |
016: 2c32 302c 3131 302c 3431 2c33 342c 3430  | b',20,110,41,34,40' |
032: 2c32 3938 2c34 342c 3336 2c34 372c 3232  | b',298,44,36,47,22' |
048: 312c 3437 2c37 2a34 350d 0a              | b'1,47,7*45\r\n' |
<NMEA(GAGSV, numMsg=1, msgNum=1, numSV=2, svid_01=15, elv_01=3.0, az_01=333, cno_01=, svid_02=24, elv_02=3.0, az_02=155, cno_02=, signalID=0)>000: 2447 4147 5356 2c31 2c31 2c30 322c 3135  | b'$GAGSV,1,1,02,15' |
016: 2c30 332c 3333 332c 2c32 342c 3033 2c31  | b',03,333,,24,03,1' |
032: 3535 2c2c 302a 3736 0d0a                 | b'55,,0*76\r\n' |
<NMEA(GBGSV, numMsg=2, msgNum=1, numSV=8, svid_01=20, elv_01=56.0, az_01=305, cno_01=51, svid_02=23, elv_02=41.0, az_02=76, cno_02=49, svid_03=25, elv_03=10.0, az_03=36, cno_03=41, svid_04=29, elv_04=22.0, az_04=267, cno_04=44, signalID=1)>000: 2447 4247 5356 2c32 2c31 2c30 382c 3230  | b'$GBGSV,2,1,08,20' |
016: 2c35 362c 3330 352c 3531 2c32 332c 3431  | b',56,305,51,23,41' |
032: 2c30 3736 2c34 392c 3235 2c31 302c 3033  | b',076,49,25,10,03' |
048: 362c 3431 2c32 392c 3232 2c32 3637 2c34  | b'6,41,29,22,267,4' |
064: 342c 312a 3738 0d0a                      | b'4,1*78\r\n' |
<NMEA(GBGSV, numMsg=2, msgNum=2, numSV=8, svid_01=30, elv_01=8.0, az_01=215, cno_01=42, svid_02=32, elv_02=58.0, az_02=79, cno_02=51, svid_03=35, elv_03=10.0, az_03=322, cno_03=40, svid_04=37, elv_04=39.0, az_04=150, cno_04=50, signalID=1)>000: 2447 4247 5356 2c32 2c32 2c30 382c 3330  | b'$GBGSV,2,2,08,30' |
016: 2c30 382c 3231 352c 3432 2c33 322c 3538  | b',08,215,42,32,58' |
032: 2c30 3739 2c35 312c 3335 2c31 302c 3332  | b',079,51,35,10,32' |
048: 322c 3430 2c33 372c 3339 2c31 3530 2c35  | b'2,40,37,39,150,5' |
064: 302c 312a 3743 0d0a                      | b'0,1*7C\r\n' |
<NMEA(GBGSV, numMsg=2, msgNum=1, numSV=6, svid_01=20, elv_01=56.0, az_01=305, cno_01=10, svid_02=23, elv_02=41.0, az_02=76, cno_02=8, svid_03=25, elv_03=10.0, az_03=36, cno_03=11, svid_04=29, elv_04=22.0, az_04=267, cno_04=8, signalID=3)>000: 2447 4247 5356 2c32 2c31 2c30 362c 3230  | b'$GBGSV,2,1,06,20' |
016: 2c35 362c 3330 352c 3130 2c32 332c 3431  | b',56,305,10,23,41' |
032: 2c30 3736 2c30 382c 3235 2c31 302c 3033  | b',076,08,25,10,03' |
048: 362c 3131 2c32 392c 3232 2c32 3637 2c30  | b'6,11,29,22,267,0' |
064: 382c 332a 3739 0d0a                      | b'8,3*79\r\n' |
<NMEA(GBGSV, numMsg=2, msgNum=2, numSV=6, svid_01=32, elv_01=58.0, az_01=79, cno_01=11, svid_02=37, elv_02=39.0, az_02=150, cno_02=10, signalID=3)>000: 2447 4247 5356 2c32 2c32 2c30 362c 3332  | b'$GBGSV,2,2,06,32' |
016: 2c35 382c 3037 392c 3131 2c33 372c 3339  | b',58,079,11,37,39' |
032: 2c31 3530 2c31 302c 332a 3742 0d0a       | b',150,10,3*7B\r\n' |
<NMEA(GBGSV, numMsg=1, msgNum=1, numSV=1, svid_01=19, elv_01=9.0, az_01=287, cno_01=, signalID=0)>000: 2447 4247 5356 2c31 2c31 2c30 312c 3139  | b'$GBGSV,1,1,01,19' |
016: 2c30 392c 3238 372c 2c30 2a34 410d 0a    | b',09,287,,0*4A\r\n' |
<NMEA(GNGLL, lat=43.8826720767, NS=N, lon=-72.1578985883, EW=W, time=19:19:11.250000, status=A, posMode=D)>000: 2447 4e47 4c4c 2c34 3335 322e 3936 3033  | b'$GNGLL,4352.9603' |
016: 3234 362c 4e2c 3037 3230 392e 3437 3339  | b'246,N,07209.4739' |
032: 3135 332c 572c 3139 3139 3131 2e32 352c  | b'153,W,191911.25,' |
048: 412c 442a 3639 0d0a                      | b'A,D*69\r\n' |
<NMEA(GNRMC, time=19:19:11.500000, status=A, lat=43.882673005, NS=N, lon=-72.1578983783, EW=W, spd=0.838, cog=8.97, date=2023-09-05, mv=, mvEW=, posMode=R, navStatus=V)>000: 2447 4e52 4d43 2c31 3931 3931 312e 3530  | b'$GNRMC,191911.50' |
016: 2c41 2c34 3335 322e 3936 3033 3830 332c  | b',A,4352.9603803,' |
032: 4e2c 3037 3230 392e 3437 3339 3032 372c  | b'N,07209.4739027,' |
048: 572c 302e 3833 382c 382e 3937 2c30 3530  | b'W,0.838,8.97,050' |
064: 3932 332c 2c2c 522c 562a 3031 0d0a       | b'923,,,R,V*01\r\n' |
<NMEA(GNVTG, cogt=8.97, cogtUnit=T, cogm=, cogmUnit=M, sogn=0.838, sognUnit=N, sogk=1.552, sogkUnit=K, posMode=D)>000: 2447 4e56 5447 2c38 2e39 372c 542c 2c4d  | b'$GNVTG,8.97,T,,M' |
016: 2c30 2e38 3338 2c4e 2c31 2e35 3532 2c4b  | b',0.838,N,1.552,K' |
032: 2c44 2a32 300d 0a                        | b',D*20\r\n' |
<NMEA(GNGGA, time=19:19:11.500000, lat=43.882673005, NS=N, lon=-72.1578983783, EW=W, quality=4, numSV=12, HDOP=0.6, alt=143.142, altUnit=M, sep=-32.547, sepUnit=M, diffAge=, diffStation=0)>000: 2447 4e47 4741 2c31 3931 3931 312e 3530  | b'$GNGGA,191911.50' |
016: 2c34 3335 322e 3936 3033 3830 332c 4e2c  | b',4352.9603803,N,' |
032: 3037 3230 392e 3437 3339 3032 372c 572c  | b'07209.4739027,W,' |
048: 342c 3132 2c30 2e36 302c 3134 332e 3134  | b'4,12,0.60,143.14' |
064: 322c 4d2c 2d33 322e 3534 372c 4d2c 2c30  | b'2,M,-32.547,M,,0' |
080: 3030 302a 3739 0d0a                      | b'000*79\r\n' |
<NMEA(GNGSA, opMode=A, navMode=3, svid_01=46, svid_02=44, svid_03=24, svid_04=18, svid_05=10, svid_06=12, svid_07=23, svid_08=15, svid_09=32, svid_10=, svid_11=, svid_12=, PDOP=1.15, HDOP=0.6, VDOP=0.97, systemId=1)>000: 2447 4e47 5341 2c41 2c33 2c34 362c 3434  | b'$GNGSA,A,3,46,44' |
016: 2c32 342c 3138 2c31 302c 3132 2c32 332c  | b',24,18,10,12,23,' |
032: 3135 2c33 322c 2c2c 2c31 2e31 352c 302e  | b'15,32,,,,1.15,0.' |
048: 3630 2c30 2e39 372c 312a 3037 0d0a       | b'60,0.97,1*07\r\n' |
<NMEA(GNGSA, opMode=A, navMode=3, svid_01=69, svid_02=87, svid_03=85, svid_04=80, svid_05=71, svid_06=73, svid_07=70, svid_08=79, svid_09=, svid_10=, svid_11=, svid_12=, PDOP=1.15, HDOP=0.6, VDOP=0.97, systemId=2)>000: 2447 4e47 5341 2c41 2c33 2c36 392c 3837  | b'$GNGSA,A,3,69,87' |
016: 2c38 352c 3830 2c37 312c 3733 2c37 302c  | b',85,80,71,73,70,' |
032: 3739 2c2c 2c2c 2c31 2e31 352c 302e 3630  | b'79,,,,,1.15,0.60' |
048: 2c30 2e39 372c 322a 3031 0d0a            | b',0.97,2*01\r\n' |
<NMEA(GNGSA, opMode=A, navMode=3, svid_01=36, svid_02=5, svid_03=31, svid_04=34, svid_05=4, svid_06=11, svid_07=9, svid_08=, svid_09=, svid_10=, svid_11=, svid_12=, PDOP=1.15, HDOP=0.6, VDOP=0.97, systemId=3)>000: 2447 4e47 5341 2c41 2c33 2c33 362c 3035  | b'$GNGSA,A,3,36,05' |
016: 2c33 312c 3334 2c30 342c 3131 2c30 392c  | b',31,34,04,11,09,' |
032: 2c2c 2c2c 2c31 2e31 352c 302e 3630 2c30  | b',,,,,1.15,0.60,0' |
048: 2e39 372c 332a 3036 0d0a                 | b'.97,3*06\r\n' |
<NMEA(GNGSA, opMode=A, navMode=3, svid_01=37, svid_02=32, svid_03=29, svid_04=20, svid_05=23, svid_06=, svid_07=, svid_08=, svid_09=, svid_10=, svid_11=, svid_12=, PDOP=1.15, HDOP=0.6, VDOP=0.97, systemId=4)>000: 2447 4e47 5341 2c41 2c33 2c33 372c 3332  | b'$GNGSA,A,3,37,32' |
016: 2c32 392c 3230 2c32 332c 2c2c 2c2c 2c2c  | b',29,20,23,,,,,,,' |
032: 2c31 2e31 352c 302e 3630 2c30 2e39 372c  | b',1.15,0.60,0.97,' |
048: 342a 3034 0d0a                           | b'4*04\r\n' |
<NMEA(GPGSV, numMsg=3, msgNum=1, numSV=11, svid_01=10, elv_01=60.0, az_01=312, cno_01=50, svid_02=12, elv_02=13.0, az_02=119, cno_02=40, svid_03=15, elv_03=24.0, az_03=75, cno_03=43, svid_04=18, elv_04=28.0, az_04=190, cno_04=44, signalID=1)>000: 2447 5047 5356 2c33 2c31 2c31 312c 3130  | b'$GPGSV,3,1,11,10' |
016: 2c36 302c 3331 322c 3530 2c31 322c 3133  | b',60,312,50,12,13' |
032: 2c31 3139 2c34 302c 3135 2c32 342c 3037  | b',119,40,15,24,07' |
048: 352c 3433 2c31 382c 3238 2c31 3930 2c34  | b'5,43,18,28,190,4' |
064: 342c 312a 3634 0d0a                      | b'4,1*64\r\n' |
<NMEA(GPGSV, numMsg=3, msgNum=2, numSV=11, svid_01=21, elv_01=7.0, az_01=327, cno_01=39, svid_02=22, elv_02=2.0, az_02=25, cno_02=18, svid_03=23, elv_03=77.0, az_03=110, cno_03=50, svid_04=24, elv_04=55.0, az_04=67, cno_04=48, signalID=1)>000: 2447 5047 5356 2c33 2c32 2c31 312c 3231  | b'$GPGSV,3,2,11,21' |
016: 2c30 372c 3332 372c 3339 2c32 322c 3032  | b',07,327,39,22,02' |
032: 2c30 3235 2c31 382c 3233 2c37 372c 3131  | b',025,18,23,77,11' |
048: 302c 3530 2c32 342c 3535 2c30 3637 2c34  | b'0,50,24,55,067,4' |
064: 382c 312a 3645 0d0a                      | b'8,1*6E\r\n' |
<NMEA(GPGSV, numMsg=3, msgNum=3, numSV=11, svid_01=32, elv_01=31.0, az_01=265, cno_01=45, svid_02=44, elv_02=23.0, az_02=235, cno_02=43, svid_03=46, elv_03=15.0, az_03=246, cno_03=40, signalID=1)>000: 2447 5047 5356 2c33 2c33 2c31 312c 3332  | b'$GPGSV,3,3,11,32' |
016: 2c33 312c 3236 352c 3435 2c34 342c 3233  | b',31,265,45,44,23' |
032: 2c32 3335 2c34 332c 3436 2c31 352c 3234  | b',235,43,46,15,24' |
048: 362c 3430 2c31 2a35 370d 0a              | b'6,40,1*57\r\n' |
<NMEA(GPGSV, numMsg=2, msgNum=1, numSV=7, svid_01=10, elv_01=60.0, az_01=312, cno_01=40, svid_02=12, elv_02=13.0, az_02=119, cno_02=34, svid_03=15, elv_03=24.0, az_03=75, cno_03=36, svid_04=18, elv_04=28.0, az_04=190, cno_04=40, signalID=6)>000: 2447 5047 5356 2c32 2c31 2c30 372c 3130  | b'$GPGSV,2,1,07,10' |
016: 2c36 302c 3331 322c 3430 2c31 322c 3133  | b',60,312,40,12,13' |
032: 2c31 3139 2c33 342c 3135 2c32 342c 3037  | b',119,34,15,24,07' |
048: 352c 3336 2c31 382c 3238 2c31 3930 2c34  | b'5,36,18,28,190,4' |
064: 302c 362a 3631 0d0a                      | b'0,6*61\r\n' |
<NMEA(GPGSV, numMsg=2, msgNum=2, numSV=7, svid_01=23, elv_01=77.0, az_01=110, cno_01=44, svid_02=24, elv_02=55.0, az_02=67, cno_02=41, svid_03=32, elv_03=31.0, az_03=265, cno_03=40, signalID=6)>000: 2447 5047 5356 2c32 2c32 2c30 372c 3233  | b'$GPGSV,2,2,07,23' |
016: 2c37 372c 3131 302c 3434 2c32 342c 3535  | b',77,110,44,24,55' |
032: 2c30 3637 2c34 312c 3332 2c33 312c 3236  | b',067,41,32,31,26' |
048: 352c 3430 2c36 2a35 310d 0a              | b'5,40,6*51\r\n' |
<NMEA(GPGSV, numMsg=2, msgNum=1, numSV=5, svid_01=2, elv_01=1.0, az_01=332, cno_01=, svid_02=8, elv_02=2.0, az_02=303, cno_02=, svid_03=25, elv_03=1.0, az_03=156, cno_03=, svid_04=27, elv_04=1.0, az_04=270, cno_04=, signalID=0)>000: 2447 5047 5356 2c32 2c31 2c30 352c 3032  | b'$GPGSV,2,1,05,02' |
016: 2c30 312c 3333 322c 2c30 382c 3032 2c33  | b',01,332,,08,02,3' |
032: 3033 2c2c 3235 2c30 312c 3135 362c 2c32  | b'03,,25,01,156,,2' |
048: 372c 3031 2c32 3730 2c2c 302a 3644 0d0a  | b'7,01,270,,0*6D\r\n' |
<NMEA(GPGSV, numMsg=2, msgNum=2, numSV=5, svid_01=27, elv_01=1.0, az_01=270, cno_01=, signalID=0)>000: 2447 5047 5356 2c32 2c32 2c30 352c 3237  | b'$GPGSV,2,2,05,27' |
016: 2c30 312c 3237 302c 2c30 2a35 310d 0a    | b',01,270,,0*51\r\n' |
<NMEA(GLGSV, numMsg=3, msgNum=1, numSV=10, svid_01=69, elv_01=14.0, az_01=82, cno_01=45, svid_02=70, elv_02=62.0, az_02=21, cno_02=39, svid_03=71, elv_03=37.0, az_03=300, cno_03=49, svid_04=73, elv_04=17.0, az_04=161, cno_04=44, signalID=1)>000: 2447 4c47 5356 2c33 2c31 2c31 302c 3639  | b'$GLGSV,3,1,10,69' |
016: 2c31 342c 3038 322c 3435 2c37 302c 3632  | b',14,082,45,70,62' |
032: 2c30 3231 2c33 392c 3731 2c33 372c 3330  | b',021,39,71,37,30' |
048: 302c 3439 2c37 332c 3137 2c31 3631 2c34  | b'0,49,73,17,161,4' |
064: 342c 312a 3738 0d0a                      | b'4,1*78\r\n' |
<NMEA(GLGSV, numMsg=3, msgNum=2, numSV=10, svid_01=79, elv_01=26.0, az_01=38, cno_01=46, svid_02=80, elv_02=45.0, az_02=103, cno_02=51, svid_03=85, elv_03=25.0, az_03=227, cno_03=47, svid_04=86, elv_04=38.0, az_04=284, cno_04=48, signalID=1)>000: 2447 4c47 5356 2c33 2c32 2c31 302c 3739  | b'$GLGSV,3,2,10,79' |
016: 2c32 362c 3033 382c 3436 2c38 302c 3435  | b',26,038,46,80,45' |
032: 2c31 3033 2c35 312c 3835 2c32 352c 3232  | b',103,51,85,25,22' |
048: 372c 3437 2c38 362c 3338 2c32 3834 2c34  | b'7,47,86,38,284,4' |
064: 382c 312a 3744 0d0a                      | b'8,1*7D\r\n' |
<NMEA(GLGSV, numMsg=3, msgNum=3, numSV=10, svid_01=87, elv_01=13.0, az_01=338, cno_01=40, svid_02=, elv_02=, az_02=, cno_02=47, signalID=1)>000: 2447 4c47 5356 2c33 2c33 2c31 302c 3837  | b'$GLGSV,3,3,10,87' |
016: 2c31 332c 3333 382c 3430 2c2c 2c2c 3437  | b',13,338,40,,,,47' |
032: 2c31 2a34 420d 0a                        | b',1*4B\r\n' |
<NMEA(GLGSV, numMsg=2, msgNum=1, numSV=6, svid_01=69, elv_01=14.0, az_01=82, cno_01=33, svid_02=71, elv_02=37.0, az_02=300, cno_02=34, svid_03=73, elv_03=17.0, az_03=161, cno_03=33, svid_04=79, elv_04=26.0, az_04=38, cno_04=33, signalID=3)>000: 2447 4c47 5356 2c32 2c31 2c30 362c 3639  | b'$GLGSV,2,1,06,69' |
016: 2c31 342c 3038 322c 3333 2c37 312c 3337  | b',14,082,33,71,37' |
032: 2c33 3030 2c33 342c 3733 2c31 372c 3136  | b',300,34,73,17,16' |
048: 312c 3333 2c37 392c 3236 2c30 3338 2c33  | b'1,33,79,26,038,3' |
064: 332c 332a 3743 0d0a                      | b'3,3*7C\r\n' |
<NMEA(GLGSV, numMsg=2, msgNum=2, numSV=6, svid_01=80, elv_01=45.0, az_01=103, cno_01=37, svid_02=85, elv_02=25.0, az_02=227, cno_02=35, signalID=3)>000: 2447 4c47 5356 2c32 2c32 2c30 362c 3830  | b'$GLGSV,2,2,06,80' |
016: 2c34 352c 3130 332c 3337 2c38 352c 3235  | b',45,103,37,85,25' |
032: 2c32 3237 2c33 352c 332a 3738 0d0a       | b',227,35,3*78\r\n' |
<NMEA(GLGSV, numMsg=1, msgNum=1, numSV=1, svid_01=94, elv_01=2.0, az_01=34, cno_01=, signalID=0)>000: 2447 4c47 5356 2c31 2c31 2c30 312c 3934  | b'$GLGSV,1,1,01,94' |
016: 2c30 322c 3033 342c 2c30 2a34 300d 0a    | b',02,034,,0*40\r\n' |
<NMEA(GAGSV, numMsg=2, msgNum=1, numSV=7, svid_01=4, elv_01=25.0, az_01=69, cno_01=37, svid_02=5, elv_02=42.0, az_02=268, cno_02=42, svid_03=9, elv_03=73.0, az_03=28, cno_03=43, svid_04=11, elv_04=13.0, az_04=178, cno_04=32, signalID=2)>000: 2447 4147 5356 2c32 2c31 2c30 372c 3034  | b'$GAGSV,2,1,07,04' |
016: 2c32 352c 3036 392c 3337 2c30 352c 3432  | b',25,069,37,05,42' |
032: 2c32 3638 2c34 322c 3039 2c37 332c 3032  | b',268,42,09,73,02' |
048: 382c 3433 2c31 312c 3133 2c31 3738 2c33  | b'8,43,11,13,178,3' |
064: 322c 322a 3745 0d0a                      | b'2,2*7E\r\n' |
<NMEA(GAGSV, numMsg=2, msgNum=2, numSV=7, svid_01=31, elv_01=20.0, az_01=110, cno_01=37, svid_02=34, elv_02=40.0, az_02=298, cno_02=42, svid_03=36, elv_03=47.0, az_03=221, cno_03=43, signalID=2)>000: 2447 4147 5356 2c32 2c32 2c30 372c 3331  | b'$GAGSV,2,2,07,31' |
016: 2c32 302c 3131 302c 3337 2c33 342c 3430  | b',20,110,37,34,40' |
032: 2c32 3938 2c34 322c 3336 2c34 372c 3232  | b',298,42,36,47,22' |
048: 312c 3433 2c32 2a34 330d 0a              | b'1,43,2*43\r\n' |
<NMEA(GAGSV, numMsg=2, msgNum=1, numSV=7, svid_01=4, elv_01=25.0, az_01=69, cno_01=42, svid_02=5, elv_02=42.0, az_02=268, cno_02=46, svid_03=9, elv_03=73.0, az_03=28, cno_03=49, svid_04=11, elv_04=13.0, az_04=178, cno_04=37, signalID=7)>000: 2447 4147 5356 2c32 2c31 2c30 372c 3034  | b'$GAGSV,2,1,07,04' |
016: 2c32 352c 3036 392c 3432 2c30 352c 3432  | b',25,069,42,05,42' |
032: 2c32 3638 2c34 362c 3039 2c37 332c 3032  | b',268,46,09,73,02' |
048: 382c 3439 2c31 312c 3133 2c31 3738 2c33  | b'8,49,11,13,178,3' |
064: 372c 372a 3732 0d0a                      | b'7,7*72\r\n' |
<NMEA(GAGSV, numMsg=2, msgNum=2, numSV=7, svid_01=31, elv_01=20.0, az_01=110, cno_01=41, svid_02=34, elv_02=40.0, az_02=298, cno_02=45, svid_03=36, elv_03=47.0, az_03=221, cno_03=47, signalID=7)>000: 2447 4147 5356 2c32 2c32 2c30 372c 3331  | b'$GAGSV,2,2,07,31' |
016: 2c32 302c 3131 302c 3431 2c33 342c 3430  | b',20,110,41,34,40' |
032: 2c32 3938 2c34 352c 3336 2c34 372c 3232  | b',298,45,36,47,22' |
048: 312c 3437 2c37 2a34 340d 0a              | b'1,47,7*44\r\n' |
<NMEA(GAGSV, numMsg=1, msgNum=1, numSV=2, svid_01=15, elv_01=3.0, az_01=333, cno_01=, svid_02=24, elv_02=3.0, az_02=155, cno_02=, signalID=0)>000: 2447 4147 5356 2c31 2c31 2c30 322c 3135  | b'$GAGSV,1,1,02,15' |
016: 2c30 332c 3333 332c 2c32 342c 3033 2c31  | b',03,333,,24,03,1' |
032: 3535 2c2c 302a 3736 0d0a                 | b'55,,0*76\r\n' |
<NMEA(GBGSV, numMsg=2, msgNum=1, numSV=8, svid_01=20, elv_01=56.0, az_01=305, cno_01=52, svid_02=23, elv_02=41.0, az_02=76, cno_02=49, svid_03=25, elv_03=10.0, az_03=36, cno_03=41, svid_04=29, elv_04=22.0, az_04=267, cno_04=45, signalID=1)>000: 2447 4247 5356 2c32 2c31 2c30 382c 3230  | b'$GBGSV,2,1,08,20' |
016: 2c35 362c 3330 352c 3532 2c32 332c 3431  | b',56,305,52,23,41' |
032: 2c30 3736 2c34 392c 3235 2c31 302c 3033  | b',076,49,25,10,03' |
048: 362c 3431 2c32 392c 3232 2c32 3637 2c34  | b'6,41,29,22,267,4' |
064: 352c 312a 3741 0d0a                      | b'5,1*7A\r\n' |
<NMEA(GBGSV, numMsg=2, msgNum=2, numSV=8, svid_01=30, elv_01=8.0, az_01=215, cno_01=42, svid_02=32, elv_02=58.0, az_02=79, cno_02=51, svid_03=35, elv_03=10.0, az_03=322, cno_03=40, svid_04=37, elv_04=39.0, az_04=150, cno_04=49, signalID=1)>000: 2447 4247 5356 2c32 2c32 2c30 382c 3330  | b'$GBGSV,2,2,08,30' |
016: 2c30 382c 3231 352c 3432 2c33 322c 3538  | b',08,215,42,32,58' |
032: 2c30 3739 2c35 312c 3335 2c31 302c 3332  | b',079,51,35,10,32' |
048: 322c 3430 2c33 372c 3339 2c31 3530 2c34  | b'2,40,37,39,150,4' |
064: 392c 312a 3734 0d0a                      | b'9,1*74\r\n' |
<NMEA(GBGSV, numMsg=2, msgNum=1, numSV=6, svid_01=20, elv_01=56.0, az_01=305, cno_01=11, svid_02=23, elv_02=41.0, az_02=76, cno_02=9, svid_03=25, elv_03=10.0, az_03=36, cno_03=12, svid_04=29, elv_04=22.0, az_04=267, cno_04=8, signalID=3)>000: 2447 4247 5356 2c32 2c31 2c30 362c 3230  | b'$GBGSV,2,1,06,20' |
016: 2c35 362c 3330 352c 3131 2c32 332c 3431  | b',56,305,11,23,41' |
032: 2c30 3736 2c30 392c 3235 2c31 302c 3033  | b',076,09,25,10,03' |
048: 362c 3132 2c32 392c 3232 2c32 3637 2c30  | b'6,12,29,22,267,0' |
064: 382c 332a 3741 0d0a                      | b'8,3*7A\r\n' |
<NMEA(GBGSV, numMsg=2, msgNum=2, numSV=6, svid_01=32, elv_01=58.0, az_01=79, cno_01=11, svid_02=37, elv_02=39.0, az_02=150, cno_02=9, signalID=3)>000: 2447 4247 5356 2c32 2c32 2c30 362c 3332  | b'$GBGSV,2,2,06,32' |
016: 2c35 382c 3037 392c 3131 2c33 372c 3339  | b',58,079,11,37,39' |
032: 2c31 3530 2c30 392c 332a 3733 0d0a       | b',150,09,3*73\r\n' |
<NMEA(GBGSV, numMsg=1, msgNum=1, numSV=1, svid_01=19, elv_01=9.0, az_01=287, cno_01=, signalID=0)>000: 2447 4247 5356 2c31 2c31 2c30 312c 3139  | b'$GBGSV,1,1,01,19' |
016: 2c30 392c 3238 372c 2c30 2a34 410d 0a    | b',09,287,,0*4A\r\n' |
<NMEA(GNGLL, lat=43.882673005, NS=N, lon=-72.1578983783, EW=W, time=19:19:11.500000, status=A, posMode=D)>000: 2447 4e47 4c4c 2c34 3335 322e 3936 3033  | b'$GNGLL,4352.9603' |
016: 3830 332c 4e2c 3037 3230 392e 3437 3339  | b'803,N,07209.4739' |
032: 3032 372c 572c 3139 3139 3131 2e35 302c  | b'027,W,191911.50,' |
048: 412c 442a 3632 0d0a                      | b'A,D*62\r\n' |
<NMEA(GNRMC, time=19:19:11.750000, status=A, lat=43.88267353, NS=N, lon=-72.1578984183, EW=W, spd=0.433, cog=355.65, date=2023-09-05, mv=, mvEW=, posMode=R, navStatus=V)>000: 2447 4e52 4d43 2c31 3931 3931 312e 3735  | b'$GNRMC,191911.75' |
016: 2c41 2c34 3335 322e 3936 3034 3131 382c  | b',A,4352.9604118,' |
032: 4e2c 3037 3230 392e 3437 3339 3035 312c  | b'N,07209.4739051,' |
048: 572c 302e 3433 332c 3335 352e 3635 2c30  | b'W,0.433,355.65,0' |
064: 3530 3932 332c 2c2c 522c 562a 3032 0d0a  | b'50923,,,R,V*02\r\n' |
<NMEA(GNVTG, cogt=355.65, cogtUnit=T, cogm=, cogmUnit=M, sogn=0.433, sognUnit=N, sogk=0.802, sogkUnit=K, posMode=D)>000: 2447 4e56 5447 2c33 3535 2e36 352c 542c  | b'$GNVTG,355.65,T,' |
016: 2c4d 2c30 2e34 3333 2c4e 2c30 2e38 3032  | b',M,0.433,N,0.802' |
032: 2c4b 2c44 2a32 380d 0a                   | b',K,D*28\r\n' |
<NMEA(GNRMC, time=19:19:12, status=A, lat=43.882673275, NS=N, lon=-72.1578987133, EW=W, spd=0.281, cog=219.84, date=2023-09-05, mv=, mvEW=, posMode=R, navStatus=V)>000: 2447 4e52 4d43 2c31 3931 3931 322e 3030  | b'$GNRMC,191912.00' |
016: 2c41 2c34 3335 322e 3936 3033 3936 352c  | b',A,4352.9603965,' |
032: 4e2c 3037 3230 392e 3437 3339 3232 382c  | b'N,07209.4739228,' |
048: 572c 302e 3238 312c 3231 392e 3834 2c30  | b'W,0.281,219.84,0' |
064: 3530 3932 332c 2c2c 522c 562a 3033 0d0a  | b'50923,,,R,V*03\r\n' |
<NMEA(GNGSA, opMode=A, navMode=3, svid_01=46, svid_02=44, svid_03=24, svid_04=18, svid_05=10, svid_06=12, svid_07=23, svid_08=15, svid_09=32, svid_10=, svid_11=, svid_12=, PDOP=1.15, HDOP=0.6, VDOP=0.97, systemId=1)>000: 2447 4e47 5341 2c41 2c33 2c34 362c 3434  | b'$GNGSA,A,3,46,44' |
016: 2c32 342c 3138 2c31 302c 3132 2c32 332c  | b',24,18,10,12,23,' |
032: 3135 2c33 322c 2c2c 2c31 2e31 352c 302e  | b'15,32,,,,1.15,0.' |
048: 3630 2c30 2e39 372c 312a 3037 0d0a       | b'60,0.97,1*07\r\n' |
<NMEA(GNGSA, opMode=A, navMode=3, svid_01=69, svid_02=87, svid_03=85, svid_04=80, svid_05=71, svid_06=73, svid_07=70, svid_08=79, svid_09=, svid_10=, svid_11=, svid_12=, PDOP=1.15, HDOP=0.6, VDOP=0.97, systemId=2)>000: 2447 4e47 5341 2c41 2c33 2c36 392c 3837  | b'$GNGSA,A,3,69,87' |
016: 2c38 352c 3830 2c37 312c 3733 2c37 302c  | b',85,80,71,73,70,' |
032: 3739 2c2c 2c2c 2c31 2e31 352c 302e 3630  | b'79,,,,,1.15,0.60' |
048: 2c30 2e39 372c 322a 3031 0d0a            | b',0.97,2*01\r\n' |
<NMEA(GNGSA, opMode=A, navMode=3, svid_01=36, svid_02=5, svid_03=31, svid_04=34, svid_05=4, svid_06=11, svid_07=9, svid_08=, svid_09=, svid_10=, svid_11=, svid_12=, PDOP=1.15, HDOP=0.6, VDOP=0.97, systemId=3)>000: 2447 4e47 5341 2c41 2c33 2c33 362c 3035  | b'$GNGSA,A,3,36,05' |
016: 2c33 312c 3334 2c30 342c 3131 2c30 392c  | b',31,34,04,11,09,' |
032: 2c2c 2c2c 2c31 2e31 352c 302e 3630 2c30  | b',,,,,1.15,0.60,0' |
048: 2e39 372c 332a 3036 0d0a                 | b'.97,3*06\r\n' |
<NMEA(GPGSV, numMsg=2, msgNum=2, numSV=7, svid_01=23, elv_01=77.0, az_01=110, cno_01=44, svid_02=24, elv_02=55.0, az_02=67, cno_02=42, svid_03=32, elv_03=31.0, az_03=265, cno_03=40, signalID=6)>000: 2447 5047 5356 2c32 2c32 2c30 372c 3233  | b'$GPGSV,2,2,07,23' |
016: 2c37 372c 3131 302c 3434 2c32 342c 3535  | b',77,110,44,24,55' |
032: 2c30 3637 2c34 322c 3332 2c33 312c 3236  | b',067,42,32,31,26' |
048: 352c 3430 2c36 2a35 320d 0a              | b'5,40,6*52\r\n' |
<NMEA(GPGSV, numMsg=2, msgNum=1, numSV=5, svid_01=2, elv_01=1.0, az_01=332, cno_01=, svid_02=8, elv_02=2.0, az_02=303, cno_02=, svid_03=25, elv_03=1.0, az_03=156, cno_03=, svid_04=27, elv_04=1.0, az_04=270, cno_04=, signalID=0)>000: 2447 5047 5356 2c32 2c31 2c30 352c 3032  | b'$GPGSV,2,1,05,02' |
016: 2c30 312c 3333 322c 2c30 382c 3032 2c33  | b',01,332,,08,02,3' |
032: 3033 2c2c 3235 2c30 312c 3135 362c 2c32  | b'03,,25,01,156,,2' |
048: 372c 3031 2c32 3730 2c2c 302a 3644 0d0a  | b'7,01,270,,0*6D\r\n' |
<NMEA(GPGSV, numMsg=2, msgNum=2, numSV=5, svid_01=27, elv_01=1.0, az_01=270, cno_01=, signalID=0)>000: 2447 5047 5356 2c32 2c32 2c30 352c 3237  | b'$GPGSV,2,2,05,27' |
016: 2c30 312c 3237 302c 2c30 2a35 310d 0a    | b',01,270,,0*51\r\n' |
<NMEA(GLGSV, numMsg=3, msgNum=1, numSV=10, svid_01=69, elv_01=14.0, az_01=82, cno_01=45, svid_02=70, elv_02=62.0, az_02=21, cno_02=40, svid_03=71, elv_03=37.0, az_03=300, cno_03=49, svid_04=73, elv_04=17.0, az_04=161, cno_04=44, signalID=1)>000: 2447 4c47 5356 2c33 2c31 2c31 302c 3639  | b'$GLGSV,3,1,10,69' |
016: 2c31 342c 3038 322c 3435 2c37 302c 3632  | b',14,082,45,70,62' |
032: 2c30 3231 2c34 302c 3731 2c33 372c 3330  | b',021,40,71,37,30' |
048: 302c 3439 2c37 332c 3137 2c31 3631 2c34  | b'0,49,73,17,161,4' |
064: 342c 312a 3736 0d0a                      | b'4,1*76\r\n' |
<NMEA(GLGSV, numMsg=3, msgNum=2, numSV=10, svid_01=79, elv_01=26.0, az_01=38, cno_01=46, svid_02=80, elv_02=45.0, az_02=103, cno_02=51, svid_03=85, elv_03=25.0, az_03=227, cno_03=47, svid_04=86, elv_04=38.0, az_04=284, cno_04=48, signalID=1)>000: 2447 4c47 5356 2c33 2c32 2c31 302c 3739  | b'$GLGSV,3,2,10,79' |
016: 2c32 362c 3033 382c 3436 2c38 302c 3435  | b',26,038,46,80,45' |
032: 2c31 3033 2c35 312c 3835 2c32 352c 3232  | b',103,51,85,25,22' |
048: 372c 3437 2c38 362c 3338 2c32 3834 2c34  | b'7,47,86,38,284,4' |
064: 382c 312a 3744 0d0a                      | b'8,1*7D\r\n' |
<NMEA(GLGSV, numMsg=3, msgNum=3, numSV=10, svid_01=87, elv_01=13.0, az_01=338, cno_01=40, svid_02=, elv_02=, az_02=, cno_02=47, signalID=1)>000: 2447 4c47 5356 2c33 2c33 2c31 302c 3837  | b'$GLGSV,3,3,10,87' |
016: 2c31 332c 3333 382c 3430 2c2c 2c2c 3437  | b',13,338,40,,,,47' |
032: 2c31 2a34 420d 0a                        | b',1*4B\r\n' |
<NMEA(GLGSV, numMsg=2, msgNum=1, numSV=6, svid_01=69, elv_01=14.0, az_01=82, cno_01=33, svid_02=71, elv_02=37.0, az_02=300, cno_02=34, svid_03=73, elv_03=17.0, az_03=161, cno_03=33, svid_04=79, elv_04=26.0, az_04=38, cno_04=32, signalID=3)>000: 2447 4c47 5356 2c32 2c31 2c30 362c 3639  | b'$GLGSV,2,1,06,69' |
016: 2c31 342c 3038 322c 3333 2c37 312c 3337  | b',14,082,33,71,37' |
032: 2c33 3030 2c33 342c 3733 2c31 372c 3136  | b',300,34,73,17,16' |
048: 312c 3333 2c37 392c 3236 2c30 3338 2c33  | b'1,33,79,26,038,3' |
064: 322c 332a 3744 0d0a                      | b'2,3*7D\r\n' |
<NMEA(GLGSV, numMsg=2, msgNum=2, numSV=6, svid_01=80, elv_01=45.0, az_01=103, cno_01=38, svid_02=85, elv_02=25.0, az_02=227, cno_02=35, signalID=3)>000: 2447 4c47 5356 2c32 2c32 2c30 362c 3830  | b'$GLGSV,2,2,06,80' |
016: 2c34 352c 3130 332c 3338 2c38 352c 3235  | b',45,103,38,85,25' |
032: 2c32 3237 2c33 352c 332a 3737 0d0a       | b',227,35,3*77\r\n' |
<NMEA(GLGSV, numMsg=1, msgNum=1, numSV=1, svid_01=94, elv_01=2.0, az_01=34, cno_01=, signalID=0)>000: 2447 4c47 5356 2c31 2c31 2c30 312c 3934  | b'$GLGSV,1,1,01,94' |
016: 2c30 322c 3033 342c 2c30 2a34 300d 0a    | b',02,034,,0*40\r\n' |
<NMEA(GAGSV, numMsg=2, msgNum=1, numSV=7, svid_01=4, elv_01=25.0, az_01=69, cno_01=37, svid_02=5, elv_02=42.0, az_02=268, cno_02=42, svid_03=9, elv_03=73.0, az_03=28, cno_03=44, svid_04=11, elv_04=13.0, az_04=178, cno_04=32, signalID=2)>000: 2447 4147 5356 2c32 2c31 2c30 372c 3034  | b'$GAGSV,2,1,07,04' |
016: 2c32 352c 3036 392c 3337 2c30 352c 3432  | b',25,069,37,05,42' |
032: 2c32 3638 2c34 322c 3039 2c37 332c 3032  | b',268,42,09,73,02' |
048: 382c 3434 2c31 312c 3133 2c31 3738 2c33  | b'8,44,11,13,178,3' |
064: 322c 322a 3739 0d0a                      | b'2,2*79\r\n' |
<NMEA(GAGSV, numMsg=2, msgNum=2, numSV=7, svid_01=31, elv_01=20.0, az_01=110, cno_01=37, svid_02=34, elv_02=40.0, az_02=298, cno_02=42, svid_03=36, elv_03=47.0, az_03=221, cno_03=43, signalID=2)>000: 2447 4147 5356 2c32 2c32 2c30 372c 3331  | b'$GAGSV,2,2,07,31' |
016: 2c32 302c 3131 302c 3337 2c33 342c 3430  | b',20,110,37,34,40' |
032: 2c32 3938 2c34 322c 3336 2c34 372c 3232  | b',298,42,36,47,22' |
048: 312c 3433 2c32 2a34 330d 0a              | b'1,43,2*43\r\n' |
<NMEA(GAGSV, numMsg=2, msgNum=1, numSV=7, svid_01=4, elv_01=25.0, az_01=69, cno_01=43, svid_02=5, elv_02=42.0, az_02=268, cno_02=46, svid_03=9, elv_03=73.0, az_03=28, cno_03=49, svid_04=11, elv_04=13.0, az_04=178, cno_04=37, signalID=7)>000: 2447 4147 5356 2c32 2c31 2c30 372c 3034  | b'$GAGSV,2,1,07,04' |
016: 2c32 352c 3036 392c 3433 2c30 352c 3432  | b',25,069,43,05,42' |
032: 2c32 3638 2c34 362c 3039 2c37 332c 3032  | b',268,46,09,73,02' |
048: 382c 3439 2c31 312c 3133 2c31 3738 2c33  | b'8,49,11,13,178,3' |
064: 372c 372a 3733 0d0a                      | b'7,7*73\r\n' |
<NMEA(GAGSV, numMsg=2, msgNum=2, numSV=7, svid_01=31, elv_01=20.0, az_01=110, cno_01=41, svid_02=34, elv_02=40.0, az_02=298, cno_02=45, svid_03=36, elv_03=47.0, az_03=221, cno_03=47, signalID=7)>000: 2447 4147 5356 2c32 2c32 2c30 372c 3331  | b'$GAGSV,2,2,07,31' |
016: 2c32 302c 3131 302c 3431 2c33 342c 3430  | b',20,110,41,34,40' |
032: 2c32 3938 2c34 352c 3336 2c34 372c 3232  | b',298,45,36,47,22' |
048: 312c 3437 2c37 2a34 340d 0a              | b'1,47,7*44\r\n' |
<NMEA(GAGSV, numMsg=1, msgNum=1, numSV=2, svid_01=15, elv_01=3.0, az_01=333, cno_01=, svid_02=24, elv_02=3.0, az_02=155, cno_02=, signalID=0)>000: 2447 4147 5356 2c31 2c31 2c30 322c 3135  | b'$GAGSV,1,1,02,15' |
016: 2c30 332c 3333 332c 2c32 342c 3033 2c31  | b',03,333,,24,03,1' |
032: 3535 2c2c 302a 3736 0d0a                 | b'55,,0*76\r\n' |
<NMEA(GBGSV, numMsg=2, msgNum=1, numSV=8, svid_01=20, elv_01=56.0, az_01=305, cno_01=51, svid_02=23, elv_02=41.0, az_02=76, cno_02=50, svid_03=25, elv_03=10.0, az_03=36, cno_03=40, svid_04=29, elv_04=22.0, az_04=267, cno_04=45, signalID=1)>000: 2447 4247 5356 2c32 2c31 2c30 382c 3230  | b'$GBGSV,2,1,08,20' |
016: 2c35 362c 3330 352c 3531 2c32 332c 3431  | b',56,305,51,23,41' |
032: 2c30 3736 2c35 302c 3235 2c31 302c 3033  | b',076,50,25,10,03' |
048: 362c 3430 2c32 392c 3232 2c32 3637 2c34  | b'6,40,29,22,267,4' |
064: 352c 312a 3730 0d0a                      | b'5,1*70\r\n' |
<NMEA(GBGSV, numMsg=2, msgNum=2, numSV=8, svid_01=30, elv_01=8.0, az_01=215, cno_01=42, svid_02=32, elv_02=58.0, az_02=79, cno_02=51, svid_03=35, elv_03=10.0, az_03=322, cno_03=39, svid_04=37, elv_04=39.0, az_04=150, cno_04=49, signalID=1)>000: 2447 4247 5356 2c32 2c32 2c30 382c 3330  | b'$GBGSV,2,2,08,30' |
016: 2c30 382c 3231 352c 3432 2c33 322c 3538  | b',08,215,42,32,58' |
032: 2c30 3739 2c35 312c 3335 2c31 302c 3332  | b',079,51,35,10,32' |
048: 322c 3339 2c33 372c 3339 2c31 3530 2c34  | b'2,39,37,39,150,4' |
064: 392c 312a 3741 0d0a                      | b'9,1*7A\r\n' |
<NMEA(GBGSV, numMsg=2, msgNum=1, numSV=6, svid_01=20, elv_01=56.0, az_01=305, cno_01=10, svid_02=23, elv_02=41.0, az_02=76, cno_02=10, svid_03=25, elv_03=10.0, az_03=36, cno_03=12, svid_04=29, elv_04=22.0, az_04=267, cno_04=9, signalID=3)>000: 2447 4247 5356 2c32 2c31 2c30 362c 3230  | b'$GBGSV,2,1,06,20' |
016: 2c35 362c 3330 352c 3130 2c32 332c 3431  | b',56,305,10,23,41' |
032: 2c30 3736 2c31 302c 3235 2c31 302c 3033  | b',076,10,25,10,03' |
048: 362c 3132 2c32 392c 3232 2c32 3637 2c30  | b'6,12,29,22,267,0' |
064: 392c 332a 3732 0d0a                      | b'9,3*72\r\n' |
<NMEA(GBGSV, numMsg=2, msgNum=2, numSV=6, svid_01=32, elv_01=58.0, az_01=79, cno_01=10, svid_02=37, elv_02=39.0, az_02=150, cno_02=8, signalID=3)>000: 2447 4247 5356 2c32 2c32 2c30 362c 3332  | b'$GBGSV,2,2,06,32' |
016: 2c35 382c 3037 392c 3130 2c33 372c 3339  | b',58,079,10,37,39' |
032: 2c31 3530 2c30 382c 332a 3733 0d0a       | b',150,08,3*73\r\n' |
<NMEA(GBGSV, numMsg=1, msgNum=1, numSV=1, svid_01=19, elv_01=9.0, az_01=287, cno_01=, signalID=0)>000: 2447 4247 5356 2c31 2c31 2c30 312c 3139  | b'$GBGSV,1,1,01,19' |
016: 2c30 392c 3238 372c 2c30 2a34 410d 0a    | b',09,287,,0*4A\r\n' |
<NMEA(GNGLL, lat=43.882673275, NS=N, lon=-72.1578987133, EW=W, time=19:19:12, status=A, posMode=D)>000: 2447 4e47 4c4c 2c34 3335 322e 3936 3033  | b'$GNGLL,4352.9603' |
016: 3936 352c 4e2c 3037 3230 392e 3437 3339  | b'965,N,07209.4739' |
032: 3232 382c 572c 3139 3139 3132 2e30 302c  | b'228,W,191912.00,' |
048: 412c 442a 3638 0d0a                      | b'A,D*68\r\n' |
<NMEA(GNTXT, numMsg=1, msgNum=1, msgType=0, text=txbuf alloc)>000: 2447 4e54 5854 2c30 312c 3031 2c30 302c  | b'$GNTXT,01,01,00,' |
016: 7478 6275 6620 616c 6c6f 632a 3631 0d0a  | b'txbuf alloc*61\r\n' |
<NMEA(GNRMC, time=19:19:12.250000, status=A, lat=43.8826731917, NS=N, lon=-72.157899445, EW=W, spd=0.498, cog=266.2, date=2023-09-05, mv=, mvEW=, posMode=R, navStatus=V)>000: 2447 4e52 4d43 2c31 3931 3931 322e 3235  | b'$GNRMC,191912.25' |
016: 2c41 2c34 3335 322e 3936 3033 3931 352c  | b',A,4352.9603915,' |
032: 4e2c 3037 3230 392e 3437 3339 3636 372c  | b'N,07209.4739667,' |
048: 572c 302e 3439 382c 3236 362e 3230 2c30  | b'W,0.498,266.20,0' |
064: 3530 3932 332c 2c2c 522c 562a 3034 0d0a  | b'50923,,,R,V*04\r\n' |
<NMEA(GNVTG, cogt=266.2, cogtUnit=T, cogm=, cogmUnit=M, sogn=0.498, sognUnit=N, sogk=0.923, sogkUnit=K, posMode=D)>000: 2447 4e56 5447 2c32 3636 2e32 302c 542c  | b'$GNVTG,266.20,T,' |
016: 2c4d 2c30 2e34 3938 2c4e 2c30 2e39 3233  | b',M,0.498,N,0.923' |
032: 2c4b 2c44 2a32 420d 0a                   | b',K,D*2B\r\n' |
<NMEA(GNGGA, time=19:19:12.250000, lat=43.8826731917, NS=N, lon=-72.157899445, EW=W, quality=4, numSV=12, HDOP=0.6, alt=143.137, altUnit=M, sep=-32.547, sepUnit=M, diffAge=, diffStation=0)>000: 2447 4e47 4741 2c31 3931 3931 322e 3235  | b'$GNGGA,191912.25' |
016: 2c34 3335 322e 3936 3033 3931 352c 4e2c  | b',4352.9603915,N,' |
032: 3037 3230 392e 3437 3339 3636 372c 572c  | b'07209.4739667,W,' |
048: 342c 3132 2c30 2e36 302c 3134 332e 3133  | b'4,12,0.60,143.13' |
064: 372c 4d2c 2d33 322e 3534 372c 4d2c 2c30  | b'7,M,-32.547,M,,0' |
080: 3030 302a 3745 0d0a                      | b'000*7E\r\n' |
<NMEA(GNGSA, opMode=A, navMode=3, svid_01=46, svid_02=44, svid_03=24, svid_04=18, svid_05=10, svid_06=12, svid_07=23, svid_08=15, svid_09=32, svid_10=, svid_11=, svid_12=, PDOP=1.15, HDOP=0.6, VDOP=0.97, systemId=1)>000: 2447 4e47 5341 2c41 2c33 2c34 362c 3434  | b'$GNGSA,A,3,46,44' |
016: 2c32 342c 3138 2c31 302c 3132 2c32 332c  | b',24,18,10,12,23,' |
032: 3135 2c33 322c 2c2c 2c31 2e31 352c 302e  | b'15,32,,,,1.15,0.' |
048: 3630 2c30 2e39 372c 312a 3037 0d0a       | b'60,0.97,1*07\r\n' |
<NMEA(GNGSA, opMode=A, navMode=3, svid_01=69, svid_02=87, svid_03=85, svid_04=80, svid_05=71, svid_06=73, svid_07=70, svid_08=79, svid_09=, svid_10=, svid_11=, svid_12=, PDOP=1.15, HDOP=0.6, VDOP=0.97, systemId=2)>000: 2447 4e47 5341 2c41 2c33 2c36 392c 3837  | b'$GNGSA,A,3,69,87' |
016: 2c38 352c 3830 2c37 312c 3733 2c37 302c  | b',85,80,71,73,70,' |
032: 3739 2c2c 2c2c 2c31 2e31 352c 302e 3630  | b'79,,,,,1.15,0.60' |
048: 2c30 2e39 372c 322a 3031 0d0a            | b',0.97,2*01\r\n' |
<NMEA(GNGSA, opMode=A, navMode=3, svid_01=36, svid_02=5, svid_03=31, svid_04=34, svid_05=4, svid_06=11, svid_07=9, svid_08=, svid_09=, svid_10=, svid_11=, svid_12=, PDOP=1.15, HDOP=0.6, VDOP=0.97, systemId=3)>000: 2447 4e47 5341 2c41 2c33 2c33 362c 3035  | b'$GNGSA,A,3,36,05' |
016: 2c33 312c 3334 2c30 342c 3131 2c30 392c  | b',31,34,04,11,09,' |
032: 2c2c 2c2c 2c31 2e31 352c 302e 3630 2c30  | b',,,,,1.15,0.60,0' |
048: 2e39 372c 332a 3036 0d0a                 | b'.97,3*06\r\n' |
<NMEA(GNGSA, opMode=A, navMode=3, svid_01=37, svid_02=32, svid_03=29, svid_04=20, svid_05=23, svid_06=, svid_07=, svid_08=, svid_09=, svid_10=, svid_11=, svid_12=, PDOP=1.15, HDOP=0.6, VDOP=0.97, systemId=4)>000: 2447 4e47 5341 2c41 2c33 2c33 372c 3332  | b'$GNGSA,A,3,37,32' |
016: 2c32 392c 3230 2c32 332c 2c2c 2c2c 2c2c  | b',29,20,23,,,,,,,' |
032: 2c31 2e31 352c 302e 3630 2c30 2e39 372c  | b',1.15,0.60,0.97,' |
048: 342a 3034 0d0a                           | b'4*04\r\n' |
<NMEA(GPGSV, numMsg=3, msgNum=1, numSV=11, svid_01=10, elv_01=60.0, az_01=312, cno_01=49, svid_02=12, elv_02=13.0, az_02=119, cno_02=41, svid_03=15, elv_03=24.0, az_03=75, cno_03=44, svid_04=18, elv_04=28.0, az_04=190, cno_04=44, signalID=1)>000: 2447 5047 5356 2c33 2c31 2c31 312c 3130  | b'$GPGSV,3,1,11,10' |
016: 2c36 302c 3331 322c 3439 2c31 322c 3133  | b',60,312,49,12,13' |
032: 2c31 3139 2c34 312c 3135 2c32 342c 3037  | b',119,41,15,24,07' |
048: 352c 3434 2c31 382c 3238 2c31 3930 2c34  | b'5,44,18,28,190,4' |
064: 342c 312a 3641 0d0a                      | b'4,1*6A\r\n' |
<NMEA(GPGSV, numMsg=2, msgNum=1, numSV=7, svid_01=10, elv_01=60.0, az_01=312, cno_01=40, svid_02=12, elv_02=13.0, az_02=119, cno_02=33, svid_03=15, elv_03=24.0, az_03=75, cno_03=35, svid_04=18, elv_04=28.0, az_04=190, cno_04=40, signalID=6)>000: 2447 5047 5356 2c32 2c31 2c30 372c 3130  | b'$GPGSV,2,1,07,10' |
016: 2c36 302c 3331 322c 3430 2c31 322c 3133  | b',60,312,40,12,13' |
032: 2c31 3139 2c33 332c 3135 2c32 342c 3037  | b',119,33,15,24,07' |
048: 352c 3335 2c31 382c 3238 2c31 3930 2c34  | b'5,35,18,28,190,4' |
064: 302c 362a 3635 0d0a                      | b'0,6*65\r\n' |
<NMEA(GPGSV, numMsg=2, msgNum=2, numSV=7, svid_01=23, elv_01=77.0, az_01=110, cno_01=44, svid_02=24, elv_02=55.0, az_02=67, cno_02=41, svid_03=32, elv_03=31.0, az_03=265, cno_03=40, signalID=6)>000: 2447 5047 5356 2c32 2c32 2c30 372c 3233  | b'$GPGSV,2,2,07,23' |
016: 2c37 372c 3131 302c 3434 2c32 342c 3535  | b',77,110,44,24,55' |
032: 2c30 3637 2c34 312c 3332 2c33 312c 3236  | b',067,41,32,31,26' |
048: 352c 3430 2c36 2a35 310d 0a              | b'5,40,6*51\r\n' |
<NMEA(GPGSV, numMsg=2, msgNum=1, numSV=5, svid_01=2, elv_01=1.0, az_01=332, cno_01=, svid_02=8, elv_02=2.0, az_02=303, cno_02=, svid_03=25, elv_03=1.0, az_03=156, cno_03=, svid_04=27, elv_04=1.0, az_04=270, cno_04=, signalID=0)>000: 2447 5047 5356 2c32 2c31 2c30 352c 3032  | b'$GPGSV,2,1,05,02' |
016: 2c30 312c 3333 322c 2c30 382c 3032 2c33  | b',01,332,,08,02,3' |
032: 3033 2c2c 3235 2c30 312c 3135 362c 2c32  | b'03,,25,01,156,,2' |
048: 372c 3031 2c32 3730 2c2c 302a 3644 0d0a  | b'7,01,270,,0*6D\r\n' |
<NMEA(GPGSV, numMsg=2, msgNum=2, numSV=5, svid_01=27, elv_01=1.0, az_01=270, cno_01=, signalID=0)>000: 2447 5047 5356 2c32 2c32 2c30 352c 3237  | b'$GPGSV,2,2,05,27' |
016: 2c30 312c 3237 302c 2c30 2a35 310d 0a    | b',01,270,,0*51\r\n' |
<NMEA(GLGSV, numMsg=3, msgNum=2, numSV=10, svid_01=79, elv_01=26.0, az_01=38, cno_01=46, svid_02=80, elv_02=45.0, az_02=103, cno_02=51, svid_03=85, elv_03=25.0, az_03=227, cno_03=47, svid_04=86, elv_04=38.0, az_04=284, cno_04=48, signalID=1)>000: 2447 4c47 5356 2c33 2c32 2c31 302c 3739  | b'$GLGSV,3,2,10,79' |
016: 2c32 362c 3033 382c 3436 2c38 302c 3435  | b',26,038,46,80,45' |
032: 2c31 3033 2c35 312c 3835 2c32 352c 3232  | b',103,51,85,25,22' |
048: 372c 3437 2c38 362c 3338 2c32 3834 2c34  | b'7,47,86,38,284,4' |
064: 382c 312a 3744 0d0a                      | b'8,1*7D\r\n' |
<NMEA(GLGSV, numMsg=3, msgNum=3, numSV=10, svid_01=87, elv_01=13.0, az_01=338, cno_01=40, svid_02=, elv_02=, az_02=, cno_02=47, signalID=1)>000: 2447 4c47 5356 2c33 2c33 2c31 302c 3837  | b'$GLGSV,3,3,10,87' |
016: 2c31 332c 3333 382c 3430 2c2c 2c2c 3437  | b',13,338,40,,,,47' |
032: 2c31 2a34 420d 0a                        | b',1*4B\r\n' |
<NMEA(GLGSV, numMsg=2, msgNum=1, numSV=6, svid_01=69, elv_01=14.0, az_01=82, cno_01=33, svid_02=71, elv_02=37.0, az_02=300, cno_02=33, svid_03=73, elv_03=17.0, az_03=161, cno_03=33, svid_04=79, elv_04=26.0, az_04=38, cno_04=33, signalID=3)>000: 2447 4c47 5356 2c32 2c31 2c30 362c 3639  | b'$GLGSV,2,1,06,69' |
016: 2c31 342c 3038 322c 3333 2c37 312c 3337  | b',14,082,33,71,37' |
032: 2c33 3030 2c33 332c 3733 2c31 372c 3136  | b',300,33,73,17,16' |
048: 312c 3333 2c37 392c 3236 2c30 3338 2c33  | b'1,33,79,26,038,3' |
064: 332c 332a 3742 0d0a                      | b'3,3*7B\r\n' |
<NMEA(GLGSV, numMsg=2, msgNum=2, numSV=6, svid_01=80, elv_01=45.0, az_01=103, cno_01=38, svid_02=85, elv_02=25.0, az_02=227, cno_02=35, signalID=3)>000: 2447 4c47 5356 2c32 2c32 2c30 362c 3830  | b'$GLGSV,2,2,06,80' |
016: 2c34 352c 3130 332c 3338 2c38 352c 3235  | b',45,103,38,85,25' |
032: 2c32 3237 2c33 352c 332a 3737 0d0a       | b',227,35,3*77\r\n' |
<NMEA(GLGSV, numMsg=1, msgNum=1, numSV=1, svid_01=94, elv_01=2.0, az_01=34, cno_01=, signalID=0)>000: 2447 4c47 5356 2c31 2c31 2c30 312c 3934  | b'$GLGSV,1,1,01,94' |
016: 2c30 322c 3033 342c 2c30 2a34 300d 0a    | b',02,034,,0*40\r\n' |
<NMEA(GAGSV, numMsg=2, msgNum=1, numSV=7, svid_01=4, elv_01=25.0, az_01=69, cno_01=37, svid_02=5, elv_02=42.0, az_02=268, cno_02=42, svid_03=9, elv_03=73.0, az_03=28, cno_03=43, svid_04=11, elv_04=13.0, az_04=178, cno_04=31, signalID=2)>000: 2447 4147 5356 2c32 2c31 2c30 372c 3034  | b'$GAGSV,2,1,07,04' |
016: 2c32 352c 3036 392c 3337 2c30 352c 3432  | b',25,069,37,05,42' |
032: 2c32 3638 2c34 322c 3039 2c37 332c 3032  | b',268,42,09,73,02' |
048: 382c 3433 2c31 312c 3133 2c31 3738 2c33  | b'8,43,11,13,178,3' |
064: 312c 322a 3744 0d0a                      | b'1,2*7D\r\n' |
<NMEA(GAGSV, numMsg=2, msgNum=2, numSV=7, svid_01=31, elv_01=20.0, az_01=110, cno_01=37, svid_02=34, elv_02=40.0, az_02=298, cno_02=41, svid_03=36, elv_03=47.0, az_03=221, cno_03=43, signalID=2)>000: 2447 4147 5356 2c32 2c32 2c30 372c 3331  | b'$GAGSV,2,2,07,31' |
016: 2c32 302c 3131 302c 3337 2c33 342c 3430  | b',20,110,37,34,40' |
032: 2c32 3938 2c34 312c 3336 2c34 372c 3232  | b',298,41,36,47,22' |
048: 312c 3433 2c32 2a34 300d 0a              | b'1,43,2*40\r\n' |
<NMEA(GAGSV, numMsg=2, msgNum=1, numSV=7, svid_01=4, elv_01=25.0, az_01=69, cno_01=43, svid_02=5, elv_02=42.0, az_02=268, cno_02=46, svid_03=9, elv_03=73.0, az_03=28, cno_03=49, svid_04=11, elv_04=13.0, az_04=178, cno_04=37, signalID=7)>000: 2447 4147 5356 2c32 2c31 2c30 372c 3034  | b'$GAGSV,2,1,07,04' |
016: 2c32 352c 3036 392c 3433 2c30 352c 3432  | b',25,069,43,05,42' |
032: 2c32 3638 2c34 362c 3039 2c37 332c 3032  | b',268,46,09,73,02' |
048: 382c 3439 2c31 312c 3133 2c31 3738 2c33  | b'8,49,11,13,178,3' |
064: 372c 372a 3733 0d0a                      | b'7,7*73\r\n' |
<NMEA(GAGSV, numMsg=2, msgNum=2, numSV=7, svid_01=31, elv_01=20.0, az_01=110, cno_01=41, svid_02=34, elv_02=40.0, az_02=298, cno_02=44, svid_03=36, elv_03=47.0, az_03=221, cno_03=47, signalID=7)>000: 2447 4147 5356 2c32 2c32 2c30 372c 3331  | b'$GAGSV,2,2,07,31' |
016: 2c32 302c 3131 302c 3431 2c33 342c 3430  | b',20,110,41,34,40' |
032: 2c32 3938 2c34 342c 3336 2c34 372c 3232  | b',298,44,36,47,22' |
048: 312c 3437 2c37 2a34 350d 0a              | b'1,47,7*45\r\n' |
<NMEA(GAGSV, numMsg=1, msgNum=1, numSV=2, svid_01=15, elv_01=3.0, az_01=333, cno_01=, svid_02=24, elv_02=3.0, az_02=155, cno_02=, signalID=0)>000: 2447 4147 5356 2c31 2c31 2c30 322c 3135  | b'$GAGSV,1,1,02,15' |
016: 2c30 332c 3333 332c 2c32 342c 3033 2c31  | b',03,333,,24,03,1' |
032: 3535 2c2c 302a 3736 0d0a                 | b'55,,0*76\r\n' |
<NMEA(GBGSV, numMsg=2, msgNum=1, numSV=8, svid_01=20, elv_01=56.0, az_01=305, cno_01=51, svid_02=23, elv_02=41.0, az_02=76, cno_02=49, svid_03=25, elv_03=10.0, az_03=36, cno_03=41, svid_04=29, elv_04=22.0, az_04=267, cno_04=44, signalID=1)>000: 2447 4247 5356 2c32 2c31 2c30 382c 3230  | b'$GBGSV,2,1,08,20' |
016: 2c35 362c 3330 352c 3531 2c32 332c 3431  | b',56,305,51,23,41' |
032: 2c30 3736 2c34 392c 3235 2c31 302c 3033  | b',076,49,25,10,03' |
048: 362c 3431 2c32 392c 3232 2c32 3637 2c34  | b'6,41,29,22,267,4' |
064: 342c 312a 3738 0d0a                      | b'4,1*78\r\n' |
<NMEA(GBGSV, numMsg=2, msgNum=2, numSV=8, svid_01=30, elv_01=8.0, az_01=215, cno_01=42, svid_02=32, elv_02=58.0, az_02=79, cno_02=52, svid_03=35, elv_03=10.0, az_03=322, cno_03=39, svid_04=37, elv_04=39.0, az_04=150, cno_04=49, signalID=1)>000: 2447 4247 5356 2c32 2c32 2c30 382c 3330  | b'$GBGSV,2,2,08,30' |
016: 2c30 382c 3231 352c 3432 2c33 322c 3538  | b',08,215,42,32,58' |
032: 2c30 3739 2c35 322c 3335 2c31 302c 3332  | b',079,52,35,10,32' |
048: 322c 3339 2c33 372c 3339 2c31 3530 2c34  | b'2,39,37,39,150,4' |
064: 392c 312a 3739 0d0a                      | b'9,1*79\r\n' |
<NMEA(GBGSV, numMsg=2, msgNum=1, numSV=6, svid_01=20, elv_01=56.0, az_01=305, cno_01=9, svid_02=23, elv_02=41.0, az_02=76, cno_02=10, svid_03=25, elv_03=10.0, az_03=36, cno_03=12, svid_04=29, elv_04=22.0, az_04=267, cno_04=10, signalID=3)>000: 2447 4247 5356 2c32 2c31 2c30 362c 3230  | b'$GBGSV,2,1,06,20' |
016: 2c35 362c 3330 352c 3039 2c32 332c 3431  | b',56,305,09,23,41' |
032: 2c30 3736 2c31 302c 3235 2c31 302c 3033  | b',076,10,25,10,03' |
048: 362c 3132 2c32 392c 3232 2c32 3637 2c31  | b'6,12,29,22,267,1' |
064: 302c 332a 3732 0d0a                      | b'0,3*72\r\n' |
<NMEA(GBGSV, numMsg=2, msgNum=2, numSV=6, svid_01=32, elv_01=58.0, az_01=79, cno_01=10, svid_02=37, elv_02=39.0, az_02=150, cno_02=8, signalID=3)>000: 2447 4247 5356 2c32 2c32 2c30 362c 3332  | b'$GBGSV,2,2,06,32' |
016: 2c35 382c 3037 392c 3130 2c33 372c 3339  | b',58,079,10,37,39' |
032: 2c31 3530 2c30 382c 332a 3733 0d0a       | b',150,08,3*73\r\n' |
<NMEA(GBGSV, numMsg=1, msgNum=1, numSV=1, svid_01=19, elv_01=9.0, az_01=287, cno_01=, signalID=0)>000: 2447 4247 5356 2c31 2c31 2c30 312c 3139  | b'$GBGSV,1,1,01,19' |
016: 2c30 392c 3238 372c 2c30 2a34 410d 0a    | b',09,287,,0*4A\r\n' |
<NMEA(GNGLL, lat=43.8826731917, NS=N, lon=-72.157899445, EW=W, time=19:19:12.250000, status=A, posMode=D)>000: 2447 4e47 4c4c 2c34 3335 322e 3936 3033  | b'$GNGLL,4352.9603' |
016: 3931 352c 4e2c 3037 3230 392e 3437 3339  | b'915,N,07209.4739' |
032: 3636 372c 572c 3139 3139 3132 2e32 352c  | b'667,W,191912.25,' |
048: 412c 442a 3637 0d0a                      | b'A,D*67\r\n' |
<NMEA(GNRMC, time=19:19:12.500000, status=A, lat=43.8826728617, NS=N, lon=-72.15789842, EW=W, spd=0.75, cog=116.03, date=2023-09-05, mv=, mvEW=, posMode=R, navStatus=V)>000: 2447 4e52 4d43 2c31 3931 3931 322e 3530  | b'$GNRMC,191912.50' |
016: 2c41 2c34 3335 322e 3936 3033 3731 372c  | b',A,4352.9603717,' |
032: 4e2c 3037 3230 392e 3437 3339 3035 322c  | b'N,07209.4739052,' |
048: 572c 302e 3735 302c 3131 362e 3033 2c30  | b'W,0.750,116.03,0' |
064: 3530 3932 332c 2c2c 522c 562a 3038 0d0a  | b'50923,,,R,V*08\r\n' |
<NMEA(GNVTG, cogt=116.03, cogtUnit=T, cogm=, cogmUnit=M, sogn=0.75, sognUnit=N, sogk=1.39, sogkUnit=K, posMode=D)>000: 2447 4e56 5447 2c31 3136 2e30 332c 542c  | b'$GNVTG,116.03,T,' |
016: 2c4d 2c30 2e37 3530 2c4e 2c31 2e33 3930  | b',M,0.750,N,1.390' |
032: 2c4b 2c44 2a32 410d 0a                   | b',K,D*2A\r\n' |
<NMEA(GNGSA, opMode=A, navMode=3, svid_01=46, svid_02=44, svid_03=24, svid_04=18, svid_05=10, svid_06=12, svid_07=23, svid_08=15, svid_09=32, svid_10=, svid_11=, svid_12=, PDOP=1.15, HDOP=0.6, VDOP=0.97, systemId=1)>000: 2447 4e47 5341 2c41 2c33 2c34 362c 3434  | b'$GNGSA,A,3,46,44' |
016: 2c32 342c 3138 2c31 302c 3132 2c32 332c  | b',24,18,10,12,23,' |
032: 3135 2c33 322c 2c2c 2c31 2e31 352c 302e  | b'15,32,,,,1.15,0.' |
048: 3630 2c30 2e39 372c 312a 3037 0d0a       | b'60,0.97,1*07\r\n' |
<NMEA(GNGSA, opMode=A, navMode=3, svid_01=69, svid_02=87, svid_03=85, svid_04=80, svid_05=71, svid_06=73, svid_07=70, svid_08=79, svid_09=, svid_10=, svid_11=, svid_12=, PDOP=1.15, HDOP=0.6, VDOP=0.97, systemId=2)>000: 2447 4e47 5341 2c41 2c33 2c36 392c 3837  | b'$GNGSA,A,3,69,87' |
016: 2c38 352c 3830 2c37 312c 3733 2c37 302c  | b',85,80,71,73,70,' |
032: 3739 2c2c 2c2c 2c31 2e31 352c 302e 3630  | b'79,,,,,1.15,0.60' |
048: 2c30 2e39 372c 322a 3031 0d0a            | b',0.97,2*01\r\n' |
<NMEA(GNGSA, opMode=A, navMode=3, svid_01=36, svid_02=5, svid_03=31, svid_04=34, svid_05=4, svid_06=11, svid_07=9, svid_08=, svid_09=, svid_10=, svid_11=, svid_12=, PDOP=1.15, HDOP=0.6, VDOP=0.97, systemId=3)>000: 2447 4e47 5341 2c41 2c33 2c33 362c 3035  | b'$GNGSA,A,3,36,05' |
016: 2c33 312c 3334 2c30 342c 3131 2c30 392c  | b',31,34,04,11,09,' |
032: 2c2c 2c2c 2c31 2e31 352c 302e 3630 2c30  | b',,,,,1.15,0.60,0' |
048: 2e39 372c 332a 3036 0d0a                 | b'.97,3*06\r\n' |
<NMEA(GNGSA, opMode=A, navMode=3, svid_01=37, svid_02=32, svid_03=29, svid_04=20, svid_05=23, svid_06=, svid_07=, svid_08=, svid_09=, svid_10=, svid_11=, svid_12=, PDOP=1.15, HDOP=0.6, VDOP=0.97, systemId=4)>000: 2447 4e47 5341 2c41 2c33 2c33 372c 3332  | b'$GNGSA,A,3,37,32' |
016: 2c32 392c 3230 2c32 332c 2c2c 2c2c 2c2c  | b',29,20,23,,,,,,,' |
032: 2c31 2e31 352c 302e 3630 2c30 2e39 372c  | b',1.15,0.60,0.97,' |
048: 342a 3034 0d0a                           | b'4*04\r\n' |
<NMEA(GPGSV, numMsg=3, msgNum=1, numSV=11, svid_01=10, elv_01=60.0, az_01=312, cno_01=49, svid_02=12, elv_02=13.0, az_02=119, cno_02=41, svid_03=15, elv_03=24.0, az_03=75, cno_03=44, svid_04=18, elv_04=28.0, az_04=190, cno_04=44, signalID=1)>000: 2447 5047 5356 2c33 2c31 2c31 312c 3130  | b'$GPGSV,3,1,11,10' |
