<NMEA(GAGSV, numMsg=2, msgNum=2, numSV=7, svid_01=31, elv_01=20.0, az_01=110, cno_01=41, svid_02=34, elv_02=40.0, az_02=298, cno_02=44, svid_03=36, elv_03=47.0, az_03=221, cno_03=47, signalID=7)>000: 2447 4147 5356 2c32 2c32 2c30 372c 3331  | b'$GAGSV,2,2,07,31' |
016: 2c32 302c 3131 302c 3431 2c33 342c 3430  | b',20,110,41,34,40' |
032: 2c32 3938 2c34 342c 3336 2c34 372c 3232  | b',298,44,36,47,22' |
048: 312c 3437 2c37 2a34 350d 0a              | b'1,47,7*45\r\n' |
<NMEA(GAGSV, numMsg=1, msgNum=1, numSV=2, svid_01=15, elv_01=3.0, az_01=333, cno_01=, svid_02=24, elv_02=3.0, az_02=155, cno_02=, signalID=0)>000: 2447 4147 5356 2c31 2c31 2c30 322c 3135  | b'$GAGSV,1,1,02,15' |
016: 2c30 332c 3333 332c 2c32 342c 3033 2c31  | b',03,333,,24,03,1' |
032: 3535 2c2c 302a 3736 0d0a                 | b'55,,0*76\r\n' |
<NMEA(GBGSV, numMsg=2, msgNum=1, numSV=8, svid_01=20, elv_01=56.0, az_01=305, cno_01=51, svid_02=23, elv_02=41.0, az_02=76, cno_02=50, svid_03=25, elv_03=10.0, az_03=36, cno_03=42, svid_04=29, elv_04=22.0, az_04=267, cno_04=42, signalID=1)>000: 2447 4247 5356 2c32 2c31 2c30 382c 3230  | b'$GBGSV,2,1,08,20' |
016: 2c35 362c 3330 352c 3531 2c32 332c 3431  | b',56,305,51,23,41' |
032: 2c30 3736 2c35 302c 3235 2c31 302c 3033  | b',076,50,25,10,03' |
048: 362c 3432 2c32 392c 3232 2c32 3637 2c34  | b'6,42,29,22,267,4' |
064: 322c 312a 3735 0d0a                      | b'2,1*75\r\n' |
<NMEA(GBGSV, numMsg=2, msgNum=2, numSV=8, svid_01=30, elv_01=8.0, az_01=215, cno_01=42, svid_02=32, elv_02=58.0, az_02=79, cno_02=51, svid_03=35, elv_03=10.0, az_03=322, cno_03=39, svid_04=37, elv_04=39.0, az_04=150, cno_04=49, signalID=1)>000: 2447 4247 5356 2c32 2c32 2c30 382c 3330  | b'$GBGSV,2,2,08,30' |
016: 2c30 382c 3231 352c 3432 2c33 322c 3538  | b',08,215,42,32,58' |
032: 2c30 3739 2c35 312c 3335 2c31 302c 3332  | b',079,51,35,10,32' |
048: 322c 3339 2c33 372c 3339 2c31 3530 2c34  | b'2,39,37,39,150,4' |
064: 392c 312a 3741 0d0a                      | b'9,1*7A\r\n' |
<NMEA(GBGSV, numMsg=2, msgNum=1, numSV=7, svid_01=20, elv_01=56.0, az_01=305, cno_01=13, svid_02=23, elv_02=41.0, az_02=76, cno_02=15, svid_03=25, elv_03=10.0, az_03=36, cno_03=10, svid_04=30, elv_04=8.0, az_04=215, cno_04=8, signalID=3)>000: 2447 4247 5356 2c32 2c31 2c30 372c 3230  | b'$GBGSV,2,1,07,20' |
016: 2c35 362c 3330 352c 3133 2c32 332c 3431  | b',56,305,13,23,41' |
032: 2c30 3736 2c31 352c 3235 2c31 302c 3033  | b',076,15,25,10,03' |
048: 362c 3130 2c33 302c 3038 2c32 3135 2c30  | b'6,10,30,08,215,0' |
064: 382c 332a 3733 0d0a                      | b'8,3*73\r\n' |
<NMEA(GBGSV, numMsg=2, msgNum=2, numSV=7, svid_01=32, elv_01=58.0, az_01=79, cno_01=15, svid_02=35, elv_02=10.0, az_02=322, cno_02=9, svid_03=37, elv_03=39.0, az_03=150, cno_03=9, signalID=3)>000: 2447 4247 5356 2c32 2c32 2c30 372c 3332  | b'$GBGSV,2,2,07,32' |
016: 2c35 382c 3037 392c 3135 2c33 352c 3130  | b',58,079,15,35,10' |
032: 2c33 3232 2c30 392c 3337 2c33 392c 3135  | b',322,09,37,39,15' |
048: 302c 3039 2c33 2a34 420d 0a              | b'0,09,3*4B\r\n' |
<NMEA(GBGSV, numMsg=1, msgNum=1, numSV=1, svid_01=19, elv_01=9.0, az_01=287, cno_01=, signalID=0)>000: 2447 4247 5356 2c31 2c31 2c30 312c 3139  | b'$GBGSV,1,1,01,19' |
016: 2c30 392c 3238 372c 2c30 2a34 410d 0a    | b',09,287,,0*4A\r\n' |
<NMEA(GNGGA, time=19:18:12.500000, lat=43.8826335633, NS=N, lon=-72.1577945233, EW=W, quality=4, numSV=12, HDOP=0.6, alt=143.192, altUnit=M, sep=-32.547, sepUnit=M, diffAge=, diffStation=0)>000: 2447 4e47 4741 2c31 3931 3831 322e 3530  | b'$GNGGA,191812.50' |
016: 2c34 3335 322e 3935 3830 3133 382c 4e2c  | b',4352.9580138,N,' |
032: 3037 3230 392e 3436 3736 3731 342c 572c  | b'07209.4676714,W,' |
048: 342c 3132 2c30 2e36 302c 3134 332e 3139  | b'4,12,0.60,143.19' |
064: 322c 4d2c 2d33 322e 3534 372c 4d2c 2c30  | b'2,M,-32.547,M,,0' |
080: 3030 302a 3732 0d0a                      | b'000*72\r\n' |
<NMEA(GNGSA, opMode=A, navMode=3, svid_01=46, svid_02=44, svid_03=24, svid_04=18, svid_05=10, svid_06=12, svid_07=23, svid_08=15, svid_09=32, svid_10=, svid_11=, svid_12=, PDOP=1.15, HDOP=0.6, VDOP=0.98, systemId=1)>000: 2447 4e47 5341 2c41 2c33 2c34 362c 3434  | b'$GNGSA,A,3,46,44' |
016: 2c32 342c 3138 2c31 302c 3132 2c32 332c  | b',24,18,10,12,23,' |
032: 3135 2c33 322c 2c2c 2c31 2e31 352c 302e  | b'15,32,,,,1.15,0.' |
048: 3630 2c30 2e39 382c 312a 3038 0d0a       | b'60,0.98,1*08\r\n' |
<NMEA(GNGSA, opMode=A, navMode=3, svid_01=69, svid_02=87, svid_03=85, svid_04=80, svid_05=71, svid_06=73, svid_07=70, svid_08=79, svid_09=, svid_10=, svid_11=, svid_12=, PDOP=1.15, HDOP=0.6, VDOP=0.98, systemId=2)>000: 2447 4e47 5341 2c41 2c33 2c36 392c 3837  | b'$GNGSA,A,3,69,87' |
016: 2c38 352c 3830 2c37 312c 3733 2c37 302c  | b',85,80,71,73,70,' |
032: 3739 2c2c 2c2c 2c31 2e31 352c 302e 3630  | b'79,,,,,1.15,0.60' |
048: 2c30 2e39 382c 322a 3045 0d0a            | b',0.98,2*0E\r\n' |
<NMEA(GNGSA, opMode=A, navMode=3, svid_01=36, svid_02=5, svid_03=31, svid_04=34, svid_05=4, svid_06=11, svid_07=9, svid_08=, svid_09=, svid_10=, svid_11=, svid_12=, PDOP=1.15, HDOP=0.6, VDOP=0.98, systemId=3)>000: 2447 4e47 5341 2c41 2c33 2c33 362c 3035  | b'$GNGSA,A,3,36,05' |
016: 2c33 312c 3334 2c30 342c 3131 2c30 392c  | b',31,34,04,11,09,' |
032: 2c2c 2c2c 2c31 2e31 352c 302e 3630 2c30  | b',,,,,1.15,0.60,0' |
048: 2e39 382c 332a 3039 0d0a                 | b'.98,3*09\r\n' |
<NMEA(GPGSV, numMsg=3, msgNum=1, numSV=11, svid_01=10, elv_01=59.0, az_01=312, cno_01=49, svid_02=12, elv_02=12.0, az_02=120, cno_02=42, svid_03=15, elv_03=25.0, az_03=74, cno_03=45, svid_04=18, elv_04=29.0, az_04=190, cno_04=45, signalID=1)>000: 2447 5047 5356 2c33 2c31 2c31 312c 3130  | b'$GPGSV,3,1,11,10' |
016: 2c35 392c 3331 322c 3439 2c31 322c 3132  | b',59,312,49,12,12' |
032: 2c31 3230 2c34 322c 3135 2c32 352c 3037  | b',120,42,15,25,07' |
048: 342c 3435 2c31 382c 3239 2c31 3930 2c34  | b'4,45,18,29,190,4' |
064: 352c 312a 3639 0d0a                      | b'5,1*69\r\n' |
<NMEA(GPGSV, numMsg=3, msgNum=2, numSV=11, svid_01=21, elv_01=7.0, az_01=328, cno_01=35, svid_02=22, elv_02=2.0, az_02=25, cno_02=24, svid_03=23, elv_03=78.0, az_03=107, cno_03=49, svid_04=24, elv_04=56.0, az_04=68, cno_04=49, signalID=1)>000: 2447 5047 5356 2c33 2c32 2c31 312c 3231  | b'$GPGSV,3,2,11,21' |
016: 2c30 372c 3332 382c 3335 2c32 322c 3032  | b',07,328,35,22,02' |
032: 2c30 3235 2c32 342c 3233 2c37 382c 3130  | b',025,24,23,78,10' |
048: 372c 3439 2c32 342c 3536 2c30 3638 2c34  | b'7,49,24,56,068,4' |
064: 392c 312a 3645 0d0a                      | b'9,1*6E\r\n' |
<NMEA(GPGSV, numMsg=3, msgNum=3, numSV=11, svid_01=32, elv_01=30.0, az_01=264, cno_01=44, svid_02=44, elv_02=23.0, az_02=235, cno_02=41, svid_03=46, elv_03=15.0, az_03=246, cno_03=39, signalID=1)>000: 2447 5047 5356 2c33 2c33 2c31 312c 3332  | b'$GPGSV,3,3,11,32' |
016: 2c33 302c 3236 342c 3434 2c34 342c 3233  | b',30,264,44,44,23' |
032: 2c32 3335 2c34 312c 3436 2c31 352c 3234  | b',235,41,46,15,24' |
048: 362c 3339 2c31 2a35 410d 0a              | b'6,39,1*5A\r\n' |
<NMEA(GPGSV, numMsg=2, msgNum=1, numSV=8, svid_01=10, elv_01=59.0, az_01=312, cno_01=39, svid_02=12, elv_02=12.0, az_02=120, cno_02=33, svid_03=15, elv_03=25.0, az_03=74, cno_03=35, svid_04=18, elv_04=29.0, az_04=190, cno_04=39, signalID=6)>000: 2447 5047 5356 2c32 2c31 2c30 382c 3130  | b'$GPGSV,2,1,08,10' |
016: 2c35 392c 3331 322c 3339 2c31 322c 3132  | b',59,312,39,12,12' |
032: 2c31 3230 2c33 332c 3135 2c32 352c 3037  | b',120,33,15,25,07' |
048: 342c 3335 2c31 382c 3239 2c31 3930 2c33  | b'4,35,18,29,190,3' |
064: 392c 362a 3641 0d0a                      | b'9,6*6A\r\n' |
<NMEA(GPGSV, numMsg=2, msgNum=2, numSV=8, svid_01=23, elv_01=78.0, az_01=107, cno_01=43, svid_02=24, elv_02=56.0, az_02=68, cno_02=42, svid_03=28, elv_03=0.0, az_03=211, cno_03=13, svid_04=32, elv_04=30.0, az_04=264, cno_04=39, signalID=6)>000: 2447 5047 5356 2c32 2c32 2c30 382c 3233  | b'$GPGSV,2,2,08,23' |
016: 2c37 382c 3130 372c 3433 2c32 342c 3536  | b',78,107,43,24,56' |
032: 2c30 3638 2c34 322c 3238 2c30 302c 3231  | b',068,42,28,00,21' |
048: 312c 3133 2c33 322c 3330 2c32 3634 2c33  | b'1,13,32,30,264,3' |
064: 392c 362a 3642 0d0a                      | b'9,6*6B\r\n' |
<NMEA(GPGSV, numMsg=1, msgNum=1, numSV=4, svid_01=2, elv_01=0.0, az_01=333, cno_01=, svid_02=8, elv_02=2.0, az_02=304, cno_02=, svid_03=25, elv_03=1.0, az_03=156, cno_03=, svid_04=27, elv_04=1.0, az_04=271, cno_04=, signalID=0)>000: 2447 5047 5356 2c31 2c31 2c30 342c 3032  | b'$GPGSV,1,1,04,02' |
016: 2c30 302c 3333 332c 2c30 382c 3032 2c33  | b',00,333,,08,02,3' |
032: 3034 2c2c 3235 2c30 312c 3135 362c 2c32  | b'04,,25,01,156,,2' |
048: 372c 3031 2c32 3731 2c2c 302a 3639 0d0a  | b'7,01,271,,0*69\r\n' |
<NMEA(GLGSV, numMsg=3, msgNum=1, numSV=10, svid_01=69, elv_01=15.0, az_01=81, cno_01=45, svid_02=70, elv_02=62.0, az_02=19, cno_02=40, svid_03=71, elv_03=36.0, az_03=299, cno_03=48, svid_04=73, elv_04=16.0, az_04=161, cno_04=45, signalID=1)>000: 2447 4c47 5356 2c33 2c31 2c31 302c 3639  | b'$GLGSV,3,1,10,69' |
016: 2c31 352c 3038 312c 3435 2c37 302c 3632  | b',15,081,45,70,62' |
032: 2c30 3139 2c34 302c 3731 2c33 362c 3239  | b',019,40,71,36,29' |
048: 392c 3438 2c37 332c 3136 2c31 3631 2c34  | b'9,48,73,16,161,4' |
064: 352c 312a 3745 0d0a                      | b'5,1*7E\r\n' |
<NMEA(GLGSV, numMsg=3, msgNum=2, numSV=10, svid_01=79, elv_01=27.0, az_01=39, cno_01=47, svid_02=80, elv_02=44.0, az_02=105, cno_02=51, svid_03=85, elv_03=26.0, az_03=228, cno_03=46, svid_04=86, elv_04=38.0, az_04=285, cno_04=48, signalID=1)>000: 2447 4c47 5356 2c33 2c32 2c31 302c 3739  | b'$GLGSV,3,2,10,79' |
016: 2c32 372c 3033 392c 3437 2c38 302c 3434  | b',27,039,47,80,44' |
032: 2c31 3035 2c35 312c 3835 2c32 362c 3232  | b',105,51,85,26,22' |
048: 382c 3436 2c38 362c 3338 2c32 3835 2c34  | b'8,46,86,38,285,4' |
064: 382c 312a 3737 0d0a                      | b'8,1*77\r\n' |
<NMEA(GLGSV, numMsg=3, msgNum=3, numSV=10, svid_01=87, elv_01=13.0, az_01=339, cno_01=40, svid_02=, elv_02=, az_02=, cno_02=46, signalID=1)>000: 2447 4c47 5356 2c33 2c33 2c31 302c 3837  | b'$GLGSV,3,3,10,87' |
016: 2c31 332c 3333 392c 3430 2c2c 2c2c 3436  | b',13,339,40,,,,46' |
032: 2c31 2a34 420d 0a                        | b',1*4B\r\n' |
<NMEA(GLGSV, numMsg=2, msgNum=1, numSV=6, svid_01=69, elv_01=15.0, az_01=81, cno_01=33, svid_02=71, elv_02=36.0, az_02=299, cno_02=32, svid_03=73, elv_03=16.0, az_03=161, cno_03=34, svid_04=79, elv_04=27.0, az_04=39, cno_04=33, signalID=3)>000: 2447 4c47 5356 2c32 2c31 2c30 362c 3639  | b'$GLGSV,2,1,06,69' |
016: 2c31 352c 3038 312c 3333 2c37 312c 3336  | b',15,081,33,71,36' |
032: 2c32 3939 2c33 322c 3733 2c31 362c 3136  | b',299,32,73,16,16' |
048: 312c 3334 2c37 392c 3237 2c30 3339 2c33  | b'1,34,79,27,039,3' |
064: 332c 332a 3745 0d0a                      | b'3,3*7E\r\n' |
<NMEA(GLGSV, numMsg=2, msgNum=2, numSV=6, svid_01=80, elv_01=44.0, az_01=105, cno_01=37, svid_02=85, elv_02=26.0, az_02=228, cno_02=34, signalID=3)>000: 2447 4c47 5356 2c32 2c32 2c30 362c 3830  | b'$GLGSV,2,2,06,80' |
016: 2c34 342c 3130 352c 3337 2c38 352c 3236  | b',44,105,37,85,26' |
032: 2c32 3238 2c33 342c 332a 3732 0d0a       | b',228,34,3*72\r\n' |
<NMEA(GLGSV, numMsg=1, msgNum=1, numSV=1, svid_01=94, elv_01=3.0, az_01=33, cno_01=, signalID=0)>000: 2447 4c47 5356 2c31 2c31 2c30 312c 3934  | b'$GLGSV,1,1,01,94' |
016: 2c30 332c 3033 332c 2c30 2a34 360d 0a    | b',03,033,,0*46\r\n' |
<NMEA(GAGSV, numMsg=2, msgNum=1, numSV=7, svid_01=4, elv_01=25.0, az_01=68, cno_01=36, svid_02=5, elv_02=42.0, az_02=268, cno_02=41, svid_03=9, elv_03=73.0, az_03=28, cno_03=42, svid_04=11, elv_04=13.0, az_04=178, cno_04=31, signalID=2)>000: 2447 4147 5356 2c32 2c31 2c30 372c 3034  | b'$GAGSV,2,1,07,04' |
016: 2c32 352c 3036 382c 3336 2c30 352c 3432  | b',25,068,36,05,42' |
032: 2c32 3638 2c34 312c 3039 2c37 332c 3032  | b',268,41,09,73,02' |
048: 382c 3432 2c31 312c 3133 2c31 3738 2c33  | b'8,42,11,13,178,3' |
064: 312c 322a 3746 0d0a                      | b'1,2*7F\r\n' |
<NMEA(GAGSV, numMsg=2, msgNum=2, numSV=7, svid_01=31, elv_01=20.0, az_01=110, cno_01=36, svid_02=34, elv_02=40.0, az_02=298, cno_02=40, svid_03=36, elv_03=47.0, az_03=221, cno_03=42, signalID=2)>000: 2447 4147 5356 2c32 2c32 2c30 372c 3331  | b'$GAGSV,2,2,07,31' |
016: 2c32 302c 3131 302c 3336 2c33 342c 3430  | b',20,110,36,34,40' |
032: 2c32 3938 2c34 302c 3336 2c34 372c 3232  | b',298,40,36,47,22' |
048: 312c 3432 2c32 2a34 310d 0a              | b'1,42,2*41\r\n' |
<NMEA(GAGSV, numMsg=2, msgNum=1, numSV=7, svid_01=4, elv_01=25.0, az_01=68, cno_01=43, svid_02=5, elv_02=42.0, az_02=268, cno_02=44, svid_03=9, elv_03=73.0, az_03=28, cno_03=49, svid_04=11, elv_04=13.0, az_04=178, cno_04=37, signalID=7)>000: 2447 4147 5356 2c32 2c31 2c30 372c 3034  | b'$GAGSV,2,1,07,04' |
016: 2c32 352c 3036 382c 3433 2c30 352c 3432  | b',25,068,43,05,42' |
032: 2c32 3638 2c34 342c 3039 2c37 332c 3032  | b',268,44,09,73,02' |
048: 382c 3439 2c31 312c 3133 2c31 3738 2c33  | b'8,49,11,13,178,3' |
064: 372c 372a 3730 0d0a                      | b'7,7*70\r\n' |
<NMEA(GAGSV, numMsg=2, msgNum=2, numSV=7, svid_01=31, elv_01=20.0, az_01=110, cno_01=41, svid_02=34, elv_02=40.0, az_02=298, cno_02=44, svid_03=36, elv_03=47.0, az_03=221, cno_03=47, signalID=7)>000: 2447 4147 5356 2c32 2c32 2c30 372c 3331  | b'$GAGSV,2,2,07,31' |
016: 2c32 302c 3131 302c 3431 2c33 342c 3430  | b',20,110,41,34,40' |
032: 2c32 3938 2c34 342c 3336 2c34 372c 3232  | b',298,44,36,47,22' |
048: 312c 3437 2c37 2a34 350d 0a              | b'1,47,7*45\r\n' |
<NMEA(GAGSV, numMsg=1, msgNum=1, numSV=2, svid_01=15, elv_01=3.0, az_01=333, cno_01=, svid_02=24, elv_02=3.0, az_02=155, cno_02=, signalID=0)>000: 2447 4147 5356 2c31 2c31 2c30 322c 3135  | b'$GAGSV,1,1,02,15' |
016: 2c30 332c 3333 332c 2c32 342c 3033 2c31  | b',03,333,,24,03,1' |
032: 3535 2c2c 302a 3736 0d0a                 | b'55,,0*76\r\n' |
<NMEA(GBGSV, numMsg=2, msgNum=1, numSV=8, svid_01=20, elv_01=56.0, az_01=305, cno_01=51, svid_02=23, elv_02=41.0, az_02=76, cno_02=50, svid_03=25, elv_03=10.0, az_03=36, cno_03=42, svid_04=29, elv_04=22.0, az_04=267, cno_04=43, signalID=1)>000: 2447 4247 5356 2c32 2c31 2c30 382c 3230  | b'$GBGSV,2,1,08,20' |
016: 2c35 362c 3330 352c 3531 2c32 332c 3431  | b',56,305,51,23,41' |
032: 2c30 3736 2c35 302c 3235 2c31 302c 3033  | b',076,50,25,10,03' |
048: 362c 3432 2c32 392c 3232 2c32 3637 2c34  | b'6,42,29,22,267,4' |
064: 332c 312a 3734 0d0a                      | b'3,1*74\r\n' |
<NMEA(GBGSV, numMsg=2, msgNum=2, numSV=8, svid_01=30, elv_01=8.0, az_01=215, cno_01=42, svid_02=32, elv_02=58.0, az_02=79, cno_02=51, svid_03=35, elv_03=10.0, az_03=322, cno_03=39, svid_04=37, elv_04=39.0, az_04=150, cno_04=49, signalID=1)>000: 2447 4247 5356 2c32 2c32 2c30 382c 3330  | b'$GBGSV,2,2,08,30' |
016: 2c30 382c 3231 352c 3432 2c33 322c 3538  | b',08,215,42,32,58' |
032: 2c30 3739 2c35 312c 3335 2c31 302c 3332  | b',079,51,35,10,32' |
048: 322c 3339 2c33 372c 3339 2c31 3530 2c34  | b'2,39,37,39,150,4' |
064: 392c 312a 3741 0d0a                      | b'9,1*7A\r\n' |
<NMEA(GNRMC, time=19:18:12.750000, status=A, lat=43.882633955, NS=N, lon=-72.1577961383, EW=W, spd=1.051, cog=288.89, date=2023-09-05, mv=, mvEW=, posMode=R, navStatus=V)>000: 2447 4e52 4d43 2c31 3931 3831 322e 3735  | b'$GNRMC,191812.75' |
016: 2c41 2c34 3335 322e 3935 3830 3337 332c  | b',A,4352.9580373,' |
032: 4e2c 3037 3230 392e 3436 3737 3638 332c  | b'N,07209.4677683,' |
048: 572c 312e 3035 312c 3238 382e 3839 2c30  | b'W,1.051,288.89,0' |
064: 3530 3932 332c 2c2c 522c 562a 3030 0d0a  | b'50923,,,R,V*00\r\n' |
<NMEA(GNVTG, cogt=288.89, cogtUnit=T, cogm=, cogmUnit=M, sogn=1.051, sognUnit=N, sogk=1.947, sogkUnit=K, posMode=D)>000: 2447 4e56 5447 2c32 3838 2e38 392c 542c  | b'$GNVTG,288.89,T,' |
016: 2c4d 2c31 2e30 3531 2c4e 2c31 2e39 3437  | b',M,1.051,N,1.947' |
032: 2c4b 2c44 2a32 420d 0a                   | b',K,D*2B\r\n' |
<NMEA(GNGGA, time=19:18:12.750000, lat=43.882633955, NS=N, lon=-72.1577961383, EW=W, quality=4, numSV=12, HDOP=0.6, alt=143.197, altUnit=M, sep=-32.547, sepUnit=M, diffAge=, diffStation=0)>000: 2447 4e47 4741 2c31 3931 3831 322e 3735  | b'$GNGGA,191812.75' |
016: 2c34 3335 322e 3935 3830 3337 332c 4e2c  | b',4352.9580373,N,' |
032: 3037 3230 392e 3436 3737 3638 332c 572c  | b'07209.4677683,W,' |
048: 342c 3132 2c30 2e36 302c 3134 332e 3139  | b'4,12,0.60,143.19' |
064: 372c 4d2c 2d33 322e 3534 372c 4d2c 2c30  | b'7,M,-32.547,M,,0' |
080: 3030 302a 3733 0d0a                      | b'000*73\r\n' |
<NMEA(GNGSA, opMode=A, navMode=3, svid_01=46, svid_02=44, svid_03=24, svid_04=18, svid_05=10, svid_06=12, svid_07=23, svid_08=15, svid_09=32, svid_10=, svid_11=, svid_12=, PDOP=1.15, HDOP=0.6, VDOP=0.98, systemId=1)>000: 2447 4e47 5341 2c41 2c33 2c34 362c 3434  | b'$GNGSA,A,3,46,44' |
016: 2c32 342c 3138 2c31 302c 3132 2c32 332c  | b',24,18,10,12,23,' |
032: 3135 2c33 322c 2c2c 2c31 2e31 352c 302e  | b'15,32,,,,1.15,0.' |
048: 3630 2c30 2e39 382c 312a 3038 0d0a       | b'60,0.98,1*08\r\n' |
<NMEA(GNGSA, opMode=A, navMode=3, svid_01=69, svid_02=87, svid_03=85, svid_04=80, svid_05=71, svid_06=73, svid_07=70, svid_08=79, svid_09=, svid_10=, svid_11=, svid_12=, PDOP=1.15, HDOP=0.6, VDOP=0.98, systemId=2)>000: 2447 4e47 5341 2c41 2c33 2c36 392c 3837  | b'$GNGSA,A,3,69,87' |
016: 2c38 352c 3830 2c37 312c 3733 2c37 302c  | b',85,80,71,73,70,' |
032: 3739 2c2c 2c2c 2c31 2e31 352c 302e 3630  | b'79,,,,,1.15,0.60' |
048: 2c30 2e39 382c 322a 3045 0d0a            | b',0.98,2*0E\r\n' |
<NMEA(GNGSA, opMode=A, navMode=3, svid_01=36, svid_02=5, svid_03=31, svid_04=34, svid_05=4, svid_06=11, svid_07=9, svid_08=, svid_09=, svid_10=, svid_11=, svid_12=, PDOP=1.15, HDOP=0.6, VDOP=0.98, systemId=3)>000: 2447 4e47 5341 2c41 2c33 2c33 362c 3035  | b'$GNGSA,A,3,36,05' |
016: 2c33 312c 3334 2c30 342c 3131 2c30 392c  | b',31,34,04,11,09,' |
032: 2c2c 2c2c 2c31 2e31 352c 302e 3630 2c30  | b',,,,,1.15,0.60,0' |
048: 2e39 382c 332a 3039 0d0a                 | b'.98,3*09\r\n' |
<NMEA(GNGSA, opMode=A, navMode=3, svid_01=37, svid_02=32, svid_03=29, svid_04=20, svid_05=23, svid_06=, svid_07=, svid_08=, svid_09=, svid_10=, svid_11=, svid_12=, PDOP=1.15, HDOP=0.6, VDOP=0.98, systemId=4)>000: 2447 4e47 5341 2c41 2c33 2c33 372c 3332  | b'$GNGSA,A,3,37,32' |
016: 2c32 392c 3230 2c32 332c 2c2c 2c2c 2c2c  | b',29,20,23,,,,,,,' |
032: 2c31 2e31 352c 302e 3630 2c30 2e39 382c  | b',1.15,0.60,0.98,' |
048: 342a 3042 0d0a                           | b'4*0B\r\n' |
<NMEA(GPGSV, numMsg=3, msgNum=1, numSV=11, svid_01=10, elv_01=59.0, az_01=312, cno_01=50, svid_02=12, elv_02=12.0, az_02=120, cno_02=41, svid_03=15, elv_03=25.0, az_03=74, cno_03=44, svid_04=18, elv_04=29.0, az_04=190, cno_04=45, signalID=1)>000: 2447 5047 5356 2c33 2c31 2c31 312c 3130  | b'$GPGSV,3,1,11,10' |
016: 2c35 392c 3331 322c 3530 2c31 322c 3132  | b',59,312,50,12,12' |
032: 2c31 3230 2c34 312c 3135 2c32 352c 3037  | b',120,41,15,25,07' |
048: 342c 3434 2c31 382c 3239 2c31 3930 2c34  | b'4,44,18,29,190,4' |
064: 352c 312a 3633 0d0a                      | b'5,1*63\r\n' |
<NMEA(GPGSV, numMsg=3, msgNum=2, numSV=11, svid_01=21, elv_01=7.0, az_01=328, cno_01=35, svid_02=22, elv_02=2.0, az_02=25, cno_02=24, svid_03=23, elv_03=78.0, az_03=107, cno_03=50, svid_04=24, elv_04=56.0, az_04=68, cno_04=48, signalID=1)>000: 2447 5047 5356 2c33 2c32 2c31 312c 3231  | b'$GPGSV,3,2,11,21' |
016: 2c30 372c 3332 382c 3335 2c32 322c 3032  | b',07,328,35,22,02' |
032: 2c30 3235 2c32 342c 3233 2c37 382c 3130  | b',025,24,23,78,10' |
048: 372c 3530 2c32 342c 3536 2c30 3638 2c34  | b'7,50,24,56,068,4' |
064: 382c 312a 3637 0d0a                      | b'8,1*67\r\n' |
<NMEA(GPGSV, numMsg=3, msgNum=3, numSV=11, svid_01=32, elv_01=30.0, az_01=264, cno_01=45, svid_02=44, elv_02=23.0, az_02=235, cno_02=41, svid_03=46, elv_03=15.0, az_03=246, cno_03=40, signalID=1)>000: 2447 5047 5356 2c33 2c33 2c31 312c 3332  | b'$GPGSV,3,3,11,32' |
016: 2c33 302c 3236 342c 3435 2c34 342c 3233  | b',30,264,45,44,23' |
032: 2c32 3335 2c34 312c 3436 2c31 352c 3234  | b',235,41,46,15,24' |
048: 362c 3430 2c31 2a35 350d 0a              | b'6,40,1*55\r\n' |
<NMEA(GPGSV, numMsg=2, msgNum=1, numSV=8, svid_01=10, elv_01=59.0, az_01=312, cno_01=39, svid_02=12, elv_02=12.0, az_02=120, cno_02=33, svid_03=15, elv_03=25.0, az_03=74, cno_03=35, svid_04=18, elv_04=29.0, az_04=190, cno_04=40, signalID=6)>000: 2447 5047 5356 2c32 2c31 2c30 382c 3130  | b'$GPGSV,2,1,08,10' |
016: 2c35 392c 3331 322c 3339 2c31 322c 3132  | b',59,312,39,12,12' |
032: 2c31 3230 2c33 332c 3135 2c32 352c 3037  | b',120,33,15,25,07' |
048: 342c 3335 2c31 382c 3239 2c31 3930 2c34  | b'4,35,18,29,190,4' |
064: 302c 362a 3634 0d0a                      | b'0,6*64\r\n' |
<NMEA(GPGSV, numMsg=2, msgNum=2, numSV=8, svid_01=23, elv_01=78.0, az_01=107, cno_01=44, svid_02=24, elv_02=56.0, az_02=68, cno_02=42, svid_03=28, elv_03=0.0, az_03=211, cno_03=13, svid_04=32, elv_04=30.0, az_04=264, cno_04=39, signalID=6)>000: 2447 5047 5356 2c32 2c32 2c30 382c 3233  | b'$GPGSV,2,2,08,23' |
016: 2c37 382c 3130 372c 3434 2c32 342c 3536  | b',78,107,44,24,56' |
032: 2c30 3638 2c34 322c 3238 2c30 302c 3231  | b',068,42,28,00,21' |
048: 312c 3133 2c33 322c 3330 2c32 3634 2c33  | b'1,13,32,30,264,3' |
064: 392c 362a 3643 0d0a                      | b'9,6*6C\r\n' |
<NMEA(GPGSV, numMsg=1, msgNum=1, numSV=4, svid_01=2, elv_01=0.0, az_01=333, cno_01=, svid_02=8, elv_02=2.0, az_02=304, cno_02=, svid_03=25, elv_03=1.0, az_03=156, cno_03=, svid_04=27, elv_04=1.0, az_04=271, cno_04=, signalID=0)>000: 2447 5047 5356 2c31 2c31 2c30 342c 3032  | b'$GPGSV,1,1,04,02' |
016: 2c30 302c 3333 332c 2c30 382c 3032 2c33  | b',00,333,,08,02,3' |
032: 3034 2c2c 3235 2c30 312c 3135 362c 2c32  | b'04,,25,01,156,,2' |
048: 372c 3031 2c32 3731 2c2c 302a 3639 0d0a  | b'7,01,271,,0*69\r\n' |
<NMEA(GLGSV, numMsg=3, msgNum=1, numSV=10, svid_01=69, elv_01=15.0, az_01=81, cno_01=45, svid_02=70, elv_02=62.0, az_02=19, cno_02=40, svid_03=71, elv_03=36.0, az_03=299, cno_03=48, svid_04=73, elv_04=16.0, az_04=161, cno_04=44, signalID=1)>000: 2447 4c47 5356 2c33 2c31 2c31 302c 3639  | b'$GLGSV,3,1,10,69' |
016: 2c31 352c 3038 312c 3435 2c37 302c 3632  | b',15,081,45,70,62' |
032: 2c30 3139 2c34 302c 3731 2c33 362c 3239  | b',019,40,71,36,29' |
048: 392c 3438 2c37 332c 3136 2c31 3631 2c34  | b'9,48,73,16,161,4' |
064: 342c 312a 3746 0d0a                      | b'4,1*7F\r\n' |
<NMEA(GLGSV, numMsg=3, msgNum=2, numSV=10, svid_01=79, elv_01=27.0, az_01=39, cno_01=46, svid_02=80, elv_02=44.0, az_02=105, cno_02=51, svid_03=85, elv_03=26.0, az_03=228, cno_03=47, svid_04=86, elv_04=38.0, az_04=285, cno_04=47, signalID=1)>000: 2447 4c47 5356 2c33 2c32 2c31 302c 3739  | b'$GLGSV,3,2,10,79' |
016: 2c32 372c 3033 392c 3436 2c38 302c 3434  | b',27,039,46,80,44' |
032: 2c31 3035 2c35 312c 3835 2c32 362c 3232  | b',105,51,85,26,22' |
048: 382c 3437 2c38 362c 3338 2c32 3835 2c34  | b'8,47,86,38,285,4' |
064: 372c 312a 3738 0d0a                      | b'7,1*78\r\n' |
<NMEA(GLGSV, numMsg=3, msgNum=3, numSV=10, svid_01=87, elv_01=13.0, az_01=339, cno_01=40, svid_02=, elv_02=, az_02=, cno_02=47, signalID=1)>000: 2447 4c47 5356 2c33 2c33 2c31 302c 3837  | b'$GLGSV,3,3,10,87' |
016: 2c31 332c 3333 392c 3430 2c2c 2c2c 3437  | b',13,339,40,,,,47' |
032: 2c31 2a34 410d 0a                        | b',1*4A\r\n' |
<NMEA(GLGSV, numMsg=2, msgNum=1, numSV=6, svid_01=69, elv_01=15.0, az_01=81, cno_01=32, svid_02=71, elv_02=36.0, az_02=299, cno_02=32, svid_03=73, elv_03=16.0, az_03=161, cno_03=33, svid_04=79, elv_04=27.0, az_04=39, cno_04=33, signalID=3)>000: 2447 4c47 5356 2c32 2c31 2c30 362c 3639  | b'$GLGSV,2,1,06,69' |
016: 2c31 352c 3038 312c 3332 2c37 312c 3336  | b',15,081,32,71,36' |
032: 2c32 3939 2c33 322c 3733 2c31 362c 3136  | b',299,32,73,16,16' |
048: 312c 3333 2c37 392c 3237 2c30 3339 2c33  | b'1,33,79,27,039,3' |
064: 332c 332a 3738 0d0a                      | b'3,3*78\r\n' |
<NMEA(GLGSV, numMsg=2, msgNum=2, numSV=6, svid_01=80, elv_01=44.0, az_01=105, cno_01=37, svid_02=85, elv_02=26.0, az_02=228, cno_02=34, signalID=3)>000: 2447 4c47 5356 2c32 2c32 2c30 362c 3830  | b'$GLGSV,2,2,06,80' |
016: 2c34 342c 3130 352c 3337 2c38 352c 3236  | b',44,105,37,85,26' |
032: 2c32 3238 2c33 342c 332a 3732 0d0a       | b',228,34,3*72\r\n' |
<NMEA(GLGSV, numMsg=1, msgNum=1, numSV=1, svid_01=94, elv_01=3.0, az_01=33, cno_01=, signalID=0)>000: 2447 4c47 5356 2c31 2c31 2c30 312c 3934  | b'$GLGSV,1,1,01,94' |
016: 2c30 332c 3033 332c 2c30 2a34 360d 0a    | b',03,033,,0*46\r\n' |
<NMEA(GAGSV, numMsg=2, msgNum=1, numSV=7, svid_01=4, elv_01=25.0, az_01=68, cno_01=37, svid_02=5, elv_02=42.0, az_02=268, cno_02=42, svid_03=9, elv_03=73.0, az_03=28, cno_03=43, svid_04=11, elv_04=13.0, az_04=178, cno_04=32, signalID=2)>000: 2447 4147 5356 2c32 2c31 2c30 372c 3034  | b'$GAGSV,2,1,07,04' |
016: 2c32 352c 3036 382c 3337 2c30 352c 3432  | b',25,068,37,05,42' |
032: 2c32 3638 2c34 322c 3039 2c37 332c 3032  | b',268,42,09,73,02' |
048: 382c 3433 2c31 312c 3133 2c31 3738 2c33  | b'8,43,11,13,178,3' |
064: 322c 322a 3746 0d0a                      | b'2,2*7F\r\n' |
<NMEA(GAGSV, numMsg=2, msgNum=2, numSV=7, svid_01=31, elv_01=20.0, az_01=110, cno_01=36, svid_02=34, elv_02=40.0, az_02=298, cno_02=41, svid_03=36, elv_03=47.0, az_03=221, cno_03=42, signalID=2)>000: 2447 4147 5356 2c32 2c32 2c30 372c 3331  | b'$GAGSV,2,2,07,31' |
016: 2c32 302c 3131 302c 3336 2c33 342c 3430  | b',20,110,36,34,40' |
032: 2c32 3938 2c34 312c 3336 2c34 372c 3232  | b',298,41,36,47,22' |
048: 312c 3432 2c32 2a34 300d 0a              | b'1,42,2*40\r\n' |
<NMEA(GAGSV, numMsg=2, msgNum=1, numSV=7, svid_01=4, elv_01=25.0, az_01=68, cno_01=42, svid_02=5, elv_02=42.0, az_02=268, cno_02=44, svid_03=9, elv_03=73.0, az_03=28, cno_03=48, svid_04=11, elv_04=13.0, az_04=178, cno_04=37, signalID=7)>000: 2447 4147 5356 2c32 2c31 2c30 372c 3034  | b'$GAGSV,2,1,07,04' |
016: 2c32 352c 3036 382c 3432 2c30 352c 3432  | b',25,068,42,05,42' |
032: 2c32 3638 2c34 342c 3039 2c37 332c 3032  | b',268,44,09,73,02' |
048: 382c 3438 2c31 312c 3133 2c31 3738 2c33  | b'8,48,11,13,178,3' |
064: 372c 372a 3730 0d0a                      | b'7,7*70\r\n' |
<NMEA(GAGSV, numMsg=2, msgNum=2, numSV=7, svid_01=31, elv_01=20.0, az_01=110, cno_01=41, svid_02=34, elv_02=40.0, az_02=298, cno_02=44, svid_03=36, elv_03=47.0, az_03=221, cno_03=46, signalID=7)>000: 2447 4147 5356 2c32 2c32 2c30 372c 3331  | b'$GAGSV,2,2,07,31' |
016: 2c32 302c 3131 302c 3431 2c33 342c 3430  | b',20,110,41,34,40' |
032: 2c32 3938 2c34 342c 3336 2c34 372c 3232  | b',298,44,36,47,22' |
048: 312c 3436 2c37 2a34 340d 0a              | b'1,46,7*44\r\n' |
<NMEA(GAGSV, numMsg=1, msgNum=1, numSV=2, svid_01=15, elv_01=3.0, az_01=333, cno_01=, svid_02=24, elv_02=3.0, az_02=155, cno_02=, signalID=0)>000: 2447 4147 5356 2c31 2c31 2c30 322c 3135  | b'$GAGSV,1,1,02,15' |
016: 2c30 332c 3333 332c 2c32 342c 3033 2c31  | b',03,333,,24,03,1' |
032: 3535 2c2c 302a 3736 0d0a                 | b'55,,0*76\r\n' |
<NMEA(GBGSV, numMsg=2, msgNum=1, numSV=8, svid_01=20, elv_01=56.0, az_01=305, cno_01=51, svid_02=23, elv_02=41.0, az_02=76, cno_02=50, svid_03=25, elv_03=10.0, az_03=36, cno_03=40, svid_04=29, elv_04=22.0, az_04=267, cno_04=43, signalID=1)>000: 2447 4247 5356 2c32 2c31 2c30 382c 3230  | b'$GBGSV,2,1,08,20' |
016: 2c35 362c 3330 352c 3531 2c32 332c 3431  | b',56,305,51,23,41' |
032: 2c30 3736 2c35 302c 3235 2c31 302c 3033  | b',076,50,25,10,03' |
048: 362c 3430 2c32 392c 3232 2c32 3637 2c34  | b'6,40,29,22,267,4' |
064: 332c 312a 3736 0d0a                      | b'3,1*76\r\n' |
<NMEA(GBGSV, numMsg=2, msgNum=2, numSV=8, svid_01=30, elv_01=8.0, az_01=215, cno_01=42, svid_02=32, elv_02=58.0, az_02=79, cno_02=51, svid_03=35, elv_03=10.0, az_03=322, cno_03=39, svid_04=37, elv_04=39.0, az_04=150, cno_04=49, signalID=1)>000: 2447 4247 5356 2c32 2c32 2c30 382c 3330  | b'$GBGSV,2,2,08,30' |
016: 2c30 382c 3231 352c 3432 2c33 322c 3538  | b',08,215,42,32,58' |
032: 2c30 3739 2c35 312c 3335 2c31 302c 3332  | b',079,51,35,10,32' |
048: 322c 3339 2c33 372c 3339 2c31 3530 2c34  | b'2,39,37,39,150,4' |
064: 392c 312a 3741 0d0a                      | b'9,1*7A\r\n' |
<NMEA(GBGSV, numMsg=2, msgNum=1, numSV=7, svid_01=20, elv_01=56.0, az_01=305, cno_01=11, svid_02=23, elv_02=41.0, az_02=76, cno_02=14, svid_03=25, elv_03=10.0, az_03=36, cno_03=10, svid_04=30, elv_04=8.0, az_04=215, cno_04=8, signalID=3)>000: 2447 4247 5356 2c32 2c31 2c30 372c 3230  | b'$GBGSV,2,1,07,20' |
016: 2c35 362c 3330 352c 3131 2c32 332c 3431  | b',56,305,11,23,41' |
032: 2c30 3736 2c31 342c 3235 2c31 302c 3033  | b',076,14,25,10,03' |
048: 362c 3130 2c33 302c 3038 2c32 3135 2c30  | b'6,10,30,08,215,0' |
064: 382c 332a 3730 0d0a                      | b'8,3*70\r\n' |
<NMEA(GBGSV, numMsg=2, msgNum=2, numSV=7, svid_01=32, elv_01=58.0, az_01=79, cno_01=13, svid_02=35, elv_02=10.0, az_02=322, cno_02=8, svid_03=37, elv_03=39.0, az_03=150, cno_03=8, signalID=3)>000: 2447 4247 5356 2c32 2c32 2c30 372c 3332  | b'$GBGSV,2,2,07,32' |
016: 2c35 382c 3037 392c 3133 2c33 352c 3130  | b',58,079,13,35,10' |
032: 2c33 3232 2c30 382c 3337 2c33 392c 3135  | b',322,08,37,39,15' |
048: 302c 3038 2c33 2a34 440d 0a              | b'0,08,3*4D\r\n' |
<NMEA(GBGSV, numMsg=1, msgNum=1, numSV=1, svid_01=19, elv_01=9.0, az_01=287, cno_01=, signalID=0)>000: 2447 4247 5356 2c31 2c31 2c30 312c 3139  | b'$GBGSV,1,1,01,19' |
016: 2c30 392c 3238 372c 2c30 2a34 410d 0a    | b',09,287,,0*4A\r\n' |
<NMEA(GNGLL, lat=43.882633955, NS=N, lon=-72.1577961383, EW=W, time=19:18:12.750000, status=A, posMode=D)>000: 2447 4e47 4c4c 2c34 3335 322e 3935 3830  | b'$GNGLL,4352.9580' |
016: 3337 332c 4e2c 3037 3230 392e 3436 3737  | b'373,N,07209.4677' |
032: 3638 332c 572c 3139 3138 3132 2e37 352c  | b'683,W,191812.75,' |
048: 412c 442a 3630 0d0a                      | b'A,D*60\r\n' |
<NMEA(GNRMC, time=19:18:13, status=A, lat=43.8826337233, NS=N, lon=-72.157797655, EW=W, spd=0.985, cog=258.34, date=2023-09-05, mv=, mvEW=, posMode=R, navStatus=V)>000: 2447 4e52 4d43 2c31 3931 3831 332e 3030  | b'$GNRMC,191813.00' |
016: 2c41 2c34 3335 322e 3935 3830 3233 342c  | b',A,4352.9580234,' |
032: 4e2c 3037 3230 392e 3436 3738 3539 332c  | b'N,07209.4678593,' |
048: 572c 302e 3938 352c 3235 382e 3334 2c30  | b'W,0.985,258.34,0' |
064: 3530 3932 332c 2c2c 522c 562a 3036 0d0a  | b'50923,,,R,V*06\r\n' |
<NMEA(GNVTG, cogt=258.34, cogtUnit=T, cogm=, cogmUnit=M, sogn=0.985, sognUnit=N, sogk=1.824, sogkUnit=K, posMode=D)>000: 2447 4e56 5447 2c32 3538 2e33 342c 542c  | b'$GNVTG,258.34,T,' |
016: 2c4d 2c30 2e39 3835 2c4e 2c31 2e38 3234  | b',M,0.985,N,1.824' |
032: 2c4b 2c44 2a32 350d 0a                   | b',K,D*25\r\n' |
<NMEA(GNGGA, time=19:18:13, lat=43.8826337233, NS=N, lon=-72.157797655, EW=W, quality=4, numSV=12, HDOP=0.6, alt=143.193, altUnit=M, sep=-32.547, sepUnit=M, diffAge=, diffStation=0)>000: 2447 4e47 4741 2c31 3931 3831 332e 3030  | b'$GNGGA,191813.00' |
016: 2c34 3335 322e 3935 3830 3233 342c 4e2c  | b',4352.9580234,N,' |
032: 3037 3230 392e 3436 3738 3539 332c 572c  | b'07209.4678593,W,' |
048: 342c 3132 2c30 2e36 302c 3134 332e 3139  | b'4,12,0.60,143.19' |
064: 332c 4d2c 2d33 322e 3534 372c 4d2c 2c30  | b'3,M,-32.547,M,,0' |
080: 3030 302a 3742 0d0a                      | b'000*7B\r\n' |
<NMEA(GNGSA, opMode=A, navMode=3, svid_01=46, svid_02=44, svid_03=24, svid_04=18, svid_05=10, svid_06=12, svid_07=23, svid_08=15, svid_09=32, svid_10=, svid_11=, svid_12=, PDOP=1.15, HDOP=0.6, VDOP=0.98, systemId=1)>000: 2447 4e47 5341 2c41 2c33 2c34 362c 3434  | b'$GNGSA,A,3,46,44' |
016: 2c32 342c 3138 2c31 302c 3132 2c32 332c  | b',24,18,10,12,23,' |
032: 3135 2c33 322c 2c2c 2c31 2e31 352c 302e  | b'15,32,,,,1.15,0.' |
048: 3630 2c30 2e39 382c 312a 3038 0d0a       | b'60,0.98,1*08\r\n' |
<NMEA(GNGSA, opMode=A, navMode=3, svid_01=69, svid_02=87, svid_03=85, svid_04=80, svid_05=71, svid_06=73, svid_07=70, svid_08=79, svid_09=, svid_10=, svid_11=, svid_12=, PDOP=1.15, HDOP=0.6, VDOP=0.98, systemId=2)>000: 2447 4e47 5341 2c41 2c33 2c36 392c 3837  | b'$GNGSA,A,3,69,87' |
016: 2c38 352c 3830 2c37 312c 3733 2c37 302c  | b',85,80,71,73,70,' |
032: 3739 2c2c 2c2c 2c31 2e31 352c 302e 3630  | b'79,,,,,1.15,0.60' |
048: 2c30 2e39 382c 322a 3045 0d0a            | b',0.98,2*0E\r\n' |
<NMEA(GNGSA, opMode=A, navMode=3, svid_01=36, svid_02=5, svid_03=31, svid_04=34, svid_05=4, svid_06=11, svid_07=9, svid_08=, svid_09=, svid_10=, svid_11=, svid_12=, PDOP=1.15, HDOP=0.6, VDOP=0.98, systemId=3)>000: 2447 4e47 5341 2c41 2c33 2c33 362c 3035  | b'$GNGSA,A,3,36,05' |
016: 2c33 312c 3334 2c30 342c 3131 2c30 392c  | b',31,34,04,11,09,' |
032: 2c2c 2c2c 2c31 2e31 352c 302e 3630 2c30  | b',,,,,1.15,0.60,0' |
048: 2e39 382c 332a 3039 0d0a                 | b'.98,3*09\r\n' |
<NMEA(GNGSA, opMode=A, navMode=3, svid_01=37, svid_02=32, svid_03=29, svid_04=20, svid_05=23, svid_06=, svid_07=, svid_08=, svid_09=, svid_10=, svid_11=, svid_12=, PDOP=1.15, HDOP=0.6, VDOP=0.98, systemId=4)>000: 2447 4e47 5341 2c41 2c33 2c33 372c 3332  | b'$GNGSA,A,3,37,32' |
016: 2c32 392c 3230 2c32 332c 2c2c 2c2c 2c2c  | b',29,20,23,,,,,,,' |
032: 2c31 2e31 352c 302e 3630 2c30 2e39 382c  | b',1.15,0.60,0.98,' |
048: 342a 3042 0d0a                           | b'4*0B\r\n' |
<NMEA(GPGSV, numMsg=3, msgNum=1, numSV=11, svid_01=10, elv_01=59.0, az_01=312, cno_01=50, svid_02=12, elv_02=12.0, az_02=120, cno_02=41, svid_03=15, elv_03=25.0, az_03=74, cno_03=44, svid_04=18, elv_04=29.0, az_04=190, cno_04=45, signalID=1)>000: 2447 5047 5356 2c33 2c31 2c31 312c 3130  | b'$GPGSV,3,1,11,10' |
016: 2c35 392c 3331 322c 3530 2c31 322c 3132  | b',59,312,50,12,12' |
032: 2c31 3230 2c34 312c 3135 2c32 352c 3037  | b',120,41,15,25,07' |
048: 342c 3434 2c31 382c 3239 2c31 3930 2c34  | b'4,44,18,29,190,4' |
064: 352c 312a 3633 0d0a                      | b'5,1*63\r\n' |
<NMEA(GPGSV, numMsg=3, msgNum=2, numSV=11, svid_01=21, elv_01=7.0, az_01=328, cno_01=35, svid_02=22, elv_02=2.0, az_02=25, cno_02=24, svid_03=23, elv_03=78.0, az_03=107, cno_03=50, svid_04=24, elv_04=56.0, az_04=68, cno_04=48, signalID=1)>000: 2447 5047 5356 2c33 2c32 2c31 312c 3231  | b'$GPGSV,3,2,11,21' |
016: 2c30 372c 3332 382c 3335 2c32 322c 3032  | b',07,328,35,22,02' |
032: 2c30 3235 2c32 342c 3233 2c37 382c 3130  | b',025,24,23,78,10' |
048: 372c 3530 2c32 342c 3536 2c30 3638 2c34  | b'7,50,24,56,068,4' |
064: 382c 312a 3637 0d0a                      | b'8,1*67\r\n' |
<NMEA(GPGSV, numMsg=3, msgNum=3, numSV=11, svid_01=32, elv_01=30.0, az_01=264, cno_01=45, svid_02=44, elv_02=23.0, az_02=235, cno_02=42, svid_03=46, elv_03=15.0, az_03=246, cno_03=40, signalID=1)>000: 2447 5047 5356 2c33 2c33 2c31 312c 3332  | b'$GPGSV,3,3,11,32' |
016: 2c33 302c 3236 342c 3435 2c34 342c 3233  | b',30,264,45,44,23' |
032: 2c32 3335 2c34 322c 3436 2c31 352c 3234  | b',235,42,46,15,24' |
048: 362c 3430 2c31 2a35 360d 0a              | b'6,40,1*56\r\n' |
<NMEA(GPGSV, numMsg=2, msgNum=1, numSV=8, svid_01=10, elv_01=59.0, az_01=312, cno_01=40, svid_02=12, elv_02=12.0, az_02=120, cno_02=33, svid_03=15, elv_03=25.0, az_03=74, cno_03=35, svid_04=18, elv_04=29.0, az_04=190, cno_04=40, signalID=6)>000: 2447 5047 5356 2c32 2c31 2c30 382c 3130  | b'$GPGSV,2,1,08,10' |
016: 2c35 392c 3331 322c 3430 2c31 322c 3132  | b',59,312,40,12,12' |
032: 2c31 3230 2c33 332c 3135 2c32 352c 3037  | b',120,33,15,25,07' |
048: 342c 3335 2c31 382c 3239 2c31 3930 2c34  | b'4,35,18,29,190,4' |
064: 302c 362a 3641 0d0a                      | b'0,6*6A\r\n' |
<NMEA(GPGSV, numMsg=2, msgNum=2, numSV=8, svid_01=23, elv_01=78.0, az_01=107, cno_01=44, svid_02=24, elv_02=56.0, az_02=68, cno_02=42, svid_03=28, elv_03=0.0, az_03=211, cno_03=13, svid_04=32, elv_04=30.0, az_04=264, cno_04=39, signalID=6)>000: 2447 5047 5356 2c32 2c32 2c30 382c 3233  | b'$GPGSV,2,2,08,23' |
016: 2c37 382c 3130 372c 3434 2c32 342c 3536  | b',78,107,44,24,56' |
032: 2c30 3638 2c34 322c 3238 2c30 302c 3231  | b',068,42,28,00,21' |
048: 312c 3133 2c33 322c 3330 2c32 3634 2c33  | b'1,13,32,30,264,3' |
064: 392c 362a 3643 0d0a                      | b'9,6*6C\r\n' |
<NMEA(GPGSV, numMsg=1, msgNum=1, numSV=4, svid_01=2, elv_01=0.0, az_01=333, cno_01=, svid_02=8, elv_02=2.0, az_02=304, cno_02=, svid_03=25, elv_03=1.0, az_03=156, cno_03=, svid_04=27, elv_04=1.0, az_04=271, cno_04=, signalID=0)>000: 2447 5047 5356 2c31 2c31 2c30 342c 3032  | b'$GPGSV,1,1,04,02' |
016: 2c30 302c 3333 332c 2c30 382c 3032 2c33  | b',00,333,,08,02,3' |
032: 3034 2c2c 3235 2c30 312c 3135 362c 2c32  | b'04,,25,01,156,,2' |
048: 372c 3031 2c32 3731 2c2c 302a 3639 0d0a  | b'7,01,271,,0*69\r\n' |
<NMEA(GLGSV, numMsg=3, msgNum=1, numSV=10, svid_01=69, elv_01=15.0, az_01=81, cno_01=45, svid_02=70, elv_02=62.0, az_02=19, cno_02=40, svid_03=71, elv_03=36.0, az_03=299, cno_03=49, svid_04=73, elv_04=16.0, az_04=161, cno_04=46, signalID=1)>000: 2447 4c47 5356 2c33 2c31 2c31 302c 3639  | b'$GLGSV,3,1,10,69' |
016: 2c31 352c 3038 312c 3435 2c37 302c 3632  | b',15,081,45,70,62' |
032: 2c30 3139 2c34 302c 3731 2c33 362c 3239  | b',019,40,71,36,29' |
048: 392c 3439 2c37 332c 3136 2c31 3631 2c34  | b'9,49,73,16,161,4' |
064: 362c 312a 3743 0d0a                      | b'6,1*7C\r\n' |
<NMEA(GLGSV, numMsg=3, msgNum=2, numSV=10, svid_01=79, elv_01=27.0, az_01=39, cno_01=46, svid_02=80, elv_02=44.0, az_02=105, cno_02=51, svid_03=85, elv_03=26.0, az_03=228, cno_03=46, svid_04=86, elv_04=38.0, az_04=285, cno_04=48, signalID=1)>000: 2447 4c47 5356 2c33 2c32 2c31 302c 3739  | b'$GLGSV,3,2,10,79' |
016: 2c32 372c 3033 392c 3436 2c38 302c 3434  | b',27,039,46,80,44' |
032: 2c31 3035 2c35 312c 3835 2c32 362c 3232  | b',105,51,85,26,22' |
048: 382c 3436 2c38 362c 3338 2c32 3835 2c34  | b'8,46,86,38,285,4' |
064: 382c 312a 3736 0d0a                      | b'8,1*76\r\n' |
<NMEA(GLGSV, numMsg=3, msgNum=3, numSV=10, svid_01=87, elv_01=13.0, az_01=339, cno_01=40, svid_02=, elv_02=, az_02=, cno_02=47, signalID=1)>000: 2447 4c47 5356 2c33 2c33 2c31 302c 3837  | b'$GLGSV,3,3,10,87' |
016: 2c31 332c 3333 392c 3430 2c2c 2c2c 3437  | b',13,339,40,,,,47' |
032: 2c31 2a34 410d 0a                        | b',1*4A\r\n' |
<NMEA(GLGSV, numMsg=2, msgNum=1, numSV=6, svid_01=69, elv_01=15.0, az_01=81, cno_01=32, svid_02=71, elv_02=36.0, az_02=299, cno_02=32, svid_03=73, elv_03=16.0, az_03=161, cno_03=33, svid_04=79, elv_04=27.0, az_04=39, cno_04=33, signalID=3)>000: 2447 4c47 5356 2c32 2c31 2c30 362c 3639  | b'$GLGSV,2,1,06,69' |
016: 2c31 352c 3038 312c 3332 2c37 312c 3336  | b',15,081,32,71,36' |
032: 2c32 3939 2c33 322c 3733 2c31 362c 3136  | b',299,32,73,16,16' |
048: 312c 3333 2c37 392c 3237 2c30 3339 2c33  | b'1,33,79,27,039,3' |
064: 332c 332a 3738 0d0a                      | b'3,3*78\r\n' |
<NMEA(GLGSV, numMsg=2, msgNum=2, numSV=6, svid_01=80, elv_01=44.0, az_01=105, cno_01=37, svid_02=85, elv_02=26.0, az_02=228, cno_02=34, signalID=3)>000: 2447 4c47 5356 2c32 2c32 2c30 362c 3830  | b'$GLGSV,2,2,06,80' |
016: 2c34 342c 3130 352c 3337 2c38 352c 3236  | b',44,105,37,85,26' |
032: 2c32 3238 2c33 342c 332a 3732 0d0a       | b',228,34,3*72\r\n' |
<NMEA(GLGSV, numMsg=1, msgNum=1, numSV=1, svid_01=94, elv_01=3.0, az_01=33, cno_01=, signalID=0)>000: 2447 4c47 5356 2c31 2c31 2c30 312c 3934  | b'$GLGSV,1,1,01,94' |
016: 2c30 332c 3033 332c 2c30 2a34 360d 0a    | b',03,033,,0*46\r\n' |
<NMEA(GAGSV, numMsg=2, msgNum=1, numSV=7, svid_01=4, elv_01=25.0, az_01=68, cno_01=37, svid_02=5, elv_02=42.0, az_02=268, cno_02=42, svid_03=9, elv_03=73.0, az_03=28, cno_03=43, svid_04=11, elv_04=13.0, az_04=178, cno_04=32, signalID=2)>000: 2447 4147 5356 2c32 2c31 2c30 372c 3034  | b'$GAGSV,2,1,07,04' |
016: 2c32 352c 3036 382c 3337 2c30 352c 3432  | b',25,068,37,05,42' |
032: 2c32 3638 2c34 322c 3039 2c37 332c 3032  | b',268,42,09,73,02' |
048: 382c 3433 2c31 312c 3133 2c31 3738 2c33  | b'8,43,11,13,178,3' |
064: 322c 322a 3746 0d0a                      | b'2,2*7F\r\n' |
<NMEA(GAGSV, numMsg=2, msgNum=2, numSV=7, svid_01=31, elv_01=20.0, az_01=110, cno_01=37, svid_02=34, elv_02=40.0, az_02=298, cno_02=41, svid_03=36, elv_03=47.0, az_03=221, cno_03=42, signalID=2)>000: 2447 4147 5356 2c32 2c32 2c30 372c 3331  | b'$GAGSV,2,2,07,31' |
016: 2c32 302c 3131 302c 3337 2c33 342c 3430  | b',20,110,37,34,40' |
032: 2c32 3938 2c34 312c 3336 2c34 372c 3232  | b',298,41,36,47,22' |
048: 312c 3432 2c32 2a34 310d 0a              | b'1,42,2*41\r\n' |
<NMEA(GAGSV, numMsg=2, msgNum=1, numSV=7, svid_01=4, elv_01=25.0, az_01=68, cno_01=42, svid_02=5, elv_02=42.0, az_02=268, cno_02=45, svid_03=9, elv_03=73.0, az_03=28, cno_03=49, svid_04=11, elv_04=13.0, az_04=178, cno_04=37, signalID=7)>000: 2447 4147 5356 2c32 2c31 2c30 372c 3034  | b'$GAGSV,2,1,07,04' |
016: 2c32 352c 3036 382c 3432 2c30 352c 3432  | b',25,068,42,05,42' |
032: 2c32 3638 2c34 352c 3039 2c37 332c 3032  | b',268,45,09,73,02' |
048: 382c 3439 2c31 312c 3133 2c31 3738 2c33  | b'8,49,11,13,178,3' |
064: 372c 372a 3730 0d0a                      | b'7,7*70\r\n' |
<NMEA(GAGSV, numMsg=2, msgNum=2, numSV=7, svid_01=31, elv_01=20.0, az_01=110, cno_01=41, svid_02=34, elv_02=40.0, az_02=298, cno_02=44, svid_03=36, elv_03=47.0, az_03=221, cno_03=47, signalID=7)>000: 2447 4147 5356 2c32 2c32 2c30 372c 3331  | b'$GAGSV,2,2,07,31' |
016: 2c32 302c 3131 302c 3431 2c33 342c 3430  | b',20,110,41,34,40' |
032: 2c32 3938 2c34 342c 3336 2c34 372c 3232  | b',298,44,36,47,22' |
048: 312c 3437 2c37 2a34 350d 0a              | b'1,47,7*45\r\n' |
<NMEA(GAGSV, numMsg=1, msgNum=1, numSV=2, svid_01=15, elv_01=3.0, az_01=333, cno_01=, svid_02=24, elv_02=3.0, az_02=155, cno_02=, signalID=0)>000: 2447 4147 5356 2c31 2c31 2c30 322c 3135  | b'$GAGSV,1,1,02,15' |
016: 2c30 332c 3333 332c 2c32 342c 3033 2c31  | b',03,333,,24,03,1' |
032: 3535 2c2c 302a 3736 0d0a                 | b'55,,0*76\r\n' |
<NMEA(GBGSV, numMsg=2, msgNum=1, numSV=8, svid_01=20, elv_01=56.0, az_01=305, cno_01=51, svid_02=23, elv_02=41.0, az_02=76, cno_02=49, svid_03=25, elv_03=10.0, az_03=36, cno_03=41, svid_04=29, elv_04=22.0, az_04=267, cno_04=44, signalID=1)>000: 2447 4247 5356 2c32 2c31 2c30 382c 3230  | b'$GBGSV,2,1,08,20' |
016: 2c35 362c 3330 352c 3531 2c32 332c 3431  | b',56,305,51,23,41' |
032: 2c30 3736 2c34 392c 3235 2c31 302c 3033  | b',076,49,25,10,03' |
048: 362c 3431 2c32 392c 3232 2c32 3637 2c34  | b'6,41,29,22,267,4' |
064: 342c 312a 3738 0d0a                      | b'4,1*78\r\n' |
<NMEA(GBGSV, numMsg=2, msgNum=2, numSV=8, svid_01=30, elv_01=8.0, az_01=215, cno_01=42, svid_02=32, elv_02=58.0, az_02=79, cno_02=52, svid_03=35, elv_03=10.0, az_03=322, cno_03=39, svid_04=37, elv_04=39.0, az_04=150, cno_04=49, signalID=1)>000: 2447 4247 5356 2c32 2c32 2c30 382c 3330  | b'$GBGSV,2,2,08,30' |
016: 2c30 382c 3231 352c 3432 2c33 322c 3538  | b',08,215,42,32,58' |
032: 2c30 3739 2c35 322c 3335 2c31 302c 3332  | b',079,52,35,10,32' |
048: 322c 3339 2c33 372c 3339 2c31 3530 2c34  | b'2,39,37,39,150,4' |
064: 392c 312a 3739 0d0a                      | b'9,1*79\r\n' |
<NMEA(GBGSV, numMsg=2, msgNum=1, numSV=7, svid_01=20, elv_01=56.0, az_01=305, cno_01=10, svid_02=23, elv_02=41.0, az_02=76, cno_02=13, svid_03=25, elv_03=10.0, az_03=36, cno_03=9, svid_04=30, elv_04=8.0, az_04=215, cno_04=7, signalID=3)>000: 2447 4247 5356 2c32 2c31 2c30 372c 3230  | b'$GBGSV,2,1,07,20' |
016: 2c35 362c 3330 352c 3130 2c32 332c 3431  | b',56,305,10,23,41' |
032: 2c30 3736 2c31 332c 3235 2c31 302c 3033  | b',076,13,25,10,03' |
048: 362c 3039 2c33 302c 3038 2c32 3135 2c30  | b'6,09,30,08,215,0' |
064: 372c 332a 3731 0d0a                      | b'7,3*71\r\n' |
<NMEA(GBGSV, numMsg=2, msgNum=2, numSV=7, svid_01=32, elv_01=58.0, az_01=79, cno_01=13, svid_02=35, elv_02=10.0, az_02=322, cno_02=8, svid_03=37, elv_03=39.0, az_03=150, cno_03=8, signalID=3)>000: 2447 4247 5356 2c32 2c32 2c30 372c 3332  | b'$GBGSV,2,2,07,32' |
016: 2c35 382c 3037 392c 3133 2c33 352c 3130  | b',58,079,13,35,10' |
032: 2c33 3232 2c30 382c 3337 2c33 392c 3135  | b',322,08,37,39,15' |
048: 302c 3038 2c33 2a34 440d 0a              | b'0,08,3*4D\r\n' |
<NMEA(GBGSV, numMsg=1, msgNum=1, numSV=1, svid_01=19, elv_01=9.0, az_01=287, cno_01=, signalID=0)>000: 2447 4247 5356 2c31 2c31 2c30 312c 3139  | b'$GBGSV,1,1,01,19' |
016: 2c30 392c 3238 372c 2c30 2a34 410d 0a    | b',09,287,,0*4A\r\n' |
<NMEA(GNGLL, lat=43.8826337233, NS=N, lon=-72.157797655, EW=W, time=19:18:13, status=A, posMode=D)>000: 2447 4e47 4c4c 2c34 3335 322e 3935 3830  | b'$GNGLL,4352.9580' |
016: 3233 342c 4e2c 3037 3230 392e 3436 3738  | b'234,N,07209.4678' |
032: 3539 332c 572c 3139 3138 3133 2e30 302c  | b'593,W,191813.00,' |
048: 412c 442a 3643 0d0a                      | b'A,D*6C\r\n' |
<NMEA(GNTXT, numMsg=1, msgNum=1, msgType=0, text=txbuf alloc)>000: 2447 4e54 5854 2c30 312c 3031 2c30 302c  | b'$GNTXT,01,01,00,' |
016: 7478 6275 6620 616c 6c6f 632a 3631 0d0a  | b'txbuf alloc*61\r\n' |
<NMEA(GNRMC, time=19:18:13.250000, status=A, lat=43.8826333967, NS=N, lon=-72.1577986733, EW=W, spd=0.701, cog=245.29, date=2023-09-05, mv=, mvEW=, posMode=R, navStatus=V)>000: 2447 4e52 4d43 2c31 3931 3831 332e 3235  | b'$GNRMC,191813.25' |
016: 2c41 2c34 3335 322e 3935 3830 3033 382c  | b',A,4352.9580038,' |
032: 4e2c 3037 3230 392e 3436 3739 3230 342c  | b'N,07209.4679204,' |
048: 572c 302e 3730 312c 3234 352e 3239 2c30  | b'W,0.701,245.29,0' |
064: 3530 3932 332c 2c2c 522c 562a 3035 0d0a  | b'50923,,,R,V*05\r\n' |
<NMEA(GNVTG, cogt=245.29, cogtUnit=T, cogm=, cogmUnit=M, sogn=0.701, sognUnit=N, sogk=1.299, sogkUnit=K, posMode=D)>000: 2447 4e56 5447 2c32 3435 2e32 392c 542c  | b'$GNVTG,245.29,T,' |
016: 2c4d 2c30 2e37 3031 2c4e 2c31 2e32 3939  | b',M,0.701,N,1.299' |
032: 2c4b 2c44 2a32 420d 0a                   | b',K,D*2B\r\n' |
<NMEA(GNGGA, time=19:18:13.250000, lat=43.8826333967, NS=N, lon=-72.1577986733, EW=W, quality=4, numSV=12, HDOP=0.6, alt=143.187, altUnit=M, sep=-32.547, sepUnit=M, diffAge=, diffStation=0)>000: 2447 4e47 4741 2c31 3931 3831 332e 3235  | b'$GNGGA,191813.25' |
016: 2c34 3335 322e 3935 3830 3033 382c 4e2c  | b',4352.9580038,N,' |
032: 3037 3230 392e 3436 3739 3230 342c 572c  | b'07209.4679204,W,' |
048: 342c 3132 2c30 2e36 302c 3134 332e 3138  | b'4,12,0.60,143.18' |
064: 372c 4d2c 2d33 322e 3534 372c 4d2c 2c30  | b'7,M,-32.547,M,,0' |
080: 3030 302a 3746 0d0a                      | b'000*7F\r\n' |
<NMEA(GNGSA, opMode=A, navMode=3, svid_01=46, svid_02=44, svid_03=24, svid_04=18, svid_05=10, svid_06=12, svid_07=23, svid_08=15, svid_09=32, svid_10=, svid_11=, svid_12=, PDOP=1.15, HDOP=0.6, VDOP=0.98, systemId=1)>000: 2447 4e47 5341 2c41 2c33 2c34 362c 3434  | b'$GNGSA,A,3,46,44' |
016: 2c32 342c 3138 2c31 302c 3132 2c32 332c  | b',24,18,10,12,23,' |
032: 3135 2c33 322c 2c2c 2c31 2e31 352c 302e  | b'15,32,,,,1.15,0.' |
048: 3630 2c30 2e39 382c 312a 3038 0d0a       | b'60,0.98,1*08\r\n' |
<NMEA(GNGSA, opMode=A, navMode=3, svid_01=69, svid_02=87, svid_03=85, svid_04=80, svid_05=71, svid_06=73, svid_07=70, svid_08=79, svid_09=, svid_10=, svid_11=, svid_12=, PDOP=1.15, HDOP=0.6, VDOP=0.98, systemId=2)>000: 2447 4e47 5341 2c41 2c33 2c36 392c 3837  | b'$GNGSA,A,3,69,87' |
016: 2c38 352c 3830 2c37 312c 3733 2c37 302c  | b',85,80,71,73,70,' |
032: 3739 2c2c 2c2c 2c31 2e31 352c 302e 3630  | b'79,,,,,1.15,0.60' |
048: 2c30 2e39 382c 322a 3045 0d0a            | b',0.98,2*0E\r\n' |
<NMEA(GNGSA, opMode=A, navMode=3, svid_01=36, svid_02=5, svid_03=31, svid_04=34, svid_05=4, svid_06=11, svid_07=9, svid_08=, svid_09=, svid_10=, svid_11=, svid_12=, PDOP=1.15, HDOP=0.6, VDOP=0.98, systemId=3)>000: 2447 4e47 5341 2c41 2c33 2c33 362c 3035  | b'$GNGSA,A,3,36,05' |
016: 2c33 312c 3334 2c30 342c 3131 2c30 392c  | b',31,34,04,11,09,' |
032: 2c2c 2c2c 2c31 2e31 352c 302e 3630 2c30  | b',,,,,1.15,0.60,0' |
048: 2e39 382c 332a 3039 0d0a                 | b'.98,3*09\r\n' |
<NMEA(GNGSA, opMode=A, navMode=3, svid_01=37, svid_02=32, svid_03=29, svid_04=20, svid_05=23, svid_06=, svid_07=, svid_08=, svid_09=, svid_10=, svid_11=, svid_12=, PDOP=1.15, HDOP=0.6, VDOP=0.98, systemId=4)>000: 2447 4e47 5341 2c41 2c33 2c33 372c 3332  | b'$GNGSA,A,3,37,32' |
016: 2c32 392c 3230 2c32 332c 2c2c 2c2c 2c2c  | b',29,20,23,,,,,,,' |
032: 2c31 2e31 352c 302e 3630 2c30 2e39 382c  | b',1.15,0.60,0.98,' |
048: 342a 3042 0d0a                           | b'4*0B\r\n' |
<NMEA(GPGSV, numMsg=3, msgNum=1, numSV=11, svid_01=10, elv_01=59.0, az_01=312, cno_01=50, svid_02=12, elv_02=12.0, az_02=120, cno_02=41, svid_03=15, elv_03=25.0, az_03=74, cno_03=44, svid_04=18, elv_04=29.0, az_04=190, cno_04=45, signalID=1)>000: 2447 5047 5356 2c33 2c31 2c31 312c 3130  | b'$GPGSV,3,1,11,10' |
016: 2c35 392c 3331 322c 3530 2c31 322c 3132  | b',59,312,50,12,12' |
032: 2c31 3230 2c34 312c 3135 2c32 352c 3037  | b',120,41,15,25,07' |
048: 342c 3434 2c31 382c 3239 2c31 3930 2c34  | b'4,44,18,29,190,4' |
064: 352c 312a 3633 0d0a                      | b'5,1*63\r\n' |
<NMEA(GPGSV, numMsg=3, msgNum=2, numSV=11, svid_01=21, elv_01=7.0, az_01=328, cno_01=35, svid_02=22, elv_02=2.0, az_02=25, cno_02=24, svid_03=23, elv_03=78.0, az_03=107, cno_03=49, svid_04=24, elv_04=56.0, az_04=68, cno_04=48, signalID=1)>000: 2447 5047 5356 2c33 2c32 2c31 312c 3231  | b'$GPGSV,3,2,11,21' |
016: 2c30 372c 3332 382c 3335 2c32 322c 3032  | b',07,328,35,22,02' |
032: 2c30 3235 2c32 342c 3233 2c37 382c 3130  | b',025,24,23,78,10' |
048: 372c 3439 2c32 342c 3536 2c30 3638 2c34  | b'7,49,24,56,068,4' |
064: 382c 312a 3646 0d0a                      | b'8,1*6F\r\n' |
<NMEA(GPGSV, numMsg=3, msgNum=3, numSV=11, svid_01=32, elv_01=30.0, az_01=264, cno_01=46, svid_02=44, elv_02=23.0, az_02=235, cno_02=42, svid_03=46, elv_03=15.0, az_03=246, cno_03=41, signalID=1)>000: 2447 5047 5356 2c33 2c33 2c31 312c 3332  | b'$GPGSV,3,3,11,32' |
016: 2c33 302c 3236 342c 3436 2c34 342c 3233  | b',30,264,46,44,23' |
032: 2c32 3335 2c34 322c 3436 2c31 352c 3234  | b',235,42,46,15,24' |
048: 362c 3431 2c31 2a35 340d 0a              | b'6,41,1*54\r\n' |
<NMEA(GPGSV, numMsg=2, msgNum=1, numSV=8, svid_01=10, elv_01=59.0, az_01=312, cno_01=41, svid_02=12, elv_02=12.0, az_02=120, cno_02=33, svid_03=15, elv_03=25.0, az_03=74, cno_03=35, svid_04=18, elv_04=29.0, az_04=190, cno_04=40, signalID=6)>000: 2447 5047 5356 2c32 2c31 2c30 382c 3130  | b'$GPGSV,2,1,08,10' |
016: 2c35 392c 3331 322c 3431 2c31 322c 3132  | b',59,312,41,12,12' |
032: 2c31 3230 2c33 332c 3135 2c32 352c 3037  | b',120,33,15,25,07' |
048: 342c 3335 2c31 382c 3239 2c31 3930 2c34  | b'4,35,18,29,190,4' |
064: 302c 362a 3642 0d0a                      | b'0,6*6B\r\n' |
<NMEA(GPGSV, numMsg=2, msgNum=2, numSV=8, svid_01=23, elv_01=78.0, az_01=107, cno_01=44, svid_02=24, elv_02=56.0, az_02=68, cno_02=42, svid_03=28, elv_03=0.0, az_03=211, cno_03=12, svid_04=32, elv_04=30.0, az_04=264, cno_04=39, signalID=6)>000: 2447 5047 5356 2c32 2c32 2c30 382c 3233  | b'$GPGSV,2,2,08,23' |
016: 2c37 382c 3130 372c 3434 2c32 342c 3536  | b',78,107,44,24,56' |
032: 2c30 3638 2c34 322c 3238 2c30 302c 3231  | b',068,42,28,00,21' |
048: 312c 3132 2c33 322c 3330 2c32 3634 2c33  | b'1,12,32,30,264,3' |
064: 392c 362a 3644 0d0a                      | b'9,6*6D\r\n' |
<NMEA(GPGSV, numMsg=1, msgNum=1, numSV=4, svid_01=2, elv_01=0.0, az_01=333, cno_01=, svid_02=8, elv_02=2.0, az_02=304, cno_02=, svid_03=25, elv_03=1.0, az_03=156, cno_03=, svid_04=27, elv_04=1.0, az_04=271, cno_04=, signalID=0)>000: 2447 5047 5356 2c31 2c31 2c30 342c 3032  | b'$GPGSV,1,1,04,02' |
016: 2c30 302c 3333 332c 2c30 382c 3032 2c33  | b',00,333,,08,02,3' |
032: 3034 2c2c 3235 2c30 312c 3135 362c 2c32  | b'04,,25,01,156,,2' |
048: 372c 3031 2c32 3731 2c2c 302a 3639 0d0a  | b'7,01,271,,0*69\r\n' |
<NMEA(GLGSV, numMsg=3, msgNum=1, numSV=10, svid_01=69, elv_01=15.0, az_01=81, cno_01=44, svid_02=70, elv_02=62.0, az_02=19, cno_02=40, svid_03=71, elv_03=36.0, az_03=299, cno_03=49, svid_04=73, elv_04=16.0, az_04=161, cno_04=45, signalID=1)>000: 2447 4c47 5356 2c33 2c31 2c31 302c 3639  | b'$GLGSV,3,1,10,69' |
016: 2c31 352c 3038 312c 3434 2c37 302c 3632  | b',15,081,44,70,62' |
032: 2c30 3139 2c34 302c 3731 2c33 362c 3239  | b',019,40,71,36,29' |
048: 392c 3439 2c37 332c 3136 2c31 3631 2c34  | b'9,49,73,16,161,4' |
064: 352c 312a 3745 0d0a                      | b'5,1*7E\r\n' |
<NMEA(GLGSV, numMsg=3, msgNum=2, numSV=10, svid_01=79, elv_01=27.0, az_01=39, cno_01=45, svid_02=80, elv_02=44.0, az_02=105, cno_02=50, svid_03=85, elv_03=26.0, az_03=228, cno_03=47, svid_04=86, elv_04=38.0, az_04=285, cno_04=48, signalID=1)>000: 2447 4c47 5356 2c33 2c32 2c31 302c 3739  | b'$GLGSV,3,2,10,79' |
016: 2c32 372c 3033 392c 3435 2c38 302c 3434  | b',27,039,45,80,44' |
032: 2c31 3035 2c35 302c 3835 2c32 362c 3232  | b',105,50,85,26,22' |
048: 382c 3437 2c38 362c 3338 2c32 3835 2c34  | b'8,47,86,38,285,4' |
064: 382c 312a 3735 0d0a                      | b'8,1*75\r\n' |
<NMEA(GLGSV, numMsg=3, msgNum=3, numSV=10, svid_01=87, elv_01=13.0, az_01=339, cno_01=41, svid_02=, elv_02=, az_02=, cno_02=47, signalID=1)>000: 2447 4c47 5356 2c33 2c33 2c31 302c 3837  | b'$GLGSV,3,3,10,87' |
016: 2c31 332c 3333 392c 3431 2c2c 2c2c 3437  | b',13,339,41,,,,47' |
032: 2c31 2a34 420d 0a                        | b',1*4B\r\n' |
<NMEA(GLGSV, numMsg=2, msgNum=1, numSV=6, svid_01=69, elv_01=15.0, az_01=81, cno_01=32, svid_02=71, elv_02=36.0, az_02=299, cno_02=32, svid_03=73, elv_03=16.0, az_03=161, cno_03=34, svid_04=79, elv_04=27.0, az_04=39, cno_04=33, signalID=3)>000: 2447 4c47 5356 2c32 2c31 2c30 362c 3639  | b'$GLGSV,2,1,06,69' |
016: 2c31 352c 3038 312c 3332 2c37 312c 3336  | b',15,081,32,71,36' |
032: 2c32 3939 2c33 322c 3733 2c31 362c 3136  | b',299,32,73,16,16' |
048: 312c 3334 2c37 392c 3237 2c30 3339 2c33  | b'1,34,79,27,039,3' |
064: 332c 332a 3746 0d0a                      | b'3,3*7F\r\n' |
<NMEA(GLGSV, numMsg=2, msgNum=2, numSV=6, svid_01=80, elv_01=44.0, az_01=105, cno_01=37, svid_02=85, elv_02=26.0, az_02=228, cno_02=35, signalID=3)>000: 2447 4c47 5356 2c32 2c32 2c30 362c 3830  | b'$GLGSV,2,2,06,80' |
016: 2c34 342c 3130 352c 3337 2c38 352c 3236  | b',44,105,37,85,26' |
032: 2c32 3238 2c33 352c 332a 3733 0d0a       | b',228,35,3*73\r\n' |
<NMEA(GLGSV, numMsg=1, msgNum=1, numSV=1, svid_01=94, elv_01=3.0, az_01=33, cno_01=, signalID=0)>000: 2447 4c47 5356 2c31 2c31 2c30 312c 3934  | b'$GLGSV,1,1,01,94' |
016: 2c30 332c 3033 332c 2c30 2a34 360d 0a    | b',03,033,,0*46\r\n' |
<NMEA(GAGSV, numMsg=2, msgNum=1, numSV=7, svid_01=4, elv_01=25.0, az_01=68, cno_01=38, svid_02=5, elv_02=42.0, az_02=268, cno_02=42, svid_03=9, elv_03=73.0, az_03=28, cno_03=43, svid_04=11, elv_04=13.0, az_04=178, cno_04=32, signalID=2)>000: 2447 4147 5356 2c32 2c31 2c30 372c 3034  | b'$GAGSV,2,1,07,04' |
016: 2c32 352c 3036 382c 3338 2c30 352c 3432  | b',25,068,38,05,42' |
032: 2c32 3638 2c34 322c 3039 2c37 332c 3032  | b',268,42,09,73,02' |
048: 382c 3433 2c31 312c 3133 2c31 3738 2c33  | b'8,43,11,13,178,3' |
064: 322c 322a 3730 0d0a                      | b'2,2*70\r\n' |
<NMEA(GAGSV, numMsg=2, msgNum=2, numSV=7, svid_01=31, elv_01=20.0, az_01=110, cno_01=37, svid_02=34, elv_02=40.0, az_02=298, cno_02=41, svid_03=36, elv_03=47.0, az_03=221, cno_03=43, signalID=2)>000: 2447 4147 5356 2c32 2c32 2c30 372c 3331  | b'$GAGSV,2,2,07,31' |
016: 2c32 302c 3131 302c 3337 2c33 342c 3430  | b',20,110,37,34,40' |
032: 2c32 3938 2c34 312c 3336 2c34 372c 3232  | b',298,41,36,47,22' |
048: 312c 3433 2c32 2a34 300d 0a              | b'1,43,2*40\r\n' |
<NMEA(GAGSV, numMsg=2, msgNum=1, numSV=7, svid_01=4, elv_01=25.0, az_01=68, cno_01=41, svid_02=5, elv_02=42.0, az_02=268, cno_02=45, svid_03=9, elv_03=73.0, az_03=28, cno_03=49, svid_04=11, elv_04=13.0, az_04=178, cno_04=37, signalID=7)>000: 2447 4147 5356 2c32 2c31 2c30 372c 3034  | b'$GAGSV,2,1,07,04' |
016: 2c32 352c 3036 382c 3431 2c30 352c 3432  | b',25,068,41,05,42' |
032: 2c32 3638 2c34 352c 3039 2c37 332c 3032  | b',268,45,09,73,02' |
048: 382c 3439 2c31 312c 3133 2c31 3738 2c33  | b'8,49,11,13,178,3' |
064: 372c 372a 3733 0d0a                      | b'7,7*73\r\n' |
<NMEA(GAGSV, numMsg=2, msgNum=2, numSV=7, svid_01=31, elv_01=20.0, az_01=110, cno_01=41, svid_02=34, elv_02=40.0, az_02=298, cno_02=45, svid_03=36, elv_03=47.0, az_03=221, cno_03=47, signalID=7)>000: 2447 4147 5356 2c32 2c32 2c30 372c 3331  | b'$GAGSV,2,2,07,31' |
016: 2c32 302c 3131 302c 3431 2c33 342c 3430  | b',20,110,41,34,40' |
032: 2c32 3938 2c34 352c 3336 2c34 372c 3232  | b',298,45,36,47,22' |
048: 312c 3437 2c37 2a34 340d 0a              | b'1,47,7*44\r\n' |
<NMEA(GAGSV, numMsg=1, msgNum=1, numSV=2, svid_01=15, elv_01=3.0, az_01=333, cno_01=, svid_02=24, elv_02=3.0, az_02=155, cno_02=, signalID=0)>000: 2447 4147 5356 2c31 2c31 2c30 322c 3135  | b'$GAGSV,1,1,02,15' |
016: 2c30 332c 3333 332c 2c32 342c 3033 2c31  | b',03,333,,24,03,1' |
032: 3535 2c2c 302a 3736 0d0a                 | b'55,,0*76\r\n' |
<NMEA(GBGSV, numMsg=2, msgNum=1, numSV=8, svid_01=20, elv_01=56.0, az_01=305, cno_01=51, svid_02=23, elv_02=41.0, az_02=76, cno_02=49, svid_03=25, elv_03=10.0, az_03=36, cno_03=41, svid_04=29, elv_04=22.0, az_04=267, cno_04=44, signalID=1)>000: 2447 4247 5356 2c32 2c31 2c30 382c 3230  | b'$GBGSV,2,1,08,20' |
016: 2c35 362c 3330 352c 3531 2c32 332c 3431  | b',56,305,51,23,41' |
032: 2c30 3736 2c34 392c 3235 2c31 302c 3033  | b',076,49,25,10,03' |
048: 362c 3431 2c32 392c 3232 2c32 3637 2c34  | b'6,41,29,22,267,4' |
064: 342c 312a 3738 0d0a                      | b'4,1*78\r\n' |
<NMEA(GBGSV, numMsg=2, msgNum=2, numSV=8, svid_01=30, elv_01=8.0, az_01=215, cno_01=43, svid_02=32, elv_02=58.0, az_02=79, cno_02=51, svid_03=35, elv_03=10.0, az_03=322, cno_03=39, svid_04=37, elv_04=39.0, az_04=150, cno_04=49, signalID=1)>000: 2447 4247 5356 2c32 2c32 2c30 382c 3330  | b'$GBGSV,2,2,08,30' |
016: 2c30 382c 3231 352c 3433 2c33 322c 3538  | b',08,215,43,32,58' |
032: 2c30 3739 2c35 312c 3335 2c31 302c 3332  | b',079,51,35,10,32' |
048: 322c 3339 2c33 372c 3339 2c31 3530 2c34  | b'2,39,37,39,150,4' |
064: 392c 312a 3742 0d0a                      | b'9,1*7B\r\n' |
<NMEA(GNRMC, time=19:18:13.750000, status=A, lat=43.8826344017, NS=N, lon=-72.1577986133, EW=W, spd=0.705, cog=343.0, date=2023-09-05, mv=, mvEW=, posMode=R, navStatus=V)>000: 2447 4e52 4d43 2c31 3931 3831 332e 3735  | b'$GNRMC,191813.75' |
016: 2c41 2c34 3335 322e 3935 3830 3634 312c  | b',A,4352.9580641,' |
032: 4e2c 3037 3230 392e 3436 3739 3136 382c  | b'N,07209.4679168,' |
048: 572c 302e 3730 352c 3334 332e 3030 2c30  | b'W,0.705,343.00,0' |
064: 3530 3932 332c 2c2c 522c 562a 3039 0d0a  | b'50923,,,R,V*09\r\n' |
<NMEA(GNVTG, cogt=343.0, cogtUnit=T, cogm=, cogmUnit=M, sogn=0.705, sognUnit=N, sogk=1.305, sogkUnit=K, posMode=D)>000: 2447 4e56 5447 2c33 3433 2e30 302c 542c  | b'$GNVTG,343.00,T,' |
016: 2c4d 2c30 2e37 3035 2c4e 2c31 2e33 3035  | b',M,0.705,N,1.305' |
032: 2c4b 2c44 2a32 370d 0a                   | b',K,D*27\r\n' |
<NMEA(GNGSA, opMode=A, navMode=3, svid_01=69, svid_02=87, svid_03=85, svid_04=80, svid_05=71, svid_06=73, svid_07=70, svid_08=79, svid_09=, svid_10=, svid_11=, svid_12=, PDOP=1.15, HDOP=0.6, VDOP=0.98, systemId=2)>000: 2447 4e47 5341 2c41 2c33 2c36 392c 3837  | b'$GNGSA,A,3,69,87' |
016: 2c38 352c 3830 2c37 312c 3733 2c37 302c  | b',85,80,71,73,70,' |
032: 3739 2c2c 2c2c 2c31 2e31 352c 302e 3630  | b'79,,,,,1.15,0.60' |
048: 2c30 2e39 382c 322a 3045 0d0a            | b',0.98,2*0E\r\n' |
<NMEA(GNGSA, opMode=A, navMode=3, svid_01=36, svid_02=5, svid_03=31, svid_04=34, svid_05=4, svid_06=11, svid_07=9, svid_08=, svid_09=, svid_10=, svid_11=, svid_12=, PDOP=1.15, HDOP=0.6, VDOP=0.98, systemId=3)>000: 2447 4e47 5341 2c41 2c33 2c33 362c 3035  | b'$GNGSA,A,3,36,05' |
016: 2c33 312c 3334 2c30 342c 3131 2c30 392c  | b',31,34,04,11,09,' |
032: 2c2c 2c2c 2c31 2e31 352c 302e 3630 2c30  | b',,,,,1.15,0.60,0' |
048: 2e39 382c 332a 3039 0d0a                 | b'.98,3*09\r\n' |
<NMEA(GNGSA, opMode=A, navMode=3, svid_01=37, svid_02=32, svid_03=29, svid_04=20, svid_05=23, svid_06=, svid_07=, svid_08=, svid_09=, svid_10=, svid_11=, svid_12=, PDOP=1.15, HDOP=0.6, VDOP=0.98, systemId=4)>000: 2447 4e47 5341 2c41 2c33 2c33 372c 3332  | b'$GNGSA,A,3,37,32' |
