<NMEA(GNGSA, opMode=A, navMode=3, svid_01=37, svid_02=32, svid_03=29, svid_04=20, svid_05=23, svid_06=35, svid_07=, svid_08=, svid_09=, svid_10=, svid_11=, svid_12=, PDOP=1.0, HDOP=0.56, VDOP=0.83, systemId=4)>000: 2447 4e47 5341 2c41 2c33 2c33 372c 3332  | b'$GNGSA,A,3,37,32' |
016: 2c32 392c 3230 2c32 332c 3335 2c2c 2c2c  | b',29,20,23,35,,,,' |
032: 2c2c 2c31 2e30 302c 302e 3536 2c30 2e38  | b',,,1.00,0.56,0.8' |
048: 332c 342a 3036 0d0a                      | b'3,4*06\r\n' |
<NMEA(GPGSV, numMsg=3, msgNum=1, numSV=10, svid_01=10, elv_01=61.0, az_01=312, cno_01=53, svid_02=12, elv_02=13.0, az_02=118, cno_02=41, svid_03=15, elv_03=23.0, az_03=76, cno_03=45, svid_04=18, elv_04=27.0, az_04=189, cno_04=44, signalID=1)>000: 2447 5047 5356 2c33 2c31 2c31 302c 3130  | b'$GPGSV,3,1,10,10' |
016: 2c36 312c 3331 322c 3533 2c31 322c 3133  | b',61,312,53,12,13' |
032: 2c31 3138 2c34 312c 3135 2c32 332c 3037  | b',118,41,15,23,07' |
048: 362c 3435 2c31 382c 3237 2c31 3839 2c34  | b'6,45,18,27,189,4' |
064: 342c 312a 3632 0d0a                      | b'4,1*62\r\n' |
<NMEA(GPGSV, numMsg=3, msgNum=2, numSV=10, svid_01=21, elv_01=8.0, az_01=327, cno_01=41, svid_02=23, elv_02=76.0, az_02=112, cno_02=50, svid_03=24, elv_03=54.0, az_03=66, cno_03=49, svid_04=32, elv_04=32.0, az_04=265, cno_04=47, signalID=1)>000: 2447 5047 5356 2c33 2c32 2c31 302c 3231  | b'$GPGSV,3,2,10,21' |
016: 2c30 382c 3332 372c 3431 2c32 332c 3736  | b',08,327,41,23,76' |
032: 2c31 3132 2c35 302c 3234 2c35 342c 3036  | b',112,50,24,54,06' |
048: 362c 3439 2c33 322c 3332 2c32 3635 2c34  | b'6,49,32,32,265,4' |
064: 372c 312a 3633 0d0a                      | b'7,1*63\r\n' |
<NMEA(GPGSV, numMsg=3, msgNum=3, numSV=10, svid_01=44, elv_01=23.0, az_01=235, cno_01=44, svid_02=46, elv_02=15.0, az_02=246, cno_02=42, signalID=1)>000: 2447 5047 5356 2c33 2c33 2c31 302c 3434  | b'$GPGSV,3,3,10,44' |
016: 2c32 332c 3233 352c 3434 2c34 362c 3135  | b',23,235,44,46,15' |
032: 2c32 3436 2c34 322c 312a 3630 0d0a       | b',246,42,1*60\r\n' |
<NMEA(GPGSV, numMsg=2, msgNum=1, numSV=8, svid_01=10, elv_01=61.0, az_01=312, cno_01=42, svid_02=12, elv_02=13.0, az_02=118, cno_02=33, svid_03=15, elv_03=23.0, az_03=76, cno_03=36, svid_04=18, elv_04=27.0, az_04=189, cno_04=38, signalID=6)>000: 2447 5047 5356 2c32 2c31 2c30 382c 3130  | b'$GPGSV,2,1,08,10' |
016: 2c36 312c 3331 322c 3432 2c31 322c 3133  | b',61,312,42,12,13' |
032: 2c31 3138 2c33 332c 3135 2c32 332c 3037  | b',118,33,15,23,07' |
048: 362c 3336 2c31 382c 3237 2c31 3839 2c33  | b'6,36,18,27,189,3' |
064: 382c 362a 3637 0d0a                      | b'8,6*67\r\n' |
<NMEA(GPGSV, numMsg=2, msgNum=2, numSV=8, svid_01=23, elv_01=76.0, az_01=112, cno_01=44, svid_02=24, elv_02=54.0, az_02=66, cno_02=42, svid_03=28, elv_03=2.0, az_03=211, cno_03=31, svid_04=32, elv_04=32.0, az_04=265, cno_04=40, signalID=6)>000: 2447 5047 5356 2c32 2c32 2c30 382c 3233  | b'$GPGSV,2,2,08,23' |
016: 2c37 362c 3131 322c 3434 2c32 342c 3534  | b',76,112,44,24,54' |
032: 2c30 3636 2c34 322c 3238 2c30 322c 3231  | b',066,42,28,02,21' |
048: 312c 3331 2c33 322c 3332 2c32 3635 2c34  | b'1,31,32,32,265,4' |
064: 302c 362a 3635 0d0a                      | b'0,6*65\r\n' |
<NMEA(GPGSV, numMsg=2, msgNum=1, numSV=5, svid_01=2, elv_01=2.0, az_01=332, cno_01=, svid_02=8, elv_02=1.0, az_02=302, cno_02=, svid_03=22, elv_03=2.0, az_03=24, cno_03=, svid_04=25, elv_04=2.0, az_04=155, cno_04=, signalID=0)>000: 2447 5047 5356 2c32 2c31 2c30 352c 3032  | b'$GPGSV,2,1,05,02' |
016: 2c30 322c 3333 322c 2c30 382c 3031 2c33  | b',02,332,,08,01,3' |
032: 3032 2c2c 3232 2c30 322c 3032 342c 2c32  | b'02,,22,02,024,,2' |
048: 352c 3032 2c31 3535 2c2c 302a 3639 0d0a  | b'5,02,155,,0*69\r\n' |
<NMEA(GPGSV, numMsg=2, msgNum=2, numSV=5, svid_01=25, elv_01=2.0, az_01=155, cno_01=, signalID=0)>000: 2447 5047 5356 2c32 2c32 2c30 352c 3235  | b'$GPGSV,2,2,05,25' |
016: 2c30 322c 3135 352c 2c30 2a35 340d 0a    | b',02,155,,0*54\r\n' |
<NMEA(GLGSV, numMsg=3, msgNum=2, numSV=10, svid_01=79, elv_01=26.0, az_01=37, cno_01=49, svid_02=80, elv_02=46.0, az_02=102, cno_02=52, svid_03=85, elv_03=24.0, az_03=227, cno_03=48, svid_04=86, elv_04=38.0, az_04=282, cno_04=50, signalID=1)>000: 2447 4c47 5356 2c33 2c32 2c31 302c 3739  | b'$GLGSV,3,2,10,79' |
016: 2c32 362c 3033 372c 3439 2c38 302c 3436  | b',26,037,49,80,46' |
032: 2c31 3032 2c35 322c 3835 2c32 342c 3232  | b',102,52,85,24,22' |
048: 372c 3438 2c38 362c 3338 2c32 3832 2c35  | b'7,48,86,38,282,5' |
064: 302c 312a 3744 0d0a                      | b'0,1*7D\r\n' |
<NMEA(GLGSV, numMsg=3, msgNum=3, numSV=10, svid_01=87, elv_01=14.0, az_01=337, cno_01=44, svid_02=, elv_02=, az_02=, cno_02=49, signalID=1)>000: 2447 4c47 5356 2c33 2c33 2c31 302c 3837  | b'$GLGSV,3,3,10,87' |
016: 2c31 342c 3333 372c 3434 2c2c 2c2c 3439  | b',14,337,44,,,,49' |
032: 2c31 2a34 390d 0a                        | b',1*49\r\n' |
<NMEA(GLGSV, numMsg=2, msgNum=1, numSV=6, svid_01=69, elv_01=14.0, az_01=83, cno_01=33, svid_02=71, elv_02=38.0, az_02=301, cno_02=35, svid_03=73, elv_03=18.0, az_03=160, cno_03=35, svid_04=79, elv_04=26.0, az_04=37, cno_04=36, signalID=3)>000: 2447 4c47 5356 2c32 2c31 2c30 362c 3639  | b'$GLGSV,2,1,06,69' |
016: 2c31 342c 3038 332c 3333 2c37 312c 3338  | b',14,083,33,71,38' |
032: 2c33 3031 2c33 352c 3733 2c31 382c 3136  | b',301,35,73,18,16' |
048: 302c 3335 2c37 392c 3236 2c30 3337 2c33  | b'0,35,79,26,037,3' |
064: 362c 332a 3730 0d0a                      | b'6,3*70\r\n' |
<NMEA(GLGSV, numMsg=2, msgNum=2, numSV=6, svid_01=80, elv_01=46.0, az_01=102, cno_01=39, svid_02=85, elv_02=24.0, az_02=227, cno_02=36, signalID=3)>000: 2447 4c47 5356 2c32 2c32 2c30 362c 3830  | b'$GLGSV,2,2,06,80' |
016: 2c34 362c 3130 322c 3339 2c38 352c 3234  | b',46,102,39,85,24' |
032: 2c32 3237 2c33 362c 332a 3736 0d0a       | b',227,36,3*76\r\n' |
<NMEA(GLGSV, numMsg=1, msgNum=1, numSV=1, svid_01=94, elv_01=1.0, az_01=34, cno_01=, signalID=0)>000: 2447 4c47 5356 2c31 2c31 2c30 312c 3934  | b'$GLGSV,1,1,01,94' |
016: 2c30 312c 3033 342c 2c30 2a34 330d 0a    | b',01,034,,0*43\r\n' |
<NMEA(GAGSV, numMsg=2, msgNum=1, numSV=7, svid_01=4, elv_01=24.0, az_01=69, cno_01=43, svid_02=5, elv_02=44.0, az_02=269, cno_02=47, svid_03=9, elv_03=72.0, az_03=31, cno_03=50, svid_04=11, elv_04=12.0, az_04=178, cno_04=35, signalID=7)>000: 2447 4147 5356 2c32 2c31 2c30 372c 3034  | b'$GAGSV,2,1,07,04' |
016: 2c32 342c 3036 392c 3433 2c30 352c 3434  | b',24,069,43,05,44' |
032: 2c32 3639 2c34 372c 3039 2c37 322c 3033  | b',269,47,09,72,03' |
048: 312c 3530 2c31 312c 3132 2c31 3738 2c33  | b'1,50,11,12,178,3' |
064: 352c 372a 3736 0d0a                      | b'5,7*76\r\n' |
<NMEA(GAGSV, numMsg=2, msgNum=2, numSV=7, svid_01=31, elv_01=21.0, az_01=109, cno_01=41, svid_02=34, elv_02=41.0, az_02=297, cno_02=47, svid_03=36, elv_03=45.0, az_03=220, cno_03=47, signalID=7)>000: 2447 4147 5356 2c32 2c32 2c30 372c 3331  | b'$GAGSV,2,2,07,31' |
016: 2c32 312c 3130 392c 3431 2c33 342c 3431  | b',21,109,41,34,41' |
032: 2c32 3937 2c34 372c 3336 2c34 352c 3232  | b',297,47,36,45,22' |
048: 302c 3437 2c37 2a34 320d 0a              | b'0,47,7*42\r\n' |
<NMEA(GAGSV, numMsg=1, msgNum=1, numSV=2, svid_01=15, elv_01=4.0, az_01=333, cno_01=, svid_02=24, elv_02=4.0, az_02=154, cno_02=, signalID=0)>000: 2447 4147 5356 2c31 2c31 2c30 322c 3135  | b'$GAGSV,1,1,02,15' |
016: 2c30 342c 3333 332c 2c32 342c 3034 2c31  | b',04,333,,24,04,1' |
032: 3534 2c2c 302a 3737 0d0a                 | b'54,,0*77\r\n' |
<NMEA(GBGSV, numMsg=2, msgNum=1, numSV=8, svid_01=20, elv_01=57.0, az_01=306, cno_01=53, svid_02=23, elv_02=41.0, az_02=75, cno_02=51, svid_03=25, elv_03=9.0, az_03=35, cno_03=43, svid_04=29, elv_04=21.0, az_04=266, cno_04=46, signalID=1)>000: 2447 4247 5356 2c32 2c31 2c30 382c 3230  | b'$GBGSV,2,1,08,20' |
016: 2c35 372c 3330 362c 3533 2c32 332c 3431  | b',57,306,53,23,41' |
032: 2c30 3735 2c35 312c 3235 2c30 392c 3033  | b',075,51,25,09,03' |
048: 352c 3433 2c32 392c 3231 2c32 3636 2c34  | b'5,43,29,21,266,4' |
064: 362c 312a 3742 0d0a                      | b'6,1*7B\r\n' |
<NMEA(GBGSV, numMsg=2, msgNum=2, numSV=8, svid_01=30, elv_01=8.0, az_01=215, cno_01=41, svid_02=32, elv_02=58.0, az_02=80, cno_02=52, svid_03=35, elv_03=10.0, az_03=321, cno_03=43, svid_04=37, elv_04=40.0, az_04=149, cno_04=49, signalID=1)>000: 2447 4247 5356 2c32 2c32 2c30 382c 3330  | b'$GBGSV,2,2,08,30' |
016: 2c30 382c 3231 352c 3431 2c33 322c 3538  | b',08,215,41,32,58' |
032: 2c30 3830 2c35 322c 3335 2c31 302c 3332  | b',080,52,35,10,32' |
048: 312c 3433 2c33 372c 3430 2c31 3439 2c34  | b'1,43,37,40,149,4' |
064: 392c 312a 3734 0d0a                      | b'9,1*74\r\n' |
<NMEA(GBGSV, numMsg=2, msgNum=1, numSV=5, svid_01=23, elv_01=41.0, az_01=75, cno_01=8, svid_02=25, elv_02=9.0, az_02=35, cno_02=8, svid_03=29, elv_03=21.0, az_03=266, cno_03=8, svid_04=32, elv_04=58.0, az_04=80, cno_04=9, signalID=3)>000: 2447 4247 5356 2c32 2c31 2c30 352c 3233  | b'$GBGSV,2,1,05,23' |
016: 2c34 312c 3037 352c 3038 2c32 352c 3039  | b',41,075,08,25,09' |
032: 2c30 3335 2c30 382c 3239 2c32 312c 3236  | b',035,08,29,21,26' |
048: 362c 3038 2c33 322c 3538 2c30 3830 2c30  | b'6,08,32,58,080,0' |
064: 392c 332a 3733 0d0a                      | b'9,3*73\r\n' |
<NMEA(GBGSV, numMsg=2, msgNum=2, numSV=5, svid_01=37, elv_01=40.0, az_01=149, cno_01=9, signalID=3)>000: 2447 4247 5356 2c32 2c32 2c30 352c 3337  | b'$GBGSV,2,2,05,37' |
016: 2c34 302c 3134 392c 3039 2c33 2a34 340d  | b',40,149,09,3*44\r' |
032: 0a                                       | b'\n' |
<NMEA(GBGSV, numMsg=1, msgNum=1, numSV=1, svid_01=19, elv_01=10.0, az_01=288, cno_01=, signalID=0)>000: 2447 4247 5356 2c31 2c31 2c30 312c 3139  | b'$GBGSV,1,1,01,19' |
016: 2c31 302c 3238 382c 2c30 2a34 440d 0a    | b',10,288,,0*4D\r\n' |
<NMEA(GNGLL, lat=43.882826805, NS=N, lon=-72.1582829867, EW=W, time=19:22:04.750000, status=A, posMode=D)>000: 2447 4e47 4c4c 2c34 3335 322e 3936 3936  | b'$GNGLL,4352.9696' |
016: 3038 332c 4e2c 3037 3230 392e 3439 3639  | b'083,N,07209.4969' |
032: 3739 322c 572c 3139 3232 3034 2e37 352c  | b'792,W,192204.75,' |
048: 412c 442a 3637 0d0a                      | b'A,D*67\r\n' |
<NMEA(GNVTG, cogt=, cogtUnit=T, cogm=, cogmUnit=M, sogn=0.011, sognUnit=N, sogk=0.02, sogkUnit=K, posMode=D)>000: 2447 4e56 5447 2c2c 542c 2c4d 2c30 2e30  | b'$GNVTG,,T,,M,0.0' |
016: 3131 2c4e 2c30 2e30 3230 2c4b 2c44 2a33  | b'11,N,0.020,K,D*3' |
032: 410d 0a                                  | b'A\r\n' |
<NMEA(GNGGA, time=19:22:05, lat=43.8828268117, NS=N, lon=-72.15828297, EW=W, quality=4, numSV=12, HDOP=0.56, alt=143.135, altUnit=M, sep=-32.547, sepUnit=M, diffAge=, diffStation=0)>000: 2447 4e47 4741 2c31 3932 3230 352e 3030  | b'$GNGGA,192205.00' |
016: 2c34 3335 322e 3936 3936 3038 372c 4e2c  | b',4352.9696087,N,' |
032: 3037 3230 392e 3439 3639 3738 322c 572c  | b'07209.4969782,W,' |
048: 342c 3132 2c30 2e35 362c 3134 332e 3133  | b'4,12,0.56,143.13' |
064: 352c 4d2c 2d33 322e 3534 372c 4d2c 2c30  | b'5,M,-32.547,M,,0' |
080: 3030 302a 3746 0d0a                      | b'000*7F\r\n' |
<NMEA(GNGSA, opMode=A, navMode=3, svid_01=46, svid_02=44, svid_03=24, svid_04=18, svid_05=10, svid_06=12, svid_07=23, svid_08=15, svid_09=32, svid_10=, svid_11=, svid_12=, PDOP=1.0, HDOP=0.56, VDOP=0.83, systemId=1)>000: 2447 4e47 5341 2c41 2c33 2c34 362c 3434  | b'$GNGSA,A,3,46,44' |
016: 2c32 342c 3138 2c31 302c 3132 2c32 332c  | b',24,18,10,12,23,' |
032: 3135 2c33 322c 2c2c 2c31 2e30 302c 302e  | b'15,32,,,,1.00,0.' |
048: 3536 2c30 2e38 332c 312a 3033 0d0a       | b'56,0.83,1*03\r\n' |
<NMEA(GNGSA, opMode=A, navMode=3, svid_01=69, svid_02=87, svid_03=85, svid_04=80, svid_05=71, svid_06=73, svid_07=70, svid_08=79, svid_09=, svid_10=, svid_11=, svid_12=, PDOP=1.0, HDOP=0.56, VDOP=0.83, systemId=2)>000: 2447 4e47 5341 2c41 2c33 2c36 392c 3837  | b'$GNGSA,A,3,69,87' |
016: 2c38 352c 3830 2c37 312c 3733 2c37 302c  | b',85,80,71,73,70,' |
032: 3739 2c2c 2c2c 2c31 2e30 302c 302e 3536  | b'79,,,,,1.00,0.56' |
048: 2c30 2e38 332c 322a 3035 0d0a            | b',0.83,2*05\r\n' |
<NMEA(GNGSA, opMode=A, navMode=3, svid_01=36, svid_02=5, svid_03=31, svid_04=34, svid_05=4, svid_06=11, svid_07=9, svid_08=, svid_09=, svid_10=, svid_11=, svid_12=, PDOP=1.0, HDOP=0.56, VDOP=0.83, systemId=3)>000: 2447 4e47 5341 2c41 2c33 2c33 362c 3035  | b'$GNGSA,A,3,36,05' |
016: 2c33 312c 3334 2c30 342c 3131 2c30 392c  | b',31,34,04,11,09,' |
032: 2c2c 2c2c 2c31 2e30 302c 302e 3536 2c30  | b',,,,,1.00,0.56,0' |
048: 2e38 332c 332a 3032 0d0a                 | b'.83,3*02\r\n' |
<NMEA(GNGSA, opMode=A, navMode=3, svid_01=37, svid_02=32, svid_03=29, svid_04=20, svid_05=23, svid_06=35, svid_07=, svid_08=, svid_09=, svid_10=, svid_11=, svid_12=, PDOP=1.0, HDOP=0.56, VDOP=0.83, systemId=4)>000: 2447 4e47 5341 2c41 2c33 2c33 372c 3332  | b'$GNGSA,A,3,37,32' |
016: 2c32 392c 3230 2c32 332c 3335 2c2c 2c2c  | b',29,20,23,35,,,,' |
032: 2c2c 2c31 2e30 302c 302e 3536 2c30 2e38  | b',,,1.00,0.56,0.8' |
048: 332c 342a 3036 0d0a                      | b'3,4*06\r\n' |
<NMEA(GPGSV, numMsg=3, msgNum=1, numSV=10, svid_01=10, elv_01=61.0, az_01=312, cno_01=53, svid_02=12, elv_02=13.0, az_02=118, cno_02=41, svid_03=15, elv_03=23.0, az_03=76, cno_03=45, svid_04=18, elv_04=27.0, az_04=189, cno_04=44, signalID=1)>000: 2447 5047 5356 2c33 2c31 2c31 302c 3130  | b'$GPGSV,3,1,10,10' |
016: 2c36 312c 3331 322c 3533 2c31 322c 3133  | b',61,312,53,12,13' |
032: 2c31 3138 2c34 312c 3135 2c32 332c 3037  | b',118,41,15,23,07' |
048: 362c 3435 2c31 382c 3237 2c31 3839 2c34  | b'6,45,18,27,189,4' |
064: 342c 312a 3632 0d0a                      | b'4,1*62\r\n' |
<NMEA(GPGSV, numMsg=3, msgNum=2, numSV=10, svid_01=21, elv_01=8.0, az_01=327, cno_01=41, svid_02=23, elv_02=76.0, az_02=112, cno_02=50, svid_03=24, elv_03=54.0, az_03=66, cno_03=50, svid_04=32, elv_04=32.0, az_04=265, cno_04=47, signalID=1)>000: 2447 5047 5356 2c33 2c32 2c31 302c 3231  | b'$GPGSV,3,2,10,21' |
016: 2c30 382c 3332 372c 3431 2c32 332c 3736  | b',08,327,41,23,76' |
032: 2c31 3132 2c35 302c 3234 2c35 342c 3036  | b',112,50,24,54,06' |
048: 362c 3530 2c33 322c 3332 2c32 3635 2c34  | b'6,50,32,32,265,4' |
064: 372c 312a 3642 0d0a                      | b'7,1*6B\r\n' |
<NMEA(GPGSV, numMsg=2, msgNum=2, numSV=8, svid_01=23, elv_01=76.0, az_01=112, cno_01=44, svid_02=24, elv_02=54.0, az_02=66, cno_02=42, svid_03=28, elv_03=2.0, az_03=211, cno_03=31, svid_04=32, elv_04=32.0, az_04=265, cno_04=40, signalID=6)>000: 2447 5047 5356 2c32 2c32 2c30 382c 3233  | b'$GPGSV,2,2,08,23' |
016: 2c37 362c 3131 322c 3434 2c32 342c 3534  | b',76,112,44,24,54' |
032: 2c30 3636 2c34 322c 3238 2c30 322c 3231  | b',066,42,28,02,21' |
048: 312c 3331 2c33 322c 3332 2c32 3635 2c34  | b'1,31,32,32,265,4' |
064: 302c 362a 3635 0d0a                      | b'0,6*65\r\n' |
<NMEA(GPGSV, numMsg=2, msgNum=1, numSV=5, svid_01=2, elv_01=2.0, az_01=332, cno_01=, svid_02=8, elv_02=1.0, az_02=302, cno_02=, svid_03=22, elv_03=2.0, az_03=24, cno_03=, svid_04=25, elv_04=2.0, az_04=155, cno_04=, signalID=0)>000: 2447 5047 5356 2c32 2c31 2c30 352c 3032  | b'$GPGSV,2,1,05,02' |
016: 2c30 322c 3333 322c 2c30 382c 3031 2c33  | b',02,332,,08,01,3' |
032: 3032 2c2c 3232 2c30 322c 3032 342c 2c32  | b'02,,22,02,024,,2' |
048: 352c 3032 2c31 3535 2c2c 302a 3639 0d0a  | b'5,02,155,,0*69\r\n' |
<NMEA(GPGSV, numMsg=2, msgNum=2, numSV=5, svid_01=25, elv_01=2.0, az_01=155, cno_01=, signalID=0)>000: 2447 5047 5356 2c32 2c32 2c30 352c 3235  | b'$GPGSV,2,2,05,25' |
016: 2c30 322c 3135 352c 2c30 2a35 340d 0a    | b',02,155,,0*54\r\n' |
<NMEA(GLGSV, numMsg=3, msgNum=1, numSV=10, svid_01=69, elv_01=14.0, az_01=83, cno_01=45, svid_02=70, elv_02=62.0, az_02=24, cno_02=42, svid_03=71, elv_03=38.0, az_03=301, cno_03=51, svid_04=73, elv_04=18.0, az_04=160, cno_04=45, signalID=1)>000: 2447 4c47 5356 2c33 2c31 2c31 302c 3639  | b'$GLGSV,3,1,10,69' |
016: 2c31 342c 3038 332c 3435 2c37 302c 3632  | b',14,083,45,70,62' |
032: 2c30 3234 2c34 322c 3731 2c33 382c 3330  | b',024,42,71,38,30' |
048: 312c 3531 2c37 332c 3138 2c31 3630 2c34  | b'1,51,73,18,160,4' |
064: 352c 312a 3738 0d0a                      | b'5,1*78\r\n' |
<NMEA(GLGSV, numMsg=3, msgNum=2, numSV=10, svid_01=79, elv_01=26.0, az_01=37, cno_01=48, svid_02=80, elv_02=46.0, az_02=102, cno_02=51, svid_03=85, elv_03=24.0, az_03=227, cno_03=47, svid_04=86, elv_04=38.0, az_04=282, cno_04=49, signalID=1)>000: 2447 4c47 5356 2c33 2c32 2c31 302c 3739  | b'$GLGSV,3,2,10,79' |
016: 2c32 362c 3033 372c 3438 2c38 302c 3436  | b',26,037,48,80,46' |
032: 2c31 3032 2c35 312c 3835 2c32 342c 3232  | b',102,51,85,24,22' |
048: 372c 3437 2c38 362c 3338 2c32 3832 2c34  | b'7,47,86,38,282,4' |
064: 392c 312a 3738 0d0a                      | b'9,1*78\r\n' |
<NMEA(GLGSV, numMsg=3, msgNum=3, numSV=10, svid_01=87, elv_01=14.0, az_01=337, cno_01=44, svid_02=, elv_02=, az_02=, cno_02=48, signalID=1)>000: 2447 4c47 5356 2c33 2c33 2c31 302c 3837  | b'$GLGSV,3,3,10,87' |
016: 2c31 342c 3333 372c 3434 2c2c 2c2c 3438  | b',14,337,44,,,,48' |
032: 2c31 2a34 380d 0a                        | b',1*48\r\n' |
<NMEA(GLGSV, numMsg=2, msgNum=1, numSV=6, svid_01=69, elv_01=14.0, az_01=83, cno_01=33, svid_02=71, elv_02=38.0, az_02=301, cno_02=35, svid_03=73, elv_03=18.0, az_03=160, cno_03=35, svid_04=79, elv_04=26.0, az_04=37, cno_04=36, signalID=3)>000: 2447 4c47 5356 2c32 2c31 2c30 362c 3639  | b'$GLGSV,2,1,06,69' |
016: 2c31 342c 3038 332c 3333 2c37 312c 3338  | b',14,083,33,71,38' |
032: 2c33 3031 2c33 352c 3733 2c31 382c 3136  | b',301,35,73,18,16' |
048: 302c 3335 2c37 392c 3236 2c30 3337 2c33  | b'0,35,79,26,037,3' |
064: 362c 332a 3730 0d0a                      | b'6,3*70\r\n' |
<NMEA(GLGSV, numMsg=2, msgNum=2, numSV=6, svid_01=80, elv_01=46.0, az_01=102, cno_01=39, svid_02=85, elv_02=24.0, az_02=227, cno_02=36, signalID=3)>000: 2447 4c47 5356 2c32 2c32 2c30 362c 3830  | b'$GLGSV,2,2,06,80' |
016: 2c34 362c 3130 322c 3339 2c38 352c 3234  | b',46,102,39,85,24' |
032: 2c32 3237 2c33 362c 332a 3736 0d0a       | b',227,36,3*76\r\n' |
<NMEA(GLGSV, numMsg=1, msgNum=1, numSV=1, svid_01=94, elv_01=1.0, az_01=34, cno_01=, signalID=0)>000: 2447 4c47 5356 2c31 2c31 2c30 312c 3934  | b'$GLGSV,1,1,01,94' |
016: 2c30 312c 3033 342c 2c30 2a34 330d 0a    | b',01,034,,0*43\r\n' |
<NMEA(GAGSV, numMsg=2, msgNum=1, numSV=7, svid_01=4, elv_01=24.0, az_01=69, cno_01=43, svid_02=5, elv_02=44.0, az_02=269, cno_02=47, svid_03=9, elv_03=72.0, az_03=31, cno_03=50, svid_04=11, elv_04=12.0, az_04=178, cno_04=35, signalID=7)>000: 2447 4147 5356 2c32 2c31 2c30 372c 3034  | b'$GAGSV,2,1,07,04' |
016: 2c32 342c 3036 392c 3433 2c30 352c 3434  | b',24,069,43,05,44' |
032: 2c32 3639 2c34 372c 3039 2c37 322c 3033  | b',269,47,09,72,03' |
048: 312c 3530 2c31 312c 3132 2c31 3738 2c33  | b'1,50,11,12,178,3' |
064: 352c 372a 3736 0d0a                      | b'5,7*76\r\n' |
<NMEA(GAGSV, numMsg=2, msgNum=2, numSV=7, svid_01=31, elv_01=21.0, az_01=109, cno_01=41, svid_02=34, elv_02=41.0, az_02=297, cno_02=47, svid_03=36, elv_03=45.0, az_03=220, cno_03=47, signalID=7)>000: 2447 4147 5356 2c32 2c32 2c30 372c 3331  | b'$GAGSV,2,2,07,31' |
016: 2c32 312c 3130 392c 3431 2c33 342c 3431  | b',21,109,41,34,41' |
032: 2c32 3937 2c34 372c 3336 2c34 352c 3232  | b',297,47,36,45,22' |
048: 302c 3437 2c37 2a34 320d 0a              | b'0,47,7*42\r\n' |
<NMEA(GAGSV, numMsg=1, msgNum=1, numSV=2, svid_01=15, elv_01=4.0, az_01=333, cno_01=, svid_02=24, elv_02=4.0, az_02=154, cno_02=, signalID=0)>000: 2447 4147 5356 2c31 2c31 2c30 322c 3135  | b'$GAGSV,1,1,02,15' |
016: 2c30 342c 3333 332c 2c32 342c 3034 2c31  | b',04,333,,24,04,1' |
032: 3534 2c2c 302a 3737 0d0a                 | b'54,,0*77\r\n' |
<NMEA(GBGSV, numMsg=2, msgNum=1, numSV=8, svid_01=20, elv_01=57.0, az_01=306, cno_01=53, svid_02=23, elv_02=41.0, az_02=75, cno_02=51, svid_03=25, elv_03=9.0, az_03=35, cno_03=43, svid_04=29, elv_04=21.0, az_04=266, cno_04=45, signalID=1)>000: 2447 4247 5356 2c32 2c31 2c30 382c 3230  | b'$GBGSV,2,1,08,20' |
016: 2c35 372c 3330 362c 3533 2c32 332c 3431  | b',57,306,53,23,41' |
032: 2c30 3735 2c35 312c 3235 2c30 392c 3033  | b',075,51,25,09,03' |
048: 352c 3433 2c32 392c 3231 2c32 3636 2c34  | b'5,43,29,21,266,4' |
064: 352c 312a 3738 0d0a                      | b'5,1*78\r\n' |
<NMEA(GBGSV, numMsg=2, msgNum=2, numSV=8, svid_01=30, elv_01=8.0, az_01=215, cno_01=40, svid_02=32, elv_02=58.0, az_02=80, cno_02=52, svid_03=35, elv_03=10.0, az_03=321, cno_03=42, svid_04=37, elv_04=40.0, az_04=149, cno_04=49, signalID=1)>000: 2447 4247 5356 2c32 2c32 2c30 382c 3330  | b'$GBGSV,2,2,08,30' |
016: 2c30 382c 3231 352c 3430 2c33 322c 3538  | b',08,215,40,32,58' |
032: 2c30 3830 2c35 322c 3335 2c31 302c 3332  | b',080,52,35,10,32' |
048: 312c 3432 2c33 372c 3430 2c31 3439 2c34  | b'1,42,37,40,149,4' |
064: 392c 312a 3734 0d0a                      | b'9,1*74\r\n' |
<NMEA(GBGSV, numMsg=2, msgNum=1, numSV=5, svid_01=23, elv_01=41.0, az_01=75, cno_01=8, svid_02=25, elv_02=9.0, az_02=35, cno_02=8, svid_03=29, elv_03=21.0, az_03=266, cno_03=8, svid_04=32, elv_04=58.0, az_04=80, cno_04=9, signalID=3)>000: 2447 4247 5356 2c32 2c31 2c30 352c 3233  | b'$GBGSV,2,1,05,23' |
016: 2c34 312c 3037 352c 3038 2c32 352c 3039  | b',41,075,08,25,09' |
032: 2c30 3335 2c30 382c 3239 2c32 312c 3236  | b',035,08,29,21,26' |
048: 362c 3038 2c33 322c 3538 2c30 3830 2c30  | b'6,08,32,58,080,0' |
064: 392c 332a 3733 0d0a                      | b'9,3*73\r\n' |
<NMEA(GBGSV, numMsg=2, msgNum=2, numSV=5, svid_01=37, elv_01=40.0, az_01=149, cno_01=9, signalID=3)>000: 2447 4247 5356 2c32 2c32 2c30 352c 3337  | b'$GBGSV,2,2,05,37' |
016: 2c34 302c 3134 392c 3039 2c33 2a34 340d  | b',40,149,09,3*44\r' |
032: 0a                                       | b'\n' |
<NMEA(GBGSV, numMsg=1, msgNum=1, numSV=1, svid_01=19, elv_01=10.0, az_01=288, cno_01=, signalID=0)>000: 2447 4247 5356 2c31 2c31 2c30 312c 3139  | b'$GBGSV,1,1,01,19' |
016: 2c31 302c 3238 382c 2c30 2a34 440d 0a    | b',10,288,,0*4D\r\n' |
<NMEA(GNGLL, lat=43.8828268117, NS=N, lon=-72.15828297, EW=W, time=19:22:05, status=A, posMode=D)>000: 2447 4e47 4c4c 2c34 3335 322e 3936 3936  | b'$GNGLL,4352.9696' |
016: 3038 372c 4e2c 3037 3230 392e 3439 3639  | b'087,N,07209.4969' |
032: 3738 322c 572c 3139 3232 3035 2e30 302c  | b'782,W,192205.00,' |
048: 412c 442a 3631 0d0a                      | b'A,D*61\r\n' |
<NMEA(GNTXT, numMsg=1, msgNum=1, msgType=0, text=txbuf alloc)>000: 2447 4e54 5854 2c30 312c 3031 2c30 302c  | b'$GNTXT,01,01,00,' |
016: 7478 6275 6620 616c 6c6f 632a 3631 0d0a  | b'txbuf alloc*61\r\n' |
<NMEA(GNRMC, time=19:22:05.250000, status=A, lat=43.8828267783, NS=N, lon=-72.1582829517, EW=W, spd=0.023, cog=, date=2023-09-05, mv=, mvEW=, posMode=R, navStatus=V)>000: 2447 4e52 4d43 2c31 3932 3230 352e 3235  | b'$GNRMC,192205.25' |
016: 2c41 2c34 3335 322e 3936 3936 3036 372c  | b',A,4352.9696067,' |
032: 4e2c 3037 3230 392e 3439 3639 3737 312c  | b'N,07209.4969771,' |
048: 572c 302e 3032 332c 2c30 3530 3932 332c  | b'W,0.023,,050923,' |
064: 2c2c 522c 562a 3144 0d0a                 | b',,R,V*1D\r\n' |
<NMEA(GNGGA, time=19:22:05.250000, lat=43.8828267783, NS=N, lon=-72.1582829517, EW=W, quality=4, numSV=12, HDOP=0.56, alt=143.134, altUnit=M, sep=-32.547, sepUnit=M, diffAge=, diffStation=0)>000: 2447 4e47 4741 2c31 3932 3230 352e 3235  | b'$GNGGA,192205.25' |
016: 2c34 3335 322e 3936 3936 3036 372c 4e2c  | b',4352.9696067,N,' |
032: 3037 3230 392e 3439 3639 3737 312c 572c  | b'07209.4969771,W,' |
048: 342c 3132 2c30 2e35 362c 3134 332e 3133  | b'4,12,0.56,143.13' |
064: 342c 4d2c 2d33 322e 3534 372c 4d2c 2c30  | b'4,M,-32.547,M,,0' |
080: 3030 302a 3742 0d0a                      | b'000*7B\r\n' |
<NMEA(GNGSA, opMode=A, navMode=3, svid_01=46, svid_02=44, svid_03=24, svid_04=18, svid_05=10, svid_06=12, svid_07=23, svid_08=15, svid_09=32, svid_10=, svid_11=, svid_12=, PDOP=1.0, HDOP=0.56, VDOP=0.83, systemId=1)>000: 2447 4e47 5341 2c41 2c33 2c34 362c 3434  | b'$GNGSA,A,3,46,44' |
016: 2c32 342c 3138 2c31 302c 3132 2c32 332c  | b',24,18,10,12,23,' |
032: 3135 2c33 322c 2c2c 2c31 2e30 302c 302e  | b'15,32,,,,1.00,0.' |
048: 3536 2c30 2e38 332c 312a 3033 0d0a       | b'56,0.83,1*03\r\n' |
<NMEA(GNGSA, opMode=A, navMode=3, svid_01=69, svid_02=87, svid_03=85, svid_04=80, svid_05=71, svid_06=73, svid_07=70, svid_08=79, svid_09=, svid_10=, svid_11=, svid_12=, PDOP=1.0, HDOP=0.56, VDOP=0.83, systemId=2)>000: 2447 4e47 5341 2c41 2c33 2c36 392c 3837  | b'$GNGSA,A,3,69,87' |
016: 2c38 352c 3830 2c37 312c 3733 2c37 302c  | b',85,80,71,73,70,' |
032: 3739 2c2c 2c2c 2c31 2e30 302c 302e 3536  | b'79,,,,,1.00,0.56' |
048: 2c30 2e38 332c 322a 3035 0d0a            | b',0.83,2*05\r\n' |
<NMEA(GNGSA, opMode=A, navMode=3, svid_01=36, svid_02=5, svid_03=31, svid_04=34, svid_05=4, svid_06=11, svid_07=9, svid_08=, svid_09=, svid_10=, svid_11=, svid_12=, PDOP=1.0, HDOP=0.56, VDOP=0.83, systemId=3)>000: 2447 4e47 5341 2c41 2c33 2c33 362c 3035  | b'$GNGSA,A,3,36,05' |
016: 2c33 312c 3334 2c30 342c 3131 2c30 392c  | b',31,34,04,11,09,' |
032: 2c2c 2c2c 2c31 2e30 302c 302e 3536 2c30  | b',,,,,1.00,0.56,0' |
048: 2e38 332c 332a 3032 0d0a                 | b'.83,3*02\r\n' |
<NMEA(GNGSA, opMode=A, navMode=3, svid_01=37, svid_02=32, svid_03=29, svid_04=20, svid_05=23, svid_06=35, svid_07=, svid_08=, svid_09=, svid_10=, svid_11=, svid_12=, PDOP=1.0, HDOP=0.56, VDOP=0.83, systemId=4)>000: 2447 4e47 5341 2c41 2c33 2c33 372c 3332  | b'$GNGSA,A,3,37,32' |
016: 2c32 392c 3230 2c32 332c 3335 2c2c 2c2c  | b',29,20,23,35,,,,' |
032: 2c2c 2c31 2e30 302c 302e 3536 2c30 2e38  | b',,,1.00,0.56,0.8' |
048: 332c 342a 3036 0d0a                      | b'3,4*06\r\n' |
<NMEA(GPGSV, numMsg=3, msgNum=1, numSV=10, svid_01=10, elv_01=61.0, az_01=312, cno_01=52, svid_02=12, elv_02=13.0, az_02=118, cno_02=41, svid_03=15, elv_03=23.0, az_03=76, cno_03=45, svid_04=18, elv_04=27.0, az_04=189, cno_04=44, signalID=1)>000: 2447 5047 5356 2c33 2c31 2c31 302c 3130  | b'$GPGSV,3,1,10,10' |
016: 2c36 312c 3331 322c 3532 2c31 322c 3133  | b',61,312,52,12,13' |
032: 2c31 3138 2c34 312c 3135 2c32 332c 3037  | b',118,41,15,23,07' |
048: 362c 3435 2c31 382c 3237 2c31 3839 2c34  | b'6,45,18,27,189,4' |
064: 342c 312a 3633 0d0a                      | b'4,1*63\r\n' |
<NMEA(GPGSV, numMsg=3, msgNum=2, numSV=10, svid_01=21, elv_01=8.0, az_01=327, cno_01=40, svid_02=23, elv_02=76.0, az_02=112, cno_02=50, svid_03=24, elv_03=54.0, az_03=66, cno_03=49, svid_04=32, elv_04=32.0, az_04=265, cno_04=47, signalID=1)>000: 2447 5047 5356 2c33 2c32 2c31 302c 3231  | b'$GPGSV,3,2,10,21' |
016: 2c30 382c 3332 372c 3430 2c32 332c 3736  | b',08,327,40,23,76' |
032: 2c31 3132 2c35 302c 3234 2c35 342c 3036  | b',112,50,24,54,06' |
048: 362c 3439 2c33 322c 3332 2c32 3635 2c34  | b'6,49,32,32,265,4' |
064: 372c 312a 3632 0d0a                      | b'7,1*62\r\n' |
<NMEA(GPGSV, numMsg=3, msgNum=3, numSV=10, svid_01=44, elv_01=23.0, az_01=235, cno_01=44, svid_02=46, elv_02=15.0, az_02=246, cno_02=42, signalID=1)>000: 2447 5047 5356 2c33 2c33 2c31 302c 3434  | b'$GPGSV,3,3,10,44' |
016: 2c32 332c 3233 352c 3434 2c34 362c 3135  | b',23,235,44,46,15' |
032: 2c32 3436 2c34 322c 312a 3630 0d0a       | b',246,42,1*60\r\n' |
<NMEA(GPGSV, numMsg=2, msgNum=1, numSV=8, svid_01=10, elv_01=61.0, az_01=312, cno_01=42, svid_02=12, elv_02=13.0, az_02=118, cno_02=33, svid_03=15, elv_03=23.0, az_03=76, cno_03=36, svid_04=18, elv_04=27.0, az_04=189, cno_04=38, signalID=6)>000: 2447 5047 5356 2c32 2c31 2c30 382c 3130  | b'$GPGSV,2,1,08,10' |
016: 2c36 312c 3331 322c 3432 2c31 322c 3133  | b',61,312,42,12,13' |
032: 2c31 3138 2c33 332c 3135 2c32 332c 3037  | b',118,33,15,23,07' |
048: 362c 3336 2c31 382c 3237 2c31 3839 2c33  | b'6,36,18,27,189,3' |
064: 382c 362a 3637 0d0a                      | b'8,6*67\r\n' |
<NMEA(GPGSV, numMsg=2, msgNum=2, numSV=8, svid_01=23, elv_01=76.0, az_01=112, cno_01=44, svid_02=24, elv_02=54.0, az_02=66, cno_02=42, svid_03=28, elv_03=2.0, az_03=211, cno_03=32, svid_04=32, elv_04=32.0, az_04=265, cno_04=40, signalID=6)>000: 2447 5047 5356 2c32 2c32 2c30 382c 3233  | b'$GPGSV,2,2,08,23' |
016: 2c37 362c 3131 322c 3434 2c32 342c 3534  | b',76,112,44,24,54' |
032: 2c30 3636 2c34 322c 3238 2c30 322c 3231  | b',066,42,28,02,21' |
048: 312c 3332 2c33 322c 3332 2c32 3635 2c34  | b'1,32,32,32,265,4' |
064: 302c 362a 3636 0d0a                      | b'0,6*66\r\n' |
<NMEA(GPGSV, numMsg=2, msgNum=1, numSV=5, svid_01=2, elv_01=2.0, az_01=332, cno_01=, svid_02=8, elv_02=1.0, az_02=302, cno_02=, svid_03=22, elv_03=2.0, az_03=24, cno_03=, svid_04=25, elv_04=2.0, az_04=155, cno_04=, signalID=0)>000: 2447 5047 5356 2c32 2c31 2c30 352c 3032  | b'$GPGSV,2,1,05,02' |
016: 2c30 322c 3333 322c 2c30 382c 3031 2c33  | b',02,332,,08,01,3' |
032: 3032 2c2c 3232 2c30 322c 3032 342c 2c32  | b'02,,22,02,024,,2' |
048: 352c 3032 2c31 3535 2c2c 302a 3639 0d0a  | b'5,02,155,,0*69\r\n' |
<NMEA(GPGSV, numMsg=2, msgNum=2, numSV=5, svid_01=25, elv_01=2.0, az_01=155, cno_01=, signalID=0)>000: 2447 5047 5356 2c32 2c32 2c30 352c 3235  | b'$GPGSV,2,2,05,25' |
016: 2c30 322c 3135 352c 2c30 2a35 340d 0a    | b',02,155,,0*54\r\n' |
<NMEA(GLGSV, numMsg=3, msgNum=1, numSV=10, svid_01=69, elv_01=14.0, az_01=83, cno_01=45, svid_02=70, elv_02=62.0, az_02=24, cno_02=42, svid_03=71, elv_03=38.0, az_03=301, cno_03=51, svid_04=73, elv_04=18.0, az_04=160, cno_04=45, signalID=1)>000: 2447 4c47 5356 2c33 2c31 2c31 302c 3639  | b'$GLGSV,3,1,10,69' |
016: 2c31 342c 3038 332c 3435 2c37 302c 3632  | b',14,083,45,70,62' |
032: 2c30 3234 2c34 322c 3731 2c33 382c 3330  | b',024,42,71,38,30' |
048: 312c 3531 2c37 332c 3138 2c31 3630 2c34  | b'1,51,73,18,160,4' |
064: 352c 312a 3738 0d0a                      | b'5,1*78\r\n' |
<NMEA(GLGSV, numMsg=3, msgNum=2, numSV=10, svid_01=79, elv_01=26.0, az_01=37, cno_01=48, svid_02=80, elv_02=46.0, az_02=102, cno_02=51, svid_03=85, elv_03=24.0, az_03=227, cno_03=47, svid_04=86, elv_04=38.0, az_04=282, cno_04=49, signalID=1)>000: 2447 4c47 5356 2c33 2c32 2c31 302c 3739  | b'$GLGSV,3,2,10,79' |
016: 2c32 362c 3033 372c 3438 2c38 302c 3436  | b',26,037,48,80,46' |
032: 2c31 3032 2c35 312c 3835 2c32 342c 3232  | b',102,51,85,24,22' |
048: 372c 3437 2c38 362c 3338 2c32 3832 2c34  | b'7,47,86,38,282,4' |
064: 392c 312a 3738 0d0a                      | b'9,1*78\r\n' |
<NMEA(GLGSV, numMsg=3, msgNum=3, numSV=10, svid_01=87, elv_01=14.0, az_01=337, cno_01=44, svid_02=, elv_02=, az_02=, cno_02=48, signalID=1)>000: 2447 4c47 5356 2c33 2c33 2c31 302c 3837  | b'$GLGSV,3,3,10,87' |
016: 2c31 342c 3333 372c 3434 2c2c 2c2c 3438  | b',14,337,44,,,,48' |
032: 2c31 2a34 380d 0a                        | b',1*48\r\n' |
<NMEA(GLGSV, numMsg=2, msgNum=1, numSV=6, svid_01=69, elv_01=14.0, az_01=83, cno_01=33, svid_02=71, elv_02=38.0, az_02=301, cno_02=35, svid_03=73, elv_03=18.0, az_03=160, cno_03=35, svid_04=79, elv_04=26.0, az_04=37, cno_04=36, signalID=3)>000: 2447 4c47 5356 2c32 2c31 2c30 362c 3639  | b'$GLGSV,2,1,06,69' |
016: 2c31 342c 3038 332c 3333 2c37 312c 3338  | b',14,083,33,71,38' |
032: 2c33 3031 2c33 352c 3733 2c31 382c 3136  | b',301,35,73,18,16' |
048: 302c 3335 2c37 392c 3236 2c30 3337 2c33  | b'0,35,79,26,037,3' |
064: 362c 332a 3730 0d0a                      | b'6,3*70\r\n' |
<NMEA(GLGSV, numMsg=2, msgNum=2, numSV=6, svid_01=80, elv_01=46.0, az_01=102, cno_01=39, svid_02=85, elv_02=24.0, az_02=227, cno_02=36, signalID=3)>000: 2447 4c47 5356 2c32 2c32 2c30 362c 3830  | b'$GLGSV,2,2,06,80' |
016: 2c34 362c 3130 322c 3339 2c38 352c 3234  | b',46,102,39,85,24' |
032: 2c32 3237 2c33 362c 332a 3736 0d0a       | b',227,36,3*76\r\n' |
<NMEA(GLGSV, numMsg=1, msgNum=1, numSV=1, svid_01=94, elv_01=1.0, az_01=34, cno_01=, signalID=0)>000: 2447 4c47 5356 2c31 2c31 2c30 312c 3934  | b'$GLGSV,1,1,01,94' |
016: 2c30 312c 3033 342c 2c30 2a34 330d 0a    | b',01,034,,0*43\r\n' |
<NMEA(GAGSV, numMsg=2, msgNum=2, numSV=7, svid_01=31, elv_01=21.0, az_01=109, cno_01=36, svid_02=34, elv_02=41.0, az_02=297, cno_02=41, svid_03=36, elv_03=45.0, az_03=220, cno_03=41, signalID=2)>000: 2447 4147 5356 2c32 2c32 2c30 372c 3331  | b'$GAGSV,2,2,07,31' |
016: 2c32 312c 3130 392c 3336 2c33 342c 3431  | b',21,109,36,34,41' |
032: 2c32 3937 2c34 312c 3336 2c34 352c 3232  | b',297,41,36,45,22' |
048: 302c 3431 2c32 2a34 370d 0a              | b'0,41,2*47\r\n' |
<NMEA(GAGSV, numMsg=2, msgNum=1, numSV=7, svid_01=4, elv_01=24.0, az_01=69, cno_01=42, svid_02=5, elv_02=44.0, az_02=269, cno_02=45, svid_03=9, elv_03=72.0, az_03=31, cno_03=49, svid_04=11, elv_04=12.0, az_04=178, cno_04=35, signalID=7)>000: 2447 4147 5356 2c32 2c31 2c30 372c 3034  | b'$GAGSV,2,1,07,04' |
016: 2c32 342c 3036 392c 3432 2c30 352c 3434  | b',24,069,42,05,44' |
032: 2c32 3639 2c34 352c 3039 2c37 322c 3033  | b',269,45,09,72,03' |
048: 312c 3439 2c31 312c 3132 2c31 3738 2c33  | b'1,49,11,12,178,3' |
064: 352c 372a 3744 0d0a                      | b'5,7*7D\r\n' |
<NMEA(GAGSV, numMsg=2, msgNum=2, numSV=7, svid_01=31, elv_01=21.0, az_01=109, cno_01=41, svid_02=34, elv_02=41.0, az_02=297, cno_02=46, svid_03=36, elv_03=45.0, az_03=220, cno_03=46, signalID=7)>000: 2447 4147 5356 2c32 2c32 2c30 372c 3331  | b'$GAGSV,2,2,07,31' |
016: 2c32 312c 3130 392c 3431 2c33 342c 3431  | b',21,109,41,34,41' |
032: 2c32 3937 2c34 362c 3336 2c34 352c 3232  | b',297,46,36,45,22' |
048: 302c 3436 2c37 2a34 320d 0a              | b'0,46,7*42\r\n' |
<NMEA(GAGSV, numMsg=1, msgNum=1, numSV=2, svid_01=15, elv_01=4.0, az_01=333, cno_01=, svid_02=24, elv_02=4.0, az_02=154, cno_02=, signalID=0)>000: 2447 4147 5356 2c31 2c31 2c30 322c 3135  | b'$GAGSV,1,1,02,15' |
016: 2c30 342c 3333 332c 2c32 342c 3034 2c31  | b',04,333,,24,04,1' |
032: 3534 2c2c 302a 3737 0d0a                 | b'54,,0*77\r\n' |
<NMEA(GBGSV, numMsg=2, msgNum=1, numSV=8, svid_01=20, elv_01=57.0, az_01=306, cno_01=52, svid_02=23, elv_02=41.0, az_02=75, cno_02=50, svid_03=25, elv_03=9.0, az_03=35, cno_03=43, svid_04=29, elv_04=21.0, az_04=266, cno_04=44, signalID=1)>000: 2447 4247 5356 2c32 2c31 2c30 382c 3230  | b'$GBGSV,2,1,08,20' |
016: 2c35 372c 3330 362c 3532 2c32 332c 3431  | b',57,306,52,23,41' |
032: 2c30 3735 2c35 302c 3235 2c30 392c 3033  | b',075,50,25,09,03' |
048: 352c 3433 2c32 392c 3231 2c32 3636 2c34  | b'5,43,29,21,266,4' |
064: 342c 312a 3739 0d0a                      | b'4,1*79\r\n' |
<NMEA(GBGSV, numMsg=2, msgNum=2, numSV=8, svid_01=30, elv_01=8.0, az_01=215, cno_01=40, svid_02=32, elv_02=58.0, az_02=80, cno_02=51, svid_03=35, elv_03=10.0, az_03=321, cno_03=42, svid_04=37, elv_04=40.0, az_04=149, cno_04=48, signalID=1)>000: 2447 4247 5356 2c32 2c32 2c30 382c 3330  | b'$GBGSV,2,2,08,30' |
016: 2c30 382c 3231 352c 3430 2c33 322c 3538  | b',08,215,40,32,58' |
032: 2c30 3830 2c35 312c 3335 2c31 302c 3332  | b',080,51,35,10,32' |
048: 312c 3432 2c33 372c 3430 2c31 3439 2c34  | b'1,42,37,40,149,4' |
064: 382c 312a 3736 0d0a                      | b'8,1*76\r\n' |
<NMEA(GBGSV, numMsg=1, msgNum=1, numSV=4, svid_01=25, elv_01=9.0, az_01=35, cno_01=8, svid_02=29, elv_02=21.0, az_02=266, cno_02=8, svid_03=32, elv_03=58.0, az_03=80, cno_03=8, svid_04=37, elv_04=40.0, az_04=149, cno_04=9, signalID=3)>000: 2447 4247 5356 2c31 2c31 2c30 342c 3235  | b'$GBGSV,1,1,04,25' |
016: 2c30 392c 3033 352c 3038 2c32 392c 3231  | b',09,035,08,29,21' |
032: 2c32 3636 2c30 382c 3332 2c35 382c 3038  | b',266,08,32,58,08' |
048: 302c 3038 2c33 372c 3430 2c31 3439 2c30  | b'0,08,37,40,149,0' |
064: 392c 332a 3742 0d0a                      | b'9,3*7B\r\n' |
<NMEA(GBGSV, numMsg=1, msgNum=1, numSV=1, svid_01=19, elv_01=10.0, az_01=288, cno_01=, signalID=0)>000: 2447 4247 5356 2c31 2c31 2c30 312c 3139  | b'$GBGSV,1,1,01,19' |
016: 2c31 302c 3238 382c 2c30 2a34 440d 0a    | b',10,288,,0*4D\r\n' |
<NMEA(GNRMC, time=19:22:05.750000, status=A, lat=43.8828267583, NS=N, lon=-72.1582829717, EW=W, spd=0.015, cog=, date=2023-09-05, mv=, mvEW=, posMode=R, navStatus=V)>000: 2447 4e52 4d43 2c31 3932 3230 352e 3735  | b'$GNRMC,192205.75' |
016: 2c41 2c34 3335 322e 3936 3936 3035 352c  | b',A,4352.9696055,' |
032: 4e2c 3037 3230 392e 3439 3639 3738 332c  | b'N,07209.4969783,' |
048: 572c 302e 3031 352c 2c30 3530 3932 332c  | b'W,0.015,,050923,' |
064: 2c2c 522c 562a 3131 0d0a                 | b',,R,V*11\r\n' |
<NMEA(GNVTG, cogt=, cogtUnit=T, cogm=, cogmUnit=M, sogn=0.015, sognUnit=N, sogk=0.028, sogkUnit=K, posMode=D)>000: 2447 4e56 5447 2c2c 542c 2c4d 2c30 2e30  | b'$GNVTG,,T,,M,0.0' |
016: 3135 2c4e 2c30 2e30 3238 2c4b 2c44 2a33  | b'15,N,0.028,K,D*3' |
032: 360d 0a                                  | b'6\r\n' |
<NMEA(GNGGA, time=19:22:05.750000, lat=43.8828267583, NS=N, lon=-72.1582829717, EW=W, quality=4, numSV=12, HDOP=0.56, alt=143.133, altUnit=M, sep=-32.547, sepUnit=M, diffAge=, diffStation=0)>000: 2447 4e47 4741 2c31 3932 3230 352e 3735  | b'$GNGGA,192205.75' |
016: 2c34 3335 322e 3936 3936 3035 352c 4e2c  | b',4352.9696055,N,' |
032: 3037 3230 392e 3439 3639 3738 332c 572c  | b'07209.4969783,W,' |
048: 342c 3132 2c30 2e35 362c 3134 332e 3133  | b'4,12,0.56,143.13' |
064: 332c 4d2c 2d33 322e 3534 372c 4d2c 2c30  | b'3,M,-32.547,M,,0' |
080: 3030 302a 3735 0d0a                      | b'000*75\r\n' |
<NMEA(GNGSA, opMode=A, navMode=3, svid_01=46, svid_02=44, svid_03=24, svid_04=18, svid_05=10, svid_06=12, svid_07=23, svid_08=15, svid_09=32, svid_10=, svid_11=, svid_12=, PDOP=1.0, HDOP=0.56, VDOP=0.83, systemId=1)>000: 2447 4e47 5341 2c41 2c33 2c34 362c 3434  | b'$GNGSA,A,3,46,44' |
016: 2c32 342c 3138 2c31 302c 3132 2c32 332c  | b',24,18,10,12,23,' |
032: 3135 2c33 322c 2c2c 2c31 2e30 302c 302e  | b'15,32,,,,1.00,0.' |
048: 3536 2c30 2e38 332c 312a 3033 0d0a       | b'56,0.83,1*03\r\n' |
<NMEA(GNGSA, opMode=A, navMode=3, svid_01=69, svid_02=87, svid_03=85, svid_04=80, svid_05=71, svid_06=73, svid_07=70, svid_08=79, svid_09=, svid_10=, svid_11=, svid_12=, PDOP=1.0, HDOP=0.56, VDOP=0.83, systemId=2)>000: 2447 4e47 5341 2c41 2c33 2c36 392c 3837  | b'$GNGSA,A,3,69,87' |
016: 2c38 352c 3830 2c37 312c 3733 2c37 302c  | b',85,80,71,73,70,' |
032: 3739 2c2c 2c2c 2c31 2e30 302c 302e 3536  | b'79,,,,,1.00,0.56' |
048: 2c30 2e38 332c 322a 3035 0d0a            | b',0.83,2*05\r\n' |
<NMEA(GNGSA, opMode=A, navMode=3, svid_01=36, svid_02=5, svid_03=31, svid_04=34, svid_05=4, svid_06=11, svid_07=9, svid_08=, svid_09=, svid_10=, svid_11=, svid_12=, PDOP=1.0, HDOP=0.56, VDOP=0.83, systemId=3)>000: 2447 4e47 5341 2c41 2c33 2c33 362c 3035  | b'$GNGSA,A,3,36,05' |
016: 2c33 312c 3334 2c30 342c 3131 2c30 392c  | b',31,34,04,11,09,' |
032: 2c2c 2c2c 2c31 2e30 302c 302e 3536 2c30  | b',,,,,1.00,0.56,0' |
048: 2e38 332c 332a 3032 0d0a                 | b'.83,3*02\r\n' |
<NMEA(GNGSA, opMode=A, navMode=3, svid_01=37, svid_02=32, svid_03=29, svid_04=20, svid_05=23, svid_06=35, svid_07=, svid_08=, svid_09=, svid_10=, svid_11=, svid_12=, PDOP=1.0, HDOP=0.56, VDOP=0.83, systemId=4)>000: 2447 4e47 5341 2c41 2c33 2c33 372c 3332  | b'$GNGSA,A,3,37,32' |
016: 2c32 392c 3230 2c32 332c 3335 2c2c 2c2c  | b',29,20,23,35,,,,' |
032: 2c2c 2c31 2e30 302c 302e 3536 2c30 2e38  | b',,,1.00,0.56,0.8' |
048: 332c 342a 3036 0d0a                      | b'3,4*06\r\n' |
<NMEA(GPGSV, numMsg=3, msgNum=1, numSV=10, svid_01=10, elv_01=61.0, az_01=312, cno_01=52, svid_02=12, elv_02=13.0, az_02=118, cno_02=40, svid_03=15, elv_03=23.0, az_03=76, cno_03=45, svid_04=18, elv_04=27.0, az_04=189, cno_04=44, signalID=1)>000: 2447 5047 5356 2c33 2c31 2c31 302c 3130  | b'$GPGSV,3,1,10,10' |
016: 2c36 312c 3331 322c 3532 2c31 322c 3133  | b',61,312,52,12,13' |
032: 2c31 3138 2c34 302c 3135 2c32 332c 3037  | b',118,40,15,23,07' |
048: 362c 3435 2c31 382c 3237 2c31 3839 2c34  | b'6,45,18,27,189,4' |
064: 342c 312a 3632 0d0a                      | b'4,1*62\r\n' |
<NMEA(GPGSV, numMsg=3, msgNum=2, numSV=10, svid_01=21, elv_01=8.0, az_01=327, cno_01=40, svid_02=23, elv_02=76.0, az_02=112, cno_02=49, svid_03=24, elv_03=54.0, az_03=66, cno_03=49, svid_04=32, elv_04=32.0, az_04=265, cno_04=47, signalID=1)>000: 2447 5047 5356 2c33 2c32 2c31 302c 3231  | b'$GPGSV,3,2,10,21' |
016: 2c30 382c 3332 372c 3430 2c32 332c 3736  | b',08,327,40,23,76' |
032: 2c31 3132 2c34 392c 3234 2c35 342c 3036  | b',112,49,24,54,06' |
048: 362c 3439 2c33 322c 3332 2c32 3635 2c34  | b'6,49,32,32,265,4' |
064: 372c 312a 3641 0d0a                      | b'7,1*6A\r\n' |
<NMEA(GPGSV, numMsg=3, msgNum=3, numSV=10, svid_01=44, elv_01=23.0, az_01=235, cno_01=44, svid_02=46, elv_02=15.0, az_02=246, cno_02=42, signalID=1)>000: 2447 5047 5356 2c33 2c33 2c31 302c 3434  | b'$GPGSV,3,3,10,44' |
016: 2c32 332c 3233 352c 3434 2c34 362c 3135  | b',23,235,44,46,15' |
032: 2c32 3436 2c34 322c 312a 3630 0d0a       | b',246,42,1*60\r\n' |
<NMEA(GPGSV, numMsg=2, msgNum=1, numSV=8, svid_01=10, elv_01=61.0, az_01=312, cno_01=42, svid_02=12, elv_02=13.0, az_02=118, cno_02=33, svid_03=15, elv_03=23.0, az_03=76, cno_03=36, svid_04=18, elv_04=27.0, az_04=189, cno_04=38, signalID=6)>000: 2447 5047 5356 2c32 2c31 2c30 382c 3130  | b'$GPGSV,2,1,08,10' |
016: 2c36 312c 3331 322c 3432 2c31 322c 3133  | b',61,312,42,12,13' |
032: 2c31 3138 2c33 332c 3135 2c32 332c 3037  | b',118,33,15,23,07' |
048: 362c 3336 2c31 382c 3237 2c31 3839 2c33  | b'6,36,18,27,189,3' |
064: 382c 362a 3637 0d0a                      | b'8,6*67\r\n' |
<NMEA(GPGSV, numMsg=2, msgNum=2, numSV=8, svid_01=23, elv_01=76.0, az_01=112, cno_01=44, svid_02=24, elv_02=54.0, az_02=66, cno_02=42, svid_03=28, elv_03=2.0, az_03=211, cno_03=32, svid_04=32, elv_04=32.0, az_04=265, cno_04=40, signalID=6)>000: 2447 5047 5356 2c32 2c32 2c30 382c 3233  | b'$GPGSV,2,2,08,23' |
016: 2c37 362c 3131 322c 3434 2c32 342c 3534  | b',76,112,44,24,54' |
032: 2c30 3636 2c34 322c 3238 2c30 322c 3231  | b',066,42,28,02,21' |
048: 312c 3332 2c33 322c 3332 2c32 3635 2c34  | b'1,32,32,32,265,4' |
064: 302c 362a 3636 0d0a                      | b'0,6*66\r\n' |
<NMEA(GPGSV, numMsg=2, msgNum=1, numSV=5, svid_01=2, elv_01=2.0, az_01=332, cno_01=, svid_02=8, elv_02=1.0, az_02=302, cno_02=, svid_03=22, elv_03=2.0, az_03=24, cno_03=, svid_04=25, elv_04=2.0, az_04=155, cno_04=, signalID=0)>000: 2447 5047 5356 2c32 2c31 2c30 352c 3032  | b'$GPGSV,2,1,05,02' |
016: 2c30 322c 3333 322c 2c30 382c 3031 2c33  | b',02,332,,08,01,3' |
032: 3032 2c2c 3232 2c30 322c 3032 342c 2c32  | b'02,,22,02,024,,2' |
048: 352c 3032 2c31 3535 2c2c 302a 3639 0d0a  | b'5,02,155,,0*69\r\n' |
<NMEA(GPGSV, numMsg=2, msgNum=2, numSV=5, svid_01=25, elv_01=2.0, az_01=155, cno_01=, signalID=0)>000: 2447 5047 5356 2c32 2c32 2c30 352c 3235  | b'$GPGSV,2,2,05,25' |
016: 2c30 322c 3135 352c 2c30 2a35 340d 0a    | b',02,155,,0*54\r\n' |
<NMEA(GLGSV, numMsg=3, msgNum=1, numSV=10, svid_01=69, elv_01=14.0, az_01=83, cno_01=45, svid_02=70, elv_02=62.0, az_02=24, cno_02=42, svid_03=71, elv_03=38.0, az_03=301, cno_03=51, svid_04=73, elv_04=18.0, az_04=160, cno_04=44, signalID=1)>000: 2447 4c47 5356 2c33 2c31 2c31 302c 3639  | b'$GLGSV,3,1,10,69' |
016: 2c31 342c 3038 332c 3435 2c37 302c 3632  | b',14,083,45,70,62' |
032: 2c30 3234 2c34 322c 3731 2c33 382c 3330  | b',024,42,71,38,30' |
048: 312c 3531 2c37 332c 3138 2c31 3630 2c34  | b'1,51,73,18,160,4' |
064: 342c 312a 3739 0d0a                      | b'4,1*79\r\n' |
<NMEA(GLGSV, numMsg=3, msgNum=2, numSV=10, svid_01=79, elv_01=26.0, az_01=37, cno_01=47, svid_02=80, elv_02=46.0, az_02=102, cno_02=51, svid_03=85, elv_03=24.0, az_03=227, cno_03=47, svid_04=86, elv_04=38.0, az_04=282, cno_04=49, signalID=1)>000: 2447 4c47 5356 2c33 2c32 2c31 302c 3739  | b'$GLGSV,3,2,10,79' |
016: 2c32 362c 3033 372c 3437 2c38 302c 3436  | b',26,037,47,80,46' |
032: 2c31 3032 2c35 312c 3835 2c32 342c 3232  | b',102,51,85,24,22' |
048: 372c 3437 2c38 362c 3338 2c32 3832 2c34  | b'7,47,86,38,282,4' |
064: 392c 312a 3737 0d0a                      | b'9,1*77\r\n' |
<NMEA(GLGSV, numMsg=3, msgNum=3, numSV=10, svid_01=87, elv_01=14.0, az_01=337, cno_01=44, svid_02=, elv_02=, az_02=, cno_02=47, signalID=1)>000: 2447 4c47 5356 2c33 2c33 2c31 302c 3837  | b'$GLGSV,3,3,10,87' |
016: 2c31 342c 3333 372c 3434 2c2c 2c2c 3437  | b',14,337,44,,,,47' |
032: 2c31 2a34 370d 0a                        | b',1*47\r\n' |
<NMEA(GLGSV, numMsg=2, msgNum=2, numSV=6, svid_01=80, elv_01=46.0, az_01=102, cno_01=38, svid_02=85, elv_02=24.0, az_02=227, cno_02=36, signalID=3)>000: 2447 4c47 5356 2c32 2c32 2c30 362c 3830  | b'$GLGSV,2,2,06,80' |
016: 2c34 362c 3130 322c 3338 2c38 352c 3234  | b',46,102,38,85,24' |
032: 2c32 3237 2c33 362c 332a 3737 0d0a       | b',227,36,3*77\r\n' |
<NMEA(GLGSV, numMsg=1, msgNum=1, numSV=1, svid_01=94, elv_01=1.0, az_01=34, cno_01=, signalID=0)>000: 2447 4c47 5356 2c31 2c31 2c30 312c 3934  | b'$GLGSV,1,1,01,94' |
016: 2c30 312c 3033 342c 2c30 2a34 330d 0a    | b',01,034,,0*43\r\n' |
<NMEA(GAGSV, numMsg=2, msgNum=1, numSV=7, svid_01=4, elv_01=24.0, az_01=69, cno_01=36, svid_02=5, elv_02=44.0, az_02=269, cno_02=42, svid_03=9, elv_03=72.0, az_03=31, cno_03=42, svid_04=11, elv_04=12.0, az_04=178, cno_04=29, signalID=2)>000: 2447 4147 5356 2c32 2c31 2c30 372c 3034  | b'$GAGSV,2,1,07,04' |
016: 2c32 342c 3036 392c 3336 2c30 352c 3434  | b',24,069,36,05,44' |
032: 2c32 3639 2c34 322c 3039 2c37 322c 3033  | b',269,42,09,72,03' |
048: 312c 3432 2c31 312c 3132 2c31 3738 2c32  | b'1,42,11,12,178,2' |
064: 392c 322a 3741 0d0a                      | b'9,2*7A\r\n' |
<NMEA(GAGSV, numMsg=2, msgNum=2, numSV=7, svid_01=31, elv_01=21.0, az_01=109, cno_01=36, svid_02=34, elv_02=41.0, az_02=297, cno_02=41, svid_03=36, elv_03=45.0, az_03=220, cno_03=41, signalID=2)>000: 2447 4147 5356 2c32 2c32 2c30 372c 3331  | b'$GAGSV,2,2,07,31' |
016: 2c32 312c 3130 392c 3336 2c33 342c 3431  | b',21,109,36,34,41' |
032: 2c32 3937 2c34 312c 3336 2c34 352c 3232  | b',297,41,36,45,22' |
048: 302c 3431 2c32 2a34 370d 0a              | b'0,41,2*47\r\n' |
<NMEA(GAGSV, numMsg=2, msgNum=1, numSV=7, svid_01=4, elv_01=24.0, az_01=69, cno_01=42, svid_02=5, elv_02=44.0, az_02=269, cno_02=45, svid_03=9, elv_03=72.0, az_03=31, cno_03=49, svid_04=11, elv_04=12.0, az_04=178, cno_04=35, signalID=7)>000: 2447 4147 5356 2c32 2c31 2c30 372c 3034  | b'$GAGSV,2,1,07,04' |
016: 2c32 342c 3036 392c 3432 2c30 352c 3434  | b',24,069,42,05,44' |
032: 2c32 3639 2c34 352c 3039 2c37 322c 3033  | b',269,45,09,72,03' |
048: 312c 3439 2c31 312c 3132 2c31 3738 2c33  | b'1,49,11,12,178,3' |
064: 352c 372a 3744 0d0a                      | b'5,7*7D\r\n' |
<NMEA(GBGSV, numMsg=2, msgNum=1, numSV=8, svid_01=20, elv_01=57.0, az_01=306, cno_01=51, svid_02=23, elv_02=41.0, az_02=75, cno_02=49, svid_03=25, elv_03=9.0, az_03=35, cno_03=42, svid_04=29, elv_04=21.0, az_04=266, cno_04=44, signalID=1)>000: 2447 4247 5356 2c32 2c31 2c30 382c 3230  | b'$GBGSV,2,1,08,20' |
016: 2c35 372c 3330 362c 3531 2c32 332c 3431  | b',57,306,51,23,41' |
032: 2c30 3735 2c34 392c 3235 2c30 392c 3033  | b',075,49,25,09,03' |
048: 352c 3432 2c32 392c 3231 2c32 3636 2c34  | b'5,42,29,21,266,4' |
064: 342c 312a 3733 0d0a                      | b'4,1*73\r\n' |
<NMEA(GBGSV, numMsg=1, msgNum=1, numSV=1, svid_01=19, elv_01=10.0, az_01=288, cno_01=, signalID=0)>000: 2447 4247 5356 2c31 2c31 2c30 312c 3139  | b'$GBGSV,1,1,01,19' |
016: 2c31 302c 3238 382c 2c30 2a34 440d 0a    | b',10,288,,0*4D\r\n' |
<NMEA(GNGLL, lat=43.8828267583, NS=N, lon=-72.1582829717, EW=W, time=19:22:05.750000, status=A, posMode=D)>000: 2447 4e47 4c4c 2c34 3335 322e 3936 3936  | b'$GNGLL,4352.9696' |
016: 3035 352c 4e2c 3037 3230 392e 3439 3639  | b'055,N,07209.4969' |
032: 3738 332c 572c 3139 3232 3035 2e37 352c  | b'783,W,192205.75,' |
048: 412c 442a 3644 0d0a                      | b'A,D*6D\r\n' |
<NMEA(GNRMC, time=19:22:06, status=A, lat=43.8828267783, NS=N, lon=-72.1582829717, EW=W, spd=0.017, cog=, date=2023-09-05, mv=, mvEW=, posMode=R, navStatus=V)>000: 2447 4e52 4d43 2c31 3932 3230 362e 3030  | b'$GNRMC,192206.00' |
016: 2c41 2c34 3335 322e 3936 3936 3036 372c  | b',A,4352.9696067,' |
032: 4e2c 3037 3230 392e 3439 3639 3738 332c  | b'N,07209.4969783,' |
048: 572c 302e 3031 372c 2c30 3530 3932 332c  | b'W,0.017,,050923,' |
064: 2c2c 522c 562a 3133 0d0a                 | b',,R,V*13\r\n' |
<NMEA(GNVTG, cogt=, cogtUnit=T, cogm=, cogmUnit=M, sogn=0.017, sognUnit=N, sogk=0.032, sogkUnit=K, posMode=D)>000: 2447 4e56 5447 2c2c 542c 2c4d 2c30 2e30  | b'$GNVTG,,T,,M,0.0' |
016: 3137 2c4e 2c30 2e30 3332 2c4b 2c44 2a33  | b'17,N,0.032,K,D*3' |
032: 460d 0a                                  | b'F\r\n' |
<NMEA(GNGGA, time=19:22:06, lat=43.8828267783, NS=N, lon=-72.1582829717, EW=W, quality=4, numSV=12, HDOP=0.56, alt=143.133, altUnit=M, sep=-32.547, sepUnit=M, diffAge=, diffStation=0)>000: 2447 4e47 4741 2c31 3932 3230 362e 3030  | b'$GNGGA,192206.00' |
016: 2c34 3335 322e 3936 3936 3036 372c 4e2c  | b',4352.9696067,N,' |
032: 3037 3230 392e 3439 3639 3738 332c 572c  | b'07209.4969783,W,' |
048: 342c 3132 2c30 2e35 362c 3134 332e 3133  | b'4,12,0.56,143.13' |
064: 332c 4d2c 2d33 322e 3534 372c 4d2c 2c30  | b'3,M,-32.547,M,,0' |
080: 3030 302a 3735 0d0a                      | b'000*75\r\n' |
<NMEA(GNGSA, opMode=A, navMode=3, svid_01=46, svid_02=44, svid_03=24, svid_04=18, svid_05=10, svid_06=12, svid_07=23, svid_08=15, svid_09=32, svid_10=, svid_11=, svid_12=, PDOP=1.0, HDOP=0.56, VDOP=0.83, systemId=1)>000: 2447 4e47 5341 2c41 2c33 2c34 362c 3434  | b'$GNGSA,A,3,46,44' |
016: 2c32 342c 3138 2c31 302c 3132 2c32 332c  | b',24,18,10,12,23,' |
032: 3135 2c33 322c 2c2c 2c31 2e30 302c 302e  | b'15,32,,,,1.00,0.' |
048: 3536 2c30 2e38 332c 312a 3033 0d0a       | b'56,0.83,1*03\r\n' |
<NMEA(GNGSA, opMode=A, navMode=3, svid_01=69, svid_02=87, svid_03=85, svid_04=80, svid_05=71, svid_06=73, svid_07=70, svid_08=79, svid_09=, svid_10=, svid_11=, svid_12=, PDOP=1.0, HDOP=0.56, VDOP=0.83, systemId=2)>000: 2447 4e47 5341 2c41 2c33 2c36 392c 3837  | b'$GNGSA,A,3,69,87' |
016: 2c38 352c 3830 2c37 312c 3733 2c37 302c  | b',85,80,71,73,70,' |
032: 3739 2c2c 2c2c 2c31 2e30 302c 302e 3536  | b'79,,,,,1.00,0.56' |
048: 2c30 2e38 332c 322a 3035 0d0a            | b',0.83,2*05\r\n' |
<NMEA(GNGSA, opMode=A, navMode=3, svid_01=36, svid_02=5, svid_03=31, svid_04=34, svid_05=4, svid_06=11, svid_07=9, svid_08=, svid_09=, svid_10=, svid_11=, svid_12=, PDOP=1.0, HDOP=0.56, VDOP=0.83, systemId=3)>000: 2447 4e47 5341 2c41 2c33 2c33 362c 3035  | b'$GNGSA,A,3,36,05' |
016: 2c33 312c 3334 2c30 342c 3131 2c30 392c  | b',31,34,04,11,09,' |
032: 2c2c 2c2c 2c31 2e30 302c 302e 3536 2c30  | b',,,,,1.00,0.56,0' |
048: 2e38 332c 332a 3032 0d0a                 | b'.83,3*02\r\n' |
<NMEA(GNGSA, opMode=A, navMode=3, svid_01=37, svid_02=32, svid_03=29, svid_04=20, svid_05=23, svid_06=35, svid_07=, svid_08=, svid_09=, svid_10=, svid_11=, svid_12=, PDOP=1.0, HDOP=0.56, VDOP=0.83, systemId=4)>000: 2447 4e47 5341 2c41 2c33 2c33 372c 3332  | b'$GNGSA,A,3,37,32' |
016: 2c32 392c 3230 2c32 332c 3335 2c2c 2c2c  | b',29,20,23,35,,,,' |
032: 2c2c 2c31 2e30 302c 302e 3536 2c30 2e38  | b',,,1.00,0.56,0.8' |
048: 332c 342a 3036 0d0a                      | b'3,4*06\r\n' |
<NMEA(GPGSV, numMsg=3, msgNum=1, numSV=10, svid_01=10, elv_01=61.0, az_01=312, cno_01=52, svid_02=12, elv_02=13.0, az_02=118, cno_02=40, svid_03=15, elv_03=23.0, az_03=76, cno_03=44, svid_04=18, elv_04=27.0, az_04=189, cno_04=43, signalID=1)>000: 2447 5047 5356 2c33 2c31 2c31 302c 3130  | b'$GPGSV,3,1,10,10' |
016: 2c36 312c 3331 322c 3532 2c31 322c 3133  | b',61,312,52,12,13' |
032: 2c31 3138 2c34 302c 3135 2c32 332c 3037  | b',118,40,15,23,07' |
048: 362c 3434 2c31 382c 3237 2c31 3839 2c34  | b'6,44,18,27,189,4' |
064: 332c 312a 3634 0d0a                      | b'3,1*64\r\n' |
<NMEA(GPGSV, numMsg=3, msgNum=2, numSV=10, svid_01=21, elv_01=8.0, az_01=327, cno_01=40, svid_02=23, elv_02=76.0, az_02=112, cno_02=49, svid_03=24, elv_03=54.0, az_03=66, cno_03=48, svid_04=32, elv_04=32.0, az_04=265, cno_04=46, signalID=1)>000: 2447 5047 5356 2c33 2c32 2c31 302c 3231  | b'$GPGSV,3,2,10,21' |
016: 2c30 382c 3332 372c 3430 2c32 332c 3736  | b',08,327,40,23,76' |
032: 2c31 3132 2c34 392c 3234 2c35 342c 3036  | b',112,49,24,54,06' |
048: 362c 3438 2c33 322c 3332 2c32 3635 2c34  | b'6,48,32,32,265,4' |
064: 362c 312a 3641 0d0a                      | b'6,1*6A\r\n' |
<NMEA(GPGSV, numMsg=3, msgNum=3, numSV=10, svid_01=44, elv_01=23.0, az_01=235, cno_01=44, svid_02=46, elv_02=15.0, az_02=246, cno_02=42, signalID=1)>000: 2447 5047 5356 2c33 2c33 2c31 302c 3434  | b'$GPGSV,3,3,10,44' |
016: 2c32 332c 3233 352c 3434 2c34 362c 3135  | b',23,235,44,46,15' |
032: 2c32 3436 2c34 322c 312a 3630 0d0a       | b',246,42,1*60\r\n' |
<NMEA(GPGSV, numMsg=2, msgNum=1, numSV=8, svid_01=10, elv_01=61.0, az_01=312, cno_01=42, svid_02=12, elv_02=13.0, az_02=118, cno_02=33, svid_03=15, elv_03=23.0, az_03=76, cno_03=36, svid_04=18, elv_04=27.0, az_04=189, cno_04=38, signalID=6)>000: 2447 5047 5356 2c32 2c31 2c30 382c 3130  | b'$GPGSV,2,1,08,10' |
016: 2c36 312c 3331 322c 3432 2c31 322c 3133  | b',61,312,42,12,13' |
032: 2c31 3138 2c33 332c 3135 2c32 332c 3037  | b',118,33,15,23,07' |
048: 362c 3336 2c31 382c 3237 2c31 3839 2c33  | b'6,36,18,27,189,3' |
064: 382c 362a 3637 0d0a                      | b'8,6*67\r\n' |
<NMEA(GPGSV, numMsg=2, msgNum=2, numSV=8, svid_01=23, elv_01=76.0, az_01=112, cno_01=44, svid_02=24, elv_02=54.0, az_02=66, cno_02=42, svid_03=28, elv_03=2.0, az_03=211, cno_03=31, svid_04=32, elv_04=32.0, az_04=265, cno_04=40, signalID=6)>000: 2447 5047 5356 2c32 2c32 2c30 382c 3233  | b'$GPGSV,2,2,08,23' |
016: 2c37 362c 3131 322c 3434 2c32 342c 3534  | b',76,112,44,24,54' |
032: 2c30 3636 2c34 322c 3238 2c30 322c 3231  | b',066,42,28,02,21' |
048: 312c 3331 2c33 322c 3332 2c32 3635 2c34  | b'1,31,32,32,265,4' |
064: 302c 362a 3635 0d0a                      | b'0,6*65\r\n' |
<NMEA(GPGSV, numMsg=2, msgNum=1, numSV=5, svid_01=2, elv_01=2.0, az_01=332, cno_01=, svid_02=8, elv_02=1.0, az_02=302, cno_02=, svid_03=22, elv_03=2.0, az_03=24, cno_03=, svid_04=25, elv_04=2.0, az_04=155, cno_04=, signalID=0)>000: 2447 5047 5356 2c32 2c31 2c30 352c 3032  | b'$GPGSV,2,1,05,02' |
016: 2c30 322c 3333 322c 2c30 382c 3031 2c33  | b',02,332,,08,01,3' |
032: 3032 2c2c 3232 2c30 322c 3032 342c 2c32  | b'02,,22,02,024,,2' |
048: 352c 3032 2c31 3535 2c2c 302a 3639 0d0a  | b'5,02,155,,0*69\r\n' |
<NMEA(GPGSV, numMsg=2, msgNum=2, numSV=5, svid_01=25, elv_01=2.0, az_01=155, cno_01=, signalID=0)>000: 2447 5047 5356 2c32 2c32 2c30 352c 3235  | b'$GPGSV,2,2,05,25' |
016: 2c30 322c 3135 352c 2c30 2a35 340d 0a    | b',02,155,,0*54\r\n' |
<NMEA(GLGSV, numMsg=3, msgNum=1, numSV=10, svid_01=69, elv_01=14.0, az_01=83, cno_01=45, svid_02=70, elv_02=62.0, az_02=24, cno_02=41, svid_03=71, elv_03=38.0, az_03=301, cno_03=51, svid_04=73, elv_04=18.0, az_04=160, cno_04=44, signalID=1)>000: 2447 4c47 5356 2c33 2c31 2c31 302c 3639  | b'$GLGSV,3,1,10,69' |
016: 2c31 342c 3038 332c 3435 2c37 302c 3632  | b',14,083,45,70,62' |
032: 2c30 3234 2c34 312c 3731 2c33 382c 3330  | b',024,41,71,38,30' |
048: 312c 3531 2c37 332c 3138 2c31 3630 2c34  | b'1,51,73,18,160,4' |
064: 342c 312a 3741 0d0a                      | b'4,1*7A\r\n' |
<NMEA(GLGSV, numMsg=3, msgNum=2, numSV=10, svid_01=79, elv_01=26.0, az_01=37, cno_01=47, svid_02=80, elv_02=46.0, az_02=102, cno_02=51, svid_03=85, elv_03=24.0, az_03=227, cno_03=47, svid_04=86, elv_04=38.0, az_04=282, cno_04=49, signalID=1)>000: 2447 4c47 5356 2c33 2c32 2c31 302c 3739  | b'$GLGSV,3,2,10,79' |
016: 2c32 362c 3033 372c 3437 2c38 302c 3436  | b',26,037,47,80,46' |
032: 2c31 3032 2c35 312c 3835 2c32 342c 3232  | b',102,51,85,24,22' |
048: 372c 3437 2c38 362c 3338 2c32 3832 2c34  | b'7,47,86,38,282,4' |
064: 392c 312a 3737 0d0a                      | b'9,1*77\r\n' |
<NMEA(GLGSV, numMsg=3, msgNum=3, numSV=10, svid_01=87, elv_01=14.0, az_01=337, cno_01=44, svid_02=, elv_02=, az_02=, cno_02=47, signalID=1)>000: 2447 4c47 5356 2c33 2c33 2c31 302c 3837  | b'$GLGSV,3,3,10,87' |
016: 2c31 342c 3333 372c 3434 2c2c 2c2c 3437  | b',14,337,44,,,,47' |
032: 2c31 2a34 370d 0a                        | b',1*47\r\n' |
<NMEA(GLGSV, numMsg=2, msgNum=1, numSV=6, svid_01=69, elv_01=14.0, az_01=83, cno_01=33, svid_02=71, elv_02=38.0, az_02=301, cno_02=35, svid_03=73, elv_03=18.0, az_03=160, cno_03=34, svid_04=79, elv_04=26.0, az_04=37, cno_04=35, signalID=3)>000: 2447 4c47 5356 2c32 2c31 2c30 362c 3639  | b'$GLGSV,2,1,06,69' |
016: 2c31 342c 3038 332c 3333 2c37 312c 3338  | b',14,083,33,71,38' |
032: 2c33 3031 2c33 352c 3733 2c31 382c 3136  | b',301,35,73,18,16' |
048: 302c 3334 2c37 392c 3236 2c30 3337 2c33  | b'0,34,79,26,037,3' |
064: 352c 332a 3732 0d0a                      | b'5,3*72\r\n' |
<NMEA(GLGSV, numMsg=2, msgNum=2, numSV=6, svid_01=80, elv_01=46.0, az_01=102, cno_01=38, svid_02=85, elv_02=24.0, az_02=227, cno_02=35, signalID=3)>000: 2447 4c47 5356 2c32 2c32 2c30 362c 3830  | b'$GLGSV,2,2,06,80' |
016: 2c34 362c 3130 322c 3338 2c38 352c 3234  | b',46,102,38,85,24' |
032: 2c32 3237 2c33 352c 332a 3734 0d0a       | b',227,35,3*74\r\n' |
<NMEA(GLGSV, numMsg=1, msgNum=1, numSV=1, svid_01=94, elv_01=1.0, az_01=34, cno_01=, signalID=0)>000: 2447 4c47 5356 2c31 2c31 2c30 312c 3934  | b'$GLGSV,1,1,01,94' |
016: 2c30 312c 3033 342c 2c30 2a34 330d 0a    | b',01,034,,0*43\r\n' |
<NMEA(GAGSV, numMsg=2, msgNum=2, numSV=7, svid_01=31, elv_01=21.0, az_01=109, cno_01=36, svid_02=34, elv_02=41.0, az_02=297, cno_02=41, svid_03=36, elv_03=45.0, az_03=220, cno_03=41, signalID=2)>000: 2447 4147 5356 2c32 2c32 2c30 372c 3331  | b'$GAGSV,2,2,07,31' |
016: 2c32 312c 3130 392c 3336 2c33 342c 3431  | b',21,109,36,34,41' |
032: 2c32 3937 2c34 312c 3336 2c34 352c 3232  | b',297,41,36,45,22' |
048: 302c 3431 2c32 2a34 370d 0a              | b'0,41,2*47\r\n' |
<NMEA(GAGSV, numMsg=2, msgNum=1, numSV=7, svid_01=4, elv_01=24.0, az_01=69, cno_01=42, svid_02=5, elv_02=44.0, az_02=269, cno_02=45, svid_03=9, elv_03=72.0, az_03=31, cno_03=49, svid_04=11, elv_04=12.0, az_04=178, cno_04=35, signalID=7)>000: 2447 4147 5356 2c32 2c31 2c30 372c 3034  | b'$GAGSV,2,1,07,04' |
016: 2c32 342c 3036 392c 3432 2c30 352c 3434  | b',24,069,42,05,44' |
032: 2c32 3639 2c34 352c 3039 2c37 322c 3033  | b',269,45,09,72,03' |
048: 312c 3439 2c31 312c 3132 2c31 3738 2c33  | b'1,49,11,12,178,3' |
064: 352c 372a 3744 0d0a                      | b'5,7*7D\r\n' |
<NMEA(GAGSV, numMsg=2, msgNum=2, numSV=7, svid_01=31, elv_01=21.0, az_01=109, cno_01=40, svid_02=34, elv_02=41.0, az_02=297, cno_02=45, svid_03=36, elv_03=45.0, az_03=220, cno_03=46, signalID=7)>000: 2447 4147 5356 2c32 2c32 2c30 372c 3331  | b'$GAGSV,2,2,07,31' |
016: 2c32 312c 3130 392c 3430 2c33 342c 3431  | b',21,109,40,34,41' |
032: 2c32 3937 2c34 352c 3336 2c34 352c 3232  | b',297,45,36,45,22' |
048: 302c 3436 2c37 2a34 300d 0a              | b'0,46,7*40\r\n' |
<NMEA(GAGSV, numMsg=1, msgNum=1, numSV=2, svid_01=15, elv_01=4.0, az_01=333, cno_01=, svid_02=24, elv_02=4.0, az_02=154, cno_02=, signalID=0)>000: 2447 4147 5356 2c31 2c31 2c30 322c 3135  | b'$GAGSV,1,1,02,15' |
016: 2c30 342c 3333 332c 2c32 342c 3034 2c31  | b',04,333,,24,04,1' |
032: 3534 2c2c 302a 3737 0d0a                 | b'54,,0*77\r\n' |
<NMEA(GBGSV, numMsg=2, msgNum=2, numSV=8, svid_01=30, elv_01=8.0, az_01=215, cno_01=39, svid_02=32, elv_02=58.0, az_02=80, cno_02=50, svid_03=35, elv_03=10.0, az_03=321, cno_03=41, svid_04=37, elv_04=40.0, az_04=149, cno_04=47, signalID=1)>000: 2447 4247 5356 2c32 2c32 2c30 382c 3330  | b'$GBGSV,2,2,08,30' |
016: 2c30 382c 3231 352c 3339 2c33 322c 3538  | b',08,215,39,32,58' |
032: 2c30 3830 2c35 302c 3335 2c31 302c 3332  | b',080,50,35,10,32' |
048: 312c 3431 2c33 372c 3430 2c31 3439 2c34  | b'1,41,37,40,149,4' |
064: 372c 312a 3735 0d0a                      | b'7,1*75\r\n' |
<NMEA(GBGSV, numMsg=1, msgNum=1, numSV=1, svid_01=19, elv_01=10.0, az_01=288, cno_01=, signalID=0)>000: 2447 4247 5356 2c31 2c31 2c30 312c 3139  | b'$GBGSV,1,1,01,19' |
016: 2c31 302c 3238 382c 2c30 2a34 440d 0a    | b',10,288,,0*4D\r\n' |
<NMEA(GNGLL, lat=43.8828267783, NS=N, lon=-72.1582829717, EW=W, time=19:22:06, status=A, posMode=D)>000: 2447 4e47 4c4c 2c34 3335 322e 3936 3936  | b'$GNGLL,4352.9696' |
016: 3036 372c 4e2c 3037 3230 392e 3439 3639  | b'067,N,07209.4969' |
