<NMEA(GLGSV, numMsg=3, msgNum=1, numSV=10, svid_01=69, elv_01=13.0, az_01=84, cno_01=44, svid_02=70, elv_02=62.0, az_02=26, cno_02=41, svid_03=71, elv_03=38.0, az_03=302, cno_03=50, svid_04=73, elv_04=19.0, az_04=160, cno_04=43, signalID=1)>000: 2447 4c47 5356 2c33 2c31 2c31 302c 3639  | b'$GLGSV,3,1,10,69' |
016: 2c31 332c 3038 342c 3434 2c37 302c 3632  | b',13,084,44,70,62' |
032: 2c30 3236 2c34 312c 3731 2c33 382c 3330  | b',026,41,71,38,30' |
048: 322c 3530 2c37 332c 3139 2c31 3630 2c34  | b'2,50,73,19,160,4' |
064: 332c 312a 3744 0d0a                      | b'3,1*7D\r\n' |
<NMEA(GLGSV, numMsg=3, msgNum=2, numSV=10, svid_01=79, elv_01=25.0, az_01=36, cno_01=45, svid_02=80, elv_02=46.0, az_02=100, cno_02=50, svid_03=85, elv_03=23.0, az_03=226, cno_03=46, svid_04=86, elv_04=38.0, az_04=281, cno_04=49, signalID=1)>000: 2447 4c47 5356 2c33 2c32 2c31 302c 3739  | b'$GLGSV,3,2,10,79' |
016: 2c32 352c 3033 362c 3435 2c38 302c 3436  | b',25,036,45,80,46' |
032: 2c31 3030 2c35 302c 3835 2c32 332c 3232  | b',100,50,85,23,22' |
048: 362c 3436 2c38 362c 3338 2c32 3831 2c34  | b'6,46,86,38,281,4' |
064: 392c 312a 3730 0d0a                      | b'9,1*70\r\n' |
<NMEA(GLGSV, numMsg=3, msgNum=3, numSV=10, svid_01=87, elv_01=15.0, az_01=337, cno_01=42, svid_02=, elv_02=, az_02=, cno_02=47, signalID=1)>000: 2447 4c47 5356 2c33 2c33 2c31 302c 3837  | b'$GLGSV,3,3,10,87' |
016: 2c31 352c 3333 372c 3432 2c2c 2c2c 3437  | b',15,337,42,,,,47' |
032: 2c31 2a34 300d 0a                        | b',1*40\r\n' |
<NMEA(GLGSV, numMsg=2, msgNum=1, numSV=6, svid_01=69, elv_01=13.0, az_01=84, cno_01=31, svid_02=71, elv_02=38.0, az_02=302, cno_02=34, svid_03=73, elv_03=19.0, az_03=160, cno_03=35, svid_04=79, elv_04=25.0, az_04=36, cno_04=35, signalID=3)>000: 2447 4c47 5356 2c32 2c31 2c30 362c 3639  | b'$GLGSV,2,1,06,69' |
016: 2c31 332c 3038 342c 3331 2c37 312c 3338  | b',13,084,31,71,38' |
032: 2c33 3032 2c33 342c 3733 2c31 392c 3136  | b',302,34,73,19,16' |
048: 302c 3335 2c37 392c 3235 2c30 3336 2c33  | b'0,35,79,25,036,3' |
064: 352c 332a 3730 0d0a                      | b'5,3*70\r\n' |
<NMEA(GLGSV, numMsg=2, msgNum=2, numSV=6, svid_01=80, elv_01=46.0, az_01=100, cno_01=37, svid_02=85, elv_02=23.0, az_02=226, cno_02=36, signalID=3)>000: 2447 4c47 5356 2c32 2c32 2c30 362c 3830  | b'$GLGSV,2,2,06,80' |
016: 2c34 362c 3130 302c 3337 2c38 352c 3233  | b',46,100,37,85,23' |
032: 2c32 3236 2c33 362c 332a 3743 0d0a       | b',226,36,3*7C\r\n' |
<NMEA(GLGSV, numMsg=1, msgNum=1, numSV=1, svid_01=94, elv_01=0.0, az_01=34, cno_01=, signalID=0)>000: 2447 4c47 5356 2c31 2c31 2c30 312c 3934  | b'$GLGSV,1,1,01,94' |
016: 2c30 302c 3033 342c 2c30 2a34 320d 0a    | b',00,034,,0*42\r\n' |
<NMEA(GAGSV, numMsg=2, msgNum=1, numSV=8, svid_01=4, elv_01=24.0, az_01=69, cno_01=36, svid_02=5, elv_02=44.0, az_02=269, cno_02=42, svid_03=9, elv_03=72.0, az_03=31, cno_03=42, svid_04=11, elv_04=12.0, az_04=178, cno_04=28, signalID=2)>000: 2447 4147 5356 2c32 2c31 2c30 382c 3034  | b'$GAGSV,2,1,08,04' |
016: 2c32 342c 3036 392c 3336 2c30 352c 3434  | b',24,069,36,05,44' |
032: 2c32 3639 2c34 322c 3039 2c37 322c 3033  | b',269,42,09,72,03' |
048: 312c 3432 2c31 312c 3132 2c31 3738 2c32  | b'1,42,11,12,178,2' |
064: 382c 322a 3734 0d0a                      | b'8,2*74\r\n' |
<NMEA(GAGSV, numMsg=2, msgNum=2, numSV=8, svid_01=24, elv_01=4.0, az_01=154, cno_01=28, svid_02=31, elv_02=21.0, az_02=109, cno_02=35, svid_03=34, elv_03=41.0, az_03=296, cno_03=40, svid_04=36, elv_04=45.0, az_04=220, cno_04=41, signalID=2)>000: 2447 4147 5356 2c32 2c32 2c30 382c 3234  | b'$GAGSV,2,2,08,24' |
016: 2c30 342c 3135 342c 3238 2c33 312c 3231  | b',04,154,28,31,21' |
032: 2c31 3039 2c33 352c 3334 2c34 312c 3239  | b',109,35,34,41,29' |
048: 362c 3430 2c33 362c 3435 2c32 3230 2c34  | b'6,40,36,45,220,4' |
064: 312c 322a 3733 0d0a                      | b'1,2*73\r\n' |
<NMEA(GAGSV, numMsg=2, msgNum=1, numSV=8, svid_01=4, elv_01=24.0, az_01=69, cno_01=42, svid_02=5, elv_02=44.0, az_02=269, cno_02=46, svid_03=9, elv_03=72.0, az_03=31, cno_03=49, svid_04=11, elv_04=12.0, az_04=178, cno_04=34, signalID=7)>000: 2447 4147 5356 2c32 2c31 2c30 382c 3034  | b'$GAGSV,2,1,08,04' |
016: 2c32 342c 3036 392c 3432 2c30 352c 3434  | b',24,069,42,05,44' |
032: 2c32 3639 2c34 362c 3039 2c37 322c 3033  | b',269,46,09,72,03' |
048: 312c 3439 2c31 312c 3132 2c31 3738 2c33  | b'1,49,11,12,178,3' |
064: 342c 372a 3730 0d0a                      | b'4,7*70\r\n' |
<NMEA(GAGSV, numMsg=2, msgNum=2, numSV=8, svid_01=24, elv_01=4.0, az_01=154, cno_01=34, svid_02=31, elv_02=21.0, az_02=109, cno_02=41, svid_03=34, elv_03=41.0, az_03=296, cno_03=46, svid_04=36, elv_04=45.0, az_04=220, cno_04=46, signalID=7)>000: 2447 4147 5356 2c32 2c32 2c30 382c 3234  | b'$GAGSV,2,2,08,24' |
016: 2c30 342c 3135 342c 3334 2c33 312c 3231  | b',04,154,34,31,21' |
032: 2c31 3039 2c34 312c 3334 2c34 312c 3239  | b',109,41,34,41,29' |
048: 362c 3436 2c33 362c 3435 2c32 3230 2c34  | b'6,46,36,45,220,4' |
064: 362c 372a 3739 0d0a                      | b'6,7*79\r\n' |
<NMEA(GAGSV, numMsg=1, msgNum=1, numSV=1, svid_01=15, elv_01=4.0, az_01=333, cno_01=, signalID=0)>000: 2447 4147 5356 2c31 2c31 2c30 312c 3135  | b'$GAGSV,1,1,01,15' |
016: 2c30 342c 3333 332c 2c30 2a34 360d 0a    | b',04,333,,0*46\r\n' |
<NMEA(GBGSV, numMsg=2, msgNum=1, numSV=8, svid_01=20, elv_01=57.0, az_01=306, cno_01=52, svid_02=23, elv_02=41.0, az_02=74, cno_02=49, svid_03=25, elv_03=9.0, az_03=35, cno_03=42, svid_04=29, elv_04=21.0, az_04=266, cno_04=44, signalID=1)>000: 2447 4247 5356 2c32 2c31 2c30 382c 3230  | b'$GBGSV,2,1,08,20' |
016: 2c35 372c 3330 362c 3532 2c32 332c 3431  | b',57,306,52,23,41' |
032: 2c30 3734 2c34 392c 3235 2c30 392c 3033  | b',074,49,25,09,03' |
048: 352c 3432 2c32 392c 3231 2c32 3636 2c34  | b'5,42,29,21,266,4' |
064: 342c 312a 3731 0d0a                      | b'4,1*71\r\n' |
<NMEA(GBGSV, numMsg=2, msgNum=2, numSV=8, svid_01=30, elv_01=7.0, az_01=215, cno_01=39, svid_02=32, elv_02=57.0, az_02=81, cno_02=51, svid_03=35, elv_03=10.0, az_03=320, cno_03=41, svid_04=37, elv_04=40.0, az_04=149, cno_04=47, signalID=1)>000: 2447 4247 5356 2c32 2c32 2c30 382c 3330  | b'$GBGSV,2,2,08,30' |
016: 2c30 372c 3231 352c 3339 2c33 322c 3537  | b',07,215,39,32,57' |
032: 2c30 3831 2c35 312c 3335 2c31 302c 3332  | b',081,51,35,10,32' |
048: 302c 3431 2c33 372c 3430 2c31 3439 2c34  | b'0,41,37,40,149,4' |
064: 372c 312a 3734 0d0a                      | b'7,1*74\r\n' |
<NMEA(GBGSV, numMsg=1, msgNum=1, numSV=3, svid_01=25, elv_01=9.0, az_01=35, cno_01=9, svid_02=30, elv_02=7.0, az_02=215, cno_02=9, svid_03=37, elv_03=40.0, az_03=149, cno_03=8, signalID=3)>000: 2447 4247 5356 2c31 2c31 2c30 332c 3235  | b'$GBGSV,1,1,03,25' |
016: 2c30 392c 3033 352c 3039 2c33 302c 3037  | b',09,035,09,30,07' |
032: 2c32 3135 2c30 392c 3337 2c34 302c 3134  | b',215,09,37,40,14' |
048: 392c 3038 2c33 2a34 390d 0a              | b'9,08,3*49\r\n' |
<NMEA(GBGSV, numMsg=1, msgNum=1, numSV=1, svid_01=19, elv_01=10.0, az_01=288, cno_01=, signalID=0)>000: 2447 4247 5356 2c31 2c31 2c30 312c 3139  | b'$GBGSV,1,1,01,19' |
016: 2c31 302c 3238 382c 2c30 2a34 440d 0a    | b',10,288,,0*4D\r\n' |
<NMEA(GNGLL, lat=43.8828267583, NS=N, lon=-72.15828291, EW=W, time=19:23:02.750000, status=A, posMode=D)>000: 2447 4e47 4c4c 2c34 3335 322e 3936 3936  | b'$GNGLL,4352.9696' |
016: 3035 352c 4e2c 3037 3230 392e 3439 3639  | b'055,N,07209.4969' |
032: 3734 362c 572c 3139 3233 3032 2e37 352c  | b'746,W,192302.75,' |
048: 412c 442a 3632 0d0a                      | b'A,D*62\r\n' |
<NMEA(GNRMC, time=19:23:03, status=A, lat=43.8828267517, NS=N, lon=-72.1582829017, EW=W, spd=0.006, cog=, date=2023-09-05, mv=, mvEW=, posMode=R, navStatus=V)>000: 2447 4e52 4d43 2c31 3932 3330 332e 3030  | b'$GNRMC,192303.00' |
016: 2c41 2c34 3335 322e 3936 3936 3035 312c  | b',A,4352.9696051,' |
032: 4e2c 3037 3230 392e 3439 3639 3734 312c  | b'N,07209.4969741,' |
048: 572c 302e 3030 362c 2c30 3530 3932 332c  | b'W,0.006,,050923,' |
064: 2c2c 522c 562a 3143 0d0a                 | b',,R,V*1C\r\n' |
<NMEA(GNVTG, cogt=, cogtUnit=T, cogm=, cogmUnit=M, sogn=0.006, sognUnit=N, sogk=0.011, sogkUnit=K, posMode=D)>000: 2447 4e56 5447 2c2c 542c 2c4d 2c30 2e30  | b'$GNVTG,,T,,M,0.0' |
016: 3036 2c4e 2c30 2e30 3131 2c4b 2c44 2a33  | b'06,N,0.011,K,D*3' |
032: 450d 0a                                  | b'E\r\n' |
<NMEA(GNGGA, time=19:23:03, lat=43.8828267517, NS=N, lon=-72.1582829017, EW=W, quality=4, numSV=12, HDOP=0.57, alt=143.12, altUnit=M, sep=-32.547, sepUnit=M, diffAge=, diffStation=0)>000: 2447 4e47 4741 2c31 3932 3330 332e 3030  | b'$GNGGA,192303.00' |
016: 2c34 3335 322e 3936 3936 3035 312c 4e2c  | b',4352.9696051,N,' |
032: 3037 3230 392e 3439 3639 3734 312c 572c  | b'07209.4969741,W,' |
048: 342c 3132 2c30 2e35 372c 3134 332e 3132  | b'4,12,0.57,143.12' |
064: 302c 4d2c 2d33 322e 3534 372c 4d2c 2c30  | b'0,M,-32.547,M,,0' |
080: 3030 302a 3739 0d0a                      | b'000*79\r\n' |
<NMEA(GNGSA, opMode=A, navMode=3, svid_01=46, svid_02=44, svid_03=24, svid_04=18, svid_05=10, svid_06=12, svid_07=23, svid_08=15, svid_09=32, svid_10=, svid_11=, svid_12=, PDOP=1.05, HDOP=0.57, VDOP=0.88, systemId=1)>000: 2447 4e47 5341 2c41 2c33 2c34 362c 3434  | b'$GNGSA,A,3,46,44' |
016: 2c32 342c 3138 2c31 302c 3132 2c32 332c  | b',24,18,10,12,23,' |
032: 3135 2c33 322c 2c2c 2c31 2e30 352c 302e  | b'15,32,,,,1.05,0.' |
048: 3537 2c30 2e38 382c 312a 3043 0d0a       | b'57,0.88,1*0C\r\n' |
<NMEA(GNGSA, opMode=A, navMode=3, svid_01=69, svid_02=87, svid_03=85, svid_04=80, svid_05=71, svid_06=73, svid_07=70, svid_08=79, svid_09=, svid_10=, svid_11=, svid_12=, PDOP=1.05, HDOP=0.57, VDOP=0.88, systemId=2)>000: 2447 4e47 5341 2c41 2c33 2c36 392c 3837  | b'$GNGSA,A,3,69,87' |
016: 2c38 352c 3830 2c37 312c 3733 2c37 302c  | b',85,80,71,73,70,' |
032: 3739 2c2c 2c2c 2c31 2e30 352c 302e 3537  | b'79,,,,,1.05,0.57' |
048: 2c30 2e38 382c 322a 3041 0d0a            | b',0.88,2*0A\r\n' |
<NMEA(GNGSA, opMode=A, navMode=3, svid_01=36, svid_02=5, svid_03=31, svid_04=34, svid_05=4, svid_06=11, svid_07=9, svid_08=, svid_09=, svid_10=, svid_11=, svid_12=, PDOP=1.05, HDOP=0.57, VDOP=0.88, systemId=3)>000: 2447 4e47 5341 2c41 2c33 2c33 362c 3035  | b'$GNGSA,A,3,36,05' |
016: 2c33 312c 3334 2c30 342c 3131 2c30 392c  | b',31,34,04,11,09,' |
032: 2c2c 2c2c 2c31 2e30 352c 302e 3537 2c30  | b',,,,,1.05,0.57,0' |
048: 2e38 382c 332a 3044 0d0a                 | b'.88,3*0D\r\n' |
<NMEA(GPGSV, numMsg=3, msgNum=2, numSV=11, svid_01=21, elv_01=9.0, az_01=326, cno_01=39, svid_02=23, elv_02=76.0, az_02=112, cno_02=49, svid_03=24, elv_03=54.0, az_03=66, cno_03=48, svid_04=28, elv_04=2.0, az_04=211, cno_04=36, signalID=1)>000: 2447 5047 5356 2c33 2c32 2c31 312c 3231  | b'$GPGSV,3,2,11,21' |
016: 2c30 392c 3332 362c 3339 2c32 332c 3736  | b',09,326,39,23,76' |
032: 2c31 3132 2c34 392c 3234 2c35 342c 3036  | b',112,49,24,54,06' |
048: 362c 3438 2c32 382c 3032 2c32 3131 2c33  | b'6,48,28,02,211,3' |
064: 362c 312a 3639 0d0a                      | b'6,1*69\r\n' |
<NMEA(GPGSV, numMsg=3, msgNum=3, numSV=11, svid_01=32, elv_01=32.0, az_01=265, cno_01=47, svid_02=44, elv_02=23.0, az_02=235, cno_02=43, svid_03=46, elv_03=15.0, az_03=246, cno_03=41, signalID=1)>000: 2447 5047 5356 2c33 2c33 2c31 312c 3332  | b'$GPGSV,3,3,11,32' |
016: 2c33 322c 3236 352c 3437 2c34 342c 3233  | b',32,265,47,44,23' |
032: 2c32 3335 2c34 332c 3436 2c31 352c 3234  | b',235,43,46,15,24' |
048: 362c 3431 2c31 2a35 370d 0a              | b'6,41,1*57\r\n' |
<NMEA(GPGSV, numMsg=2, msgNum=1, numSV=8, svid_01=10, elv_01=62.0, az_01=312, cno_01=42, svid_02=12, elv_02=14.0, az_02=118, cno_02=33, svid_03=15, elv_03=23.0, az_03=76, cno_03=35, svid_04=18, elv_04=26.0, az_04=189, cno_04=38, signalID=6)>000: 2447 5047 5356 2c32 2c31 2c30 382c 3130  | b'$GPGSV,2,1,08,10' |
016: 2c36 322c 3331 322c 3432 2c31 322c 3134  | b',62,312,42,12,14' |
032: 2c31 3138 2c33 332c 3135 2c32 332c 3037  | b',118,33,15,23,07' |
048: 362c 3335 2c31 382c 3236 2c31 3839 2c33  | b'6,35,18,26,189,3' |
064: 382c 362a 3631 0d0a                      | b'8,6*61\r\n' |
<NMEA(GPGSV, numMsg=2, msgNum=2, numSV=8, svid_01=23, elv_01=76.0, az_01=112, cno_01=44, svid_02=24, elv_02=54.0, az_02=66, cno_02=42, svid_03=28, elv_03=2.0, az_03=211, cno_03=34, svid_04=32, elv_04=32.0, az_04=265, cno_04=40, signalID=6)>000: 2447 5047 5356 2c32 2c32 2c30 382c 3233  | b'$GPGSV,2,2,08,23' |
016: 2c37 362c 3131 322c 3434 2c32 342c 3534  | b',76,112,44,24,54' |
032: 2c30 3636 2c34 322c 3238 2c30 322c 3231  | b',066,42,28,02,21' |
048: 312c 3334 2c33 322c 3332 2c32 3635 2c34  | b'1,34,32,32,265,4' |
064: 302c 362a 3630 0d0a                      | b'0,6*60\r\n' |
<NMEA(GPGSV, numMsg=2, msgNum=1, numSV=5, svid_01=2, elv_01=2.0, az_01=332, cno_01=, svid_02=8, elv_02=1.0, az_02=301, cno_02=, svid_03=22, elv_03=2.0, az_03=24, cno_03=, svid_04=25, elv_04=2.0, az_04=155, cno_04=, signalID=0)>000: 2447 5047 5356 2c32 2c31 2c30 352c 3032  | b'$GPGSV,2,1,05,02' |
016: 2c30 322c 3333 322c 2c30 382c 3031 2c33  | b',02,332,,08,01,3' |
032: 3031 2c2c 3232 2c30 322c 3032 342c 2c32  | b'01,,22,02,024,,2' |
048: 352c 3032 2c31 3535 2c2c 302a 3641 0d0a  | b'5,02,155,,0*6A\r\n' |
<NMEA(GPGSV, numMsg=2, msgNum=2, numSV=5, svid_01=25, elv_01=2.0, az_01=155, cno_01=, signalID=0)>000: 2447 5047 5356 2c32 2c32 2c30 352c 3235  | b'$GPGSV,2,2,05,25' |
016: 2c30 322c 3135 352c 2c30 2a35 340d 0a    | b',02,155,,0*54\r\n' |
<NMEA(GLGSV, numMsg=3, msgNum=2, numSV=10, svid_01=79, elv_01=25.0, az_01=36, cno_01=46, svid_02=80, elv_02=46.0, az_02=100, cno_02=50, svid_03=85, elv_03=23.0, az_03=226, cno_03=46, svid_04=86, elv_04=38.0, az_04=281, cno_04=49, signalID=1)>000: 2447 4c47 5356 2c33 2c32 2c31 302c 3739  | b'$GLGSV,3,2,10,79' |
016: 2c32 352c 3033 362c 3436 2c38 302c 3436  | b',25,036,46,80,46' |
032: 2c31 3030 2c35 302c 3835 2c32 332c 3232  | b',100,50,85,23,22' |
048: 362c 3436 2c38 362c 3338 2c32 3831 2c34  | b'6,46,86,38,281,4' |
064: 392c 312a 3733 0d0a                      | b'9,1*73\r\n' |
<NMEA(GLGSV, numMsg=3, msgNum=3, numSV=10, svid_01=87, elv_01=15.0, az_01=337, cno_01=42, svid_02=, elv_02=, az_02=, cno_02=47, signalID=1)>000: 2447 4c47 5356 2c33 2c33 2c31 302c 3837  | b'$GLGSV,3,3,10,87' |
016: 2c31 352c 3333 372c 3432 2c2c 2c2c 3437  | b',15,337,42,,,,47' |
032: 2c31 2a34 300d 0a                        | b',1*40\r\n' |
<NMEA(GLGSV, numMsg=2, msgNum=1, numSV=6, svid_01=69, elv_01=13.0, az_01=84, cno_01=31, svid_02=71, elv_02=38.0, az_02=302, cno_02=34, svid_03=73, elv_03=19.0, az_03=160, cno_03=35, svid_04=79, elv_04=25.0, az_04=36, cno_04=35, signalID=3)>000: 2447 4c47 5356 2c32 2c31 2c30 362c 3639  | b'$GLGSV,2,1,06,69' |
016: 2c31 332c 3038 342c 3331 2c37 312c 3338  | b',13,084,31,71,38' |
032: 2c33 3032 2c33 342c 3733 2c31 392c 3136  | b',302,34,73,19,16' |
048: 302c 3335 2c37 392c 3235 2c30 3336 2c33  | b'0,35,79,25,036,3' |
064: 352c 332a 3730 0d0a                      | b'5,3*70\r\n' |
<NMEA(GLGSV, numMsg=2, msgNum=2, numSV=6, svid_01=80, elv_01=46.0, az_01=100, cno_01=37, svid_02=85, elv_02=23.0, az_02=226, cno_02=36, signalID=3)>000: 2447 4c47 5356 2c32 2c32 2c30 362c 3830  | b'$GLGSV,2,2,06,80' |
016: 2c34 362c 3130 302c 3337 2c38 352c 3233  | b',46,100,37,85,23' |
032: 2c32 3236 2c33 362c 332a 3743 0d0a       | b',226,36,3*7C\r\n' |
<NMEA(GLGSV, numMsg=1, msgNum=1, numSV=1, svid_01=94, elv_01=0.0, az_01=34, cno_01=, signalID=0)>000: 2447 4c47 5356 2c31 2c31 2c30 312c 3934  | b'$GLGSV,1,1,01,94' |
016: 2c30 302c 3033 342c 2c30 2a34 320d 0a    | b',00,034,,0*42\r\n' |
<NMEA(GAGSV, numMsg=2, msgNum=1, numSV=8, svid_01=4, elv_01=24.0, az_01=69, cno_01=36, svid_02=5, elv_02=44.0, az_02=269, cno_02=42, svid_03=9, elv_03=72.0, az_03=31, cno_03=43, svid_04=11, elv_04=12.0, az_04=178, cno_04=29, signalID=2)>000: 2447 4147 5356 2c32 2c31 2c30 382c 3034  | b'$GAGSV,2,1,08,04' |
016: 2c32 342c 3036 392c 3336 2c30 352c 3434  | b',24,069,36,05,44' |
032: 2c32 3639 2c34 322c 3039 2c37 322c 3033  | b',269,42,09,72,03' |
048: 312c 3433 2c31 312c 3132 2c31 3738 2c32  | b'1,43,11,12,178,2' |
064: 392c 322a 3734 0d0a                      | b'9,2*74\r\n' |
<NMEA(GAGSV, numMsg=2, msgNum=2, numSV=8, svid_01=24, elv_01=4.0, az_01=154, cno_01=28, svid_02=31, elv_02=21.0, az_02=109, cno_02=36, svid_03=34, elv_03=41.0, az_03=296, cno_03=41, svid_04=36, elv_04=45.0, az_04=220, cno_04=41, signalID=2)>000: 2447 4147 5356 2c32 2c32 2c30 382c 3234  | b'$GAGSV,2,2,08,24' |
016: 2c30 342c 3135 342c 3238 2c33 312c 3231  | b',04,154,28,31,21' |
032: 2c31 3039 2c33 362c 3334 2c34 312c 3239  | b',109,36,34,41,29' |
048: 362c 3431 2c33 362c 3435 2c32 3230 2c34  | b'6,41,36,45,220,4' |
064: 312c 322a 3731 0d0a                      | b'1,2*71\r\n' |
<NMEA(GAGSV, numMsg=2, msgNum=1, numSV=8, svid_01=4, elv_01=24.0, az_01=69, cno_01=42, svid_02=5, elv_02=44.0, az_02=269, cno_02=46, svid_03=9, elv_03=72.0, az_03=31, cno_03=49, svid_04=11, elv_04=12.0, az_04=178, cno_04=34, signalID=7)>000: 2447 4147 5356 2c32 2c31 2c30 382c 3034  | b'$GAGSV,2,1,08,04' |
016: 2c32 342c 3036 392c 3432 2c30 352c 3434  | b',24,069,42,05,44' |
032: 2c32 3639 2c34 362c 3039 2c37 322c 3033  | b',269,46,09,72,03' |
048: 312c 3439 2c31 312c 3132 2c31 3738 2c33  | b'1,49,11,12,178,3' |
064: 342c 372a 3730 0d0a                      | b'4,7*70\r\n' |
<NMEA(GBGSV, numMsg=2, msgNum=2, numSV=8, svid_01=30, elv_01=7.0, az_01=215, cno_01=39, svid_02=32, elv_02=57.0, az_02=81, cno_02=51, svid_03=35, elv_03=10.0, az_03=320, cno_03=42, svid_04=37, elv_04=40.0, az_04=149, cno_04=47, signalID=1)>000: 2447 4247 5356 2c32 2c32 2c30 382c 3330  | b'$GBGSV,2,2,08,30' |
016: 2c30 372c 3231 352c 3339 2c33 322c 3537  | b',07,215,39,32,57' |
032: 2c30 3831 2c35 312c 3335 2c31 302c 3332  | b',081,51,35,10,32' |
048: 302c 3432 2c33 372c 3430 2c31 3439 2c34  | b'0,42,37,40,149,4' |
064: 372c 312a 3737 0d0a                      | b'7,1*77\r\n' |
<NMEA(GNGLL, lat=43.8828267517, NS=N, lon=-72.1582829017, EW=W, time=19:23:03, status=A, posMode=D)>000: 2447 4e47 4c4c 2c34 3335 322e 3936 3936  | b'$GNGLL,4352.9696' |
016: 3035 312c 4e2c 3037 3230 392e 3439 3639  | b'051,N,07209.4969' |
032: 3734 312c 572c 3139 3233 3033 2e30 302c  | b'741,W,192303.00,' |
048: 412c 442a 3632 0d0a                      | b'A,D*62\r\n' |
<NMEA(GNTXT, numMsg=1, msgNum=1, msgType=0, text=txbuf alloc)>000: 2447 4e54 5854 2c30 312c 3031 2c30 302c  | b'$GNTXT,01,01,00,' |
016: 7478 6275 6620 616c 6c6f 632a 3631 0d0a  | b'txbuf alloc*61\r\n' |
<NMEA(GNRMC, time=19:23:03.250000, status=A, lat=43.88282675, NS=N, lon=-72.158282895, EW=W, spd=0.006, cog=, date=2023-09-05, mv=, mvEW=, posMode=R, navStatus=V)>000: 2447 4e52 4d43 2c31 3932 3330 332e 3235  | b'$GNRMC,192303.25' |
016: 2c41 2c34 3335 322e 3936 3936 3035 302c  | b',A,4352.9696050,' |
032: 4e2c 3037 3230 392e 3439 3639 3733 372c  | b'N,07209.4969737,' |
048: 572c 302e 3030 362c 2c30 3530 3932 332c  | b'W,0.006,,050923,' |
064: 2c2c 522c 562a 3142 0d0a                 | b',,R,V*1B\r\n' |
<NMEA(GNVTG, cogt=, cogtUnit=T, cogm=, cogmUnit=M, sogn=0.006, sognUnit=N, sogk=0.011, sogkUnit=K, posMode=D)>000: 2447 4e56 5447 2c2c 542c 2c4d 2c30 2e30  | b'$GNVTG,,T,,M,0.0' |
016: 3036 2c4e 2c30 2e30 3131 2c4b 2c44 2a33  | b'06,N,0.011,K,D*3' |
032: 450d 0a                                  | b'E\r\n' |
<NMEA(GNGGA, time=19:23:03.250000, lat=43.88282675, NS=N, lon=-72.158282895, EW=W, quality=4, numSV=12, HDOP=0.57, alt=143.117, altUnit=M, sep=-32.547, sepUnit=M, diffAge=, diffStation=0)>000: 2447 4e47 4741 2c31 3932 3330 332e 3235  | b'$GNGGA,192303.25' |
016: 2c34 3335 322e 3936 3936 3035 302c 4e2c  | b',4352.9696050,N,' |
032: 3037 3230 392e 3439 3639 3733 372c 572c  | b'07209.4969737,W,' |
048: 342c 3132 2c30 2e35 372c 3134 332e 3131  | b'4,12,0.57,143.11' |
064: 372c 4d2c 2d33 322e 3534 372c 4d2c 2c30  | b'7,M,-32.547,M,,0' |
080: 3030 302a 3741 0d0a                      | b'000*7A\r\n' |
<NMEA(GNGSA, opMode=A, navMode=3, svid_01=46, svid_02=44, svid_03=24, svid_04=18, svid_05=10, svid_06=12, svid_07=23, svid_08=15, svid_09=32, svid_10=, svid_11=, svid_12=, PDOP=1.05, HDOP=0.57, VDOP=0.88, systemId=1)>000: 2447 4e47 5341 2c41 2c33 2c34 362c 3434  | b'$GNGSA,A,3,46,44' |
016: 2c32 342c 3138 2c31 302c 3132 2c32 332c  | b',24,18,10,12,23,' |
032: 3135 2c33 322c 2c2c 2c31 2e30 352c 302e  | b'15,32,,,,1.05,0.' |
048: 3537 2c30 2e38 382c 312a 3043 0d0a       | b'57,0.88,1*0C\r\n' |
<NMEA(GNGSA, opMode=A, navMode=3, svid_01=69, svid_02=87, svid_03=85, svid_04=80, svid_05=71, svid_06=73, svid_07=70, svid_08=79, svid_09=, svid_10=, svid_11=, svid_12=, PDOP=1.05, HDOP=0.57, VDOP=0.88, systemId=2)>000: 2447 4e47 5341 2c41 2c33 2c36 392c 3837  | b'$GNGSA,A,3,69,87' |
016: 2c38 352c 3830 2c37 312c 3733 2c37 302c  | b',85,80,71,73,70,' |
032: 3739 2c2c 2c2c 2c31 2e30 352c 302e 3537  | b'79,,,,,1.05,0.57' |
048: 2c30 2e38 382c 322a 3041 0d0a            | b',0.88,2*0A\r\n' |
<NMEA(GNGSA, opMode=A, navMode=3, svid_01=36, svid_02=5, svid_03=31, svid_04=34, svid_05=4, svid_06=11, svid_07=9, svid_08=, svid_09=, svid_10=, svid_11=, svid_12=, PDOP=1.05, HDOP=0.57, VDOP=0.88, systemId=3)>000: 2447 4e47 5341 2c41 2c33 2c33 362c 3035  | b'$GNGSA,A,3,36,05' |
016: 2c33 312c 3334 2c30 342c 3131 2c30 392c  | b',31,34,04,11,09,' |
032: 2c2c 2c2c 2c31 2e30 352c 302e 3537 2c30  | b',,,,,1.05,0.57,0' |
048: 2e38 382c 332a 3044 0d0a                 | b'.88,3*0D\r\n' |
<NMEA(GNGSA, opMode=A, navMode=3, svid_01=37, svid_02=32, svid_03=29, svid_04=20, svid_05=23, svid_06=35, svid_07=, svid_08=, svid_09=, svid_10=, svid_11=, svid_12=, PDOP=1.05, HDOP=0.57, VDOP=0.88, systemId=4)>000: 2447 4e47 5341 2c41 2c33 2c33 372c 3332  | b'$GNGSA,A,3,37,32' |
016: 2c32 392c 3230 2c32 332c 3335 2c2c 2c2c  | b',29,20,23,35,,,,' |
032: 2c2c 2c31 2e30 352c 302e 3537 2c30 2e38  | b',,,1.05,0.57,0.8' |
048: 382c 342a 3039 0d0a                      | b'8,4*09\r\n' |
<NMEA(GPGSV, numMsg=3, msgNum=1, numSV=11, svid_01=10, elv_01=62.0, az_01=312, cno_01=51, svid_02=12, elv_02=14.0, az_02=118, cno_02=41, svid_03=15, elv_03=23.0, az_03=76, cno_03=42, svid_04=18, elv_04=26.0, az_04=189, cno_04=43, signalID=1)>000: 2447 5047 5356 2c33 2c31 2c31 312c 3130  | b'$GPGSV,3,1,11,10' |
016: 2c36 322c 3331 322c 3531 2c31 322c 3134  | b',62,312,51,12,14' |
032: 2c31 3138 2c34 312c 3135 2c32 332c 3037  | b',118,41,15,23,07' |
048: 362c 3432 2c31 382c 3236 2c31 3839 2c34  | b'6,42,18,26,189,4' |
064: 332c 312a 3634 0d0a                      | b'3,1*64\r\n' |
<NMEA(GPGSV, numMsg=3, msgNum=2, numSV=11, svid_01=21, elv_01=9.0, az_01=326, cno_01=39, svid_02=23, elv_02=76.0, az_02=112, cno_02=49, svid_03=24, elv_03=54.0, az_03=66, cno_03=48, svid_04=28, elv_04=2.0, az_04=211, cno_04=36, signalID=1)>000: 2447 5047 5356 2c33 2c32 2c31 312c 3231  | b'$GPGSV,3,2,11,21' |
016: 2c30 392c 3332 362c 3339 2c32 332c 3736  | b',09,326,39,23,76' |
032: 2c31 3132 2c34 392c 3234 2c35 342c 3036  | b',112,49,24,54,06' |
048: 362c 3438 2c32 382c 3032 2c32 3131 2c33  | b'6,48,28,02,211,3' |
064: 362c 312a 3639 0d0a                      | b'6,1*69\r\n' |
<NMEA(GPGSV, numMsg=3, msgNum=3, numSV=11, svid_01=32, elv_01=32.0, az_01=265, cno_01=47, svid_02=44, elv_02=23.0, az_02=235, cno_02=43, svid_03=46, elv_03=15.0, az_03=246, cno_03=41, signalID=1)>000: 2447 5047 5356 2c33 2c33 2c31 312c 3332  | b'$GPGSV,3,3,11,32' |
016: 2c33 322c 3236 352c 3437 2c34 342c 3233  | b',32,265,47,44,23' |
032: 2c32 3335 2c34 332c 3436 2c31 352c 3234  | b',235,43,46,15,24' |
048: 362c 3431 2c31 2a35 370d 0a              | b'6,41,1*57\r\n' |
<NMEA(GPGSV, numMsg=2, msgNum=1, numSV=8, svid_01=10, elv_01=62.0, az_01=312, cno_01=42, svid_02=12, elv_02=14.0, az_02=118, cno_02=33, svid_03=15, elv_03=23.0, az_03=76, cno_03=36, svid_04=18, elv_04=26.0, az_04=189, cno_04=38, signalID=6)>000: 2447 5047 5356 2c32 2c31 2c30 382c 3130  | b'$GPGSV,2,1,08,10' |
016: 2c36 322c 3331 322c 3432 2c31 322c 3134  | b',62,312,42,12,14' |
032: 2c31 3138 2c33 332c 3135 2c32 332c 3037  | b',118,33,15,23,07' |
048: 362c 3336 2c31 382c 3236 2c31 3839 2c33  | b'6,36,18,26,189,3' |
064: 382c 362a 3632 0d0a                      | b'8,6*62\r\n' |
<NMEA(GPGSV, numMsg=2, msgNum=2, numSV=8, svid_01=23, elv_01=76.0, az_01=112, cno_01=44, svid_02=24, elv_02=54.0, az_02=66, cno_02=42, svid_03=28, elv_03=2.0, az_03=211, cno_03=34, svid_04=32, elv_04=32.0, az_04=265, cno_04=40, signalID=6)>000: 2447 5047 5356 2c32 2c32 2c30 382c 3233  | b'$GPGSV,2,2,08,23' |
016: 2c37 362c 3131 322c 3434 2c32 342c 3534  | b',76,112,44,24,54' |
032: 2c30 3636 2c34 322c 3238 2c30 322c 3231  | b',066,42,28,02,21' |
048: 312c 3334 2c33 322c 3332 2c32 3635 2c34  | b'1,34,32,32,265,4' |
064: 302c 362a 3630 0d0a                      | b'0,6*60\r\n' |
<NMEA(GPGSV, numMsg=2, msgNum=1, numSV=5, svid_01=2, elv_01=2.0, az_01=332, cno_01=, svid_02=8, elv_02=1.0, az_02=301, cno_02=, svid_03=22, elv_03=1.0, az_03=23, cno_03=, svid_04=25, elv_04=2.0, az_04=155, cno_04=, signalID=0)>000: 2447 5047 5356 2c32 2c31 2c30 352c 3032  | b'$GPGSV,2,1,05,02' |
016: 2c30 322c 3333 322c 2c30 382c 3031 2c33  | b',02,332,,08,01,3' |
032: 3031 2c2c 3232 2c30 312c 3032 332c 2c32  | b'01,,22,01,023,,2' |
048: 352c 3032 2c31 3535 2c2c 302a 3645 0d0a  | b'5,02,155,,0*6E\r\n' |
<NMEA(GPGSV, numMsg=2, msgNum=2, numSV=5, svid_01=25, elv_01=2.0, az_01=155, cno_01=, signalID=0)>000: 2447 5047 5356 2c32 2c32 2c30 352c 3235  | b'$GPGSV,2,2,05,25' |
016: 2c30 322c 3135 352c 2c30 2a35 340d 0a    | b',02,155,,0*54\r\n' |
<NMEA(GLGSV, numMsg=3, msgNum=2, numSV=10, svid_01=79, elv_01=25.0, az_01=36, cno_01=45, svid_02=80, elv_02=46.0, az_02=100, cno_02=50, svid_03=85, elv_03=23.0, az_03=226, cno_03=46, svid_04=86, elv_04=38.0, az_04=281, cno_04=49, signalID=1)>000: 2447 4c47 5356 2c33 2c32 2c31 302c 3739  | b'$GLGSV,3,2,10,79' |
016: 2c32 352c 3033 362c 3435 2c38 302c 3436  | b',25,036,45,80,46' |
032: 2c31 3030 2c35 302c 3835 2c32 332c 3232  | b',100,50,85,23,22' |
048: 362c 3436 2c38 362c 3338 2c32 3831 2c34  | b'6,46,86,38,281,4' |
064: 392c 312a 3730 0d0a                      | b'9,1*70\r\n' |
<NMEA(GLGSV, numMsg=2, msgNum=1, numSV=6, svid_01=69, elv_01=13.0, az_01=84, cno_01=32, svid_02=71, elv_02=38.0, az_02=302, cno_02=34, svid_03=73, elv_03=19.0, az_03=160, cno_03=35, svid_04=79, elv_04=25.0, az_04=36, cno_04=35, signalID=3)>000: 2447 4c47 5356 2c32 2c31 2c30 362c 3639  | b'$GLGSV,2,1,06,69' |
016: 2c31 332c 3038 342c 3332 2c37 312c 3338  | b',13,084,32,71,38' |
032: 2c33 3032 2c33 342c 3733 2c31 392c 3136  | b',302,34,73,19,16' |
048: 302c 3335 2c37 392c 3235 2c30 3336 2c33  | b'0,35,79,25,036,3' |
064: 352c 332a 3733 0d0a                      | b'5,3*73\r\n' |
<NMEA(GLGSV, numMsg=2, msgNum=2, numSV=6, svid_01=80, elv_01=46.0, az_01=100, cno_01=37, svid_02=85, elv_02=23.0, az_02=226, cno_02=36, signalID=3)>000: 2447 4c47 5356 2c32 2c32 2c30 362c 3830  | b'$GLGSV,2,2,06,80' |
016: 2c34 362c 3130 302c 3337 2c38 352c 3233  | b',46,100,37,85,23' |
032: 2c32 3236 2c33 362c 332a 3743 0d0a       | b',226,36,3*7C\r\n' |
<NMEA(GLGSV, numMsg=1, msgNum=1, numSV=1, svid_01=94, elv_01=0.0, az_01=34, cno_01=, signalID=0)>000: 2447 4c47 5356 2c31 2c31 2c30 312c 3934  | b'$GLGSV,1,1,01,94' |
016: 2c30 302c 3033 342c 2c30 2a34 320d 0a    | b',00,034,,0*42\r\n' |
<NMEA(GAGSV, numMsg=2, msgNum=1, numSV=8, svid_01=4, elv_01=24.0, az_01=69, cno_01=36, svid_02=5, elv_02=44.0, az_02=269, cno_02=42, svid_03=9, elv_03=72.0, az_03=31, cno_03=43, svid_04=11, elv_04=12.0, az_04=178, cno_04=29, signalID=2)>000: 2447 4147 5356 2c32 2c31 2c30 382c 3034  | b'$GAGSV,2,1,08,04' |
016: 2c32 342c 3036 392c 3336 2c30 352c 3434  | b',24,069,36,05,44' |
032: 2c32 3639 2c34 322c 3039 2c37 322c 3033  | b',269,42,09,72,03' |
048: 312c 3433 2c31 312c 3132 2c31 3738 2c32  | b'1,43,11,12,178,2' |
064: 392c 322a 3734 0d0a                      | b'9,2*74\r\n' |
<NMEA(GAGSV, numMsg=2, msgNum=2, numSV=8, svid_01=24, elv_01=4.0, az_01=154, cno_01=28, svid_02=31, elv_02=21.0, az_02=109, cno_02=36, svid_03=34, elv_03=41.0, az_03=296, cno_03=41, svid_04=36, elv_04=45.0, az_04=220, cno_04=41, signalID=2)>000: 2447 4147 5356 2c32 2c32 2c30 382c 3234  | b'$GAGSV,2,2,08,24' |
016: 2c30 342c 3135 342c 3238 2c33 312c 3231  | b',04,154,28,31,21' |
032: 2c31 3039 2c33 362c 3334 2c34 312c 3239  | b',109,36,34,41,29' |
048: 362c 3431 2c33 362c 3435 2c32 3230 2c34  | b'6,41,36,45,220,4' |
064: 312c 322a 3731 0d0a                      | b'1,2*71\r\n' |
<NMEA(GAGSV, numMsg=2, msgNum=1, numSV=8, svid_01=4, elv_01=24.0, az_01=69, cno_01=42, svid_02=5, elv_02=44.0, az_02=269, cno_02=46, svid_03=9, elv_03=72.0, az_03=31, cno_03=49, svid_04=11, elv_04=12.0, az_04=178, cno_04=34, signalID=7)>000: 2447 4147 5356 2c32 2c31 2c30 382c 3034  | b'$GAGSV,2,1,08,04' |
016: 2c32 342c 3036 392c 3432 2c30 352c 3434  | b',24,069,42,05,44' |
032: 2c32 3639 2c34 362c 3039 2c37 322c 3033  | b',269,46,09,72,03' |
048: 312c 3439 2c31 312c 3132 2c31 3738 2c33  | b'1,49,11,12,178,3' |
064: 342c 372a 3730 0d0a                      | b'4,7*70\r\n' |
<NMEA(GAGSV, numMsg=1, msgNum=1, numSV=1, svid_01=15, elv_01=4.0, az_01=333, cno_01=, signalID=0)>000: 2447 4147 5356 2c31 2c31 2c30 312c 3135  | b'$GAGSV,1,1,01,15' |
016: 2c30 342c 3333 332c 2c30 2a34 360d 0a    | b',04,333,,0*46\r\n' |
<NMEA(GBGSV, numMsg=2, msgNum=1, numSV=8, svid_01=20, elv_01=57.0, az_01=306, cno_01=52, svid_02=23, elv_02=41.0, az_02=74, cno_02=49, svid_03=25, elv_03=9.0, az_03=35, cno_03=42, svid_04=29, elv_04=21.0, az_04=266, cno_04=44, signalID=1)>000: 2447 4247 5356 2c32 2c31 2c30 382c 3230  | b'$GBGSV,2,1,08,20' |
016: 2c35 372c 3330 362c 3532 2c32 332c 3431  | b',57,306,52,23,41' |
032: 2c30 3734 2c34 392c 3235 2c30 392c 3033  | b',074,49,25,09,03' |
048: 352c 3432 2c32 392c 3231 2c32 3636 2c34  | b'5,42,29,21,266,4' |
064: 342c 312a 3731 0d0a                      | b'4,1*71\r\n' |
<NMEA(GBGSV, numMsg=2, msgNum=2, numSV=8, svid_01=30, elv_01=7.0, az_01=215, cno_01=39, svid_02=32, elv_02=57.0, az_02=81, cno_02=51, svid_03=35, elv_03=10.0, az_03=320, cno_03=42, svid_04=37, elv_04=40.0, az_04=149, cno_04=47, signalID=1)>000: 2447 4247 5356 2c32 2c32 2c30 382c 3330  | b'$GBGSV,2,2,08,30' |
016: 2c30 372c 3231 352c 3339 2c33 322c 3537  | b',07,215,39,32,57' |
032: 2c30 3831 2c35 312c 3335 2c31 302c 3332  | b',081,51,35,10,32' |
048: 302c 3432 2c33 372c 3430 2c31 3439 2c34  | b'0,42,37,40,149,4' |
064: 372c 312a 3737 0d0a                      | b'7,1*77\r\n' |
<NMEA(GBGSV, numMsg=1, msgNum=1, numSV=3, svid_01=25, elv_01=9.0, az_01=35, cno_01=9, svid_02=30, elv_02=7.0, az_02=215, cno_02=9, svid_03=37, elv_03=40.0, az_03=149, cno_03=8, signalID=3)>000: 2447 4247 5356 2c31 2c31 2c30 332c 3235  | b'$GBGSV,1,1,03,25' |
016: 2c30 392c 3033 352c 3039 2c33 302c 3037  | b',09,035,09,30,07' |
032: 2c32 3135 2c30 392c 3337 2c34 302c 3134  | b',215,09,37,40,14' |
048: 392c 3038 2c33 2a34 390d 0a              | b'9,08,3*49\r\n' |
<NMEA(GBGSV, numMsg=1, msgNum=1, numSV=1, svid_01=19, elv_01=10.0, az_01=288, cno_01=, signalID=0)>000: 2447 4247 5356 2c31 2c31 2c30 312c 3139  | b'$GBGSV,1,1,01,19' |
016: 2c31 302c 3238 382c 2c30 2a34 440d 0a    | b',10,288,,0*4D\r\n' |
<NMEA(GNRMC, time=19:23:03.500000, status=A, lat=43.8828267533, NS=N, lon=-72.1582828867, EW=W, spd=0.001, cog=, date=2023-09-05, mv=, mvEW=, posMode=R, navStatus=V)>000: 2447 4e52 4d43 2c31 3932 3330 332e 3530  | b'$GNRMC,192303.50' |
016: 2c41 2c34 3335 322e 3936 3936 3035 322c  | b',A,4352.9696052,' |
032: 4e2c 3037 3230 392e 3439 3639 3733 322c  | b'N,07209.4969732,' |
048: 572c 302e 3030 312c 2c30 3530 3932 332c  | b'W,0.001,,050923,' |
064: 2c2c 522c 562a 3139 0d0a                 | b',,R,V*19\r\n' |
<NMEA(GNVTG, cogt=, cogtUnit=T, cogm=, cogmUnit=M, sogn=0.001, sognUnit=N, sogk=0.002, sogkUnit=K, posMode=D)>000: 2447 4e56 5447 2c2c 542c 2c4d 2c30 2e30  | b'$GNVTG,,T,,M,0.0' |
016: 3031 2c4e 2c30 2e30 3032 2c4b 2c44 2a33  | b'01,N,0.002,K,D*3' |
032: 420d 0a                                  | b'B\r\n' |
<NMEA(GNRMC, time=19:23:03.750000, status=A, lat=43.8828267533, NS=N, lon=-72.1582828733, EW=W, spd=0.004, cog=, date=2023-09-05, mv=, mvEW=, posMode=R, navStatus=V)>000: 2447 4e52 4d43 2c31 3932 3330 332e 3735  | b'$GNRMC,192303.75' |
016: 2c41 2c34 3335 322e 3936 3936 3035 322c  | b',A,4352.9696052,' |
032: 4e2c 3037 3230 392e 3439 3639 3732 342c  | b'N,07209.4969724,' |
048: 572c 302e 3030 342c 2c30 3530 3932 332c  | b'W,0.004,,050923,' |
064: 2c2c 522c 562a 3143 0d0a                 | b',,R,V*1C\r\n' |
<NMEA(GNVTG, cogt=, cogtUnit=T, cogm=, cogmUnit=M, sogn=0.004, sognUnit=N, sogk=0.007, sogkUnit=K, posMode=D)>000: 2447 4e56 5447 2c2c 542c 2c4d 2c30 2e30  | b'$GNVTG,,T,,M,0.0' |
016: 3034 2c4e 2c30 2e30 3037 2c4b 2c44 2a33  | b'04,N,0.007,K,D*3' |
032: 420d 0a                                  | b'B\r\n' |
<NMEA(GNGGA, time=19:23:03.750000, lat=43.8828267533, NS=N, lon=-72.1582828733, EW=W, quality=4, numSV=12, HDOP=0.57, alt=143.118, altUnit=M, sep=-32.547, sepUnit=M, diffAge=, diffStation=0)>000: 2447 4e47 4741 2c31 3932 3330 332e 3735  | b'$GNGGA,192303.75' |
016: 2c34 3335 322e 3936 3936 3035 322c 4e2c  | b',4352.9696052,N,' |
032: 3037 3230 392e 3439 3639 3732 342c 572c  | b'07209.4969724,W,' |
048: 342c 3132 2c30 2e35 372c 3134 332e 3131  | b'4,12,0.57,143.11' |
064: 382c 4d2c 2d33 322e 3534 372c 4d2c 2c30  | b'8,M,-32.547,M,,0' |
080: 3030 302a 3730 0d0a                      | b'000*70\r\n' |
<NMEA(GNGSA, opMode=A, navMode=3, svid_01=46, svid_02=44, svid_03=24, svid_04=18, svid_05=10, svid_06=12, svid_07=23, svid_08=15, svid_09=32, svid_10=, svid_11=, svid_12=, PDOP=1.05, HDOP=0.57, VDOP=0.88, systemId=1)>000: 2447 4e47 5341 2c41 2c33 2c34 362c 3434  | b'$GNGSA,A,3,46,44' |
016: 2c32 342c 3138 2c31 302c 3132 2c32 332c  | b',24,18,10,12,23,' |
032: 3135 2c33 322c 2c2c 2c31 2e30 352c 302e  | b'15,32,,,,1.05,0.' |
048: 3537 2c30 2e38 382c 312a 3043 0d0a       | b'57,0.88,1*0C\r\n' |
<NMEA(GNGSA, opMode=A, navMode=3, svid_01=69, svid_02=87, svid_03=85, svid_04=80, svid_05=71, svid_06=73, svid_07=70, svid_08=79, svid_09=, svid_10=, svid_11=, svid_12=, PDOP=1.05, HDOP=0.57, VDOP=0.88, systemId=2)>000: 2447 4e47 5341 2c41 2c33 2c36 392c 3837  | b'$GNGSA,A,3,69,87' |
016: 2c38 352c 3830 2c37 312c 3733 2c37 302c  | b',85,80,71,73,70,' |
032: 3739 2c2c 2c2c 2c31 2e30 352c 302e 3537  | b'79,,,,,1.05,0.57' |
048: 2c30 2e38 382c 322a 3041 0d0a            | b',0.88,2*0A\r\n' |
<NMEA(GPGSV, numMsg=3, msgNum=1, numSV=11, svid_01=10, elv_01=62.0, az_01=312, cno_01=51, svid_02=12, elv_02=14.0, az_02=118, cno_02=41, svid_03=15, elv_03=23.0, az_03=76, cno_03=43, svid_04=18, elv_04=26.0, az_04=189, cno_04=43, signalID=1)>000: 2447 5047 5356 2c33 2c31 2c31 312c 3130  | b'$GPGSV,3,1,11,10' |
016: 2c36 322c 3331 322c 3531 2c31 322c 3134  | b',62,312,51,12,14' |
032: 2c31 3138 2c34 312c 3135 2c32 332c 3037  | b',118,41,15,23,07' |
048: 362c 3433 2c31 382c 3236 2c31 3839 2c34  | b'6,43,18,26,189,4' |
064: 332c 312a 3635 0d0a                      | b'3,1*65\r\n' |
<NMEA(GPGSV, numMsg=3, msgNum=2, numSV=11, svid_01=21, elv_01=9.0, az_01=326, cno_01=39, svid_02=23, elv_02=76.0, az_02=112, cno_02=49, svid_03=24, elv_03=54.0, az_03=66, cno_03=48, svid_04=28, elv_04=2.0, az_04=211, cno_04=36, signalID=1)>000: 2447 5047 5356 2c33 2c32 2c31 312c 3231  | b'$GPGSV,3,2,11,21' |
016: 2c30 392c 3332 362c 3339 2c32 332c 3736  | b',09,326,39,23,76' |
032: 2c31 3132 2c34 392c 3234 2c35 342c 3036  | b',112,49,24,54,06' |
048: 362c 3438 2c32 382c 3032 2c32 3131 2c33  | b'6,48,28,02,211,3' |
064: 362c 312a 3639 0d0a                      | b'6,1*69\r\n' |
<NMEA(GPGSV, numMsg=3, msgNum=3, numSV=11, svid_01=32, elv_01=32.0, az_01=265, cno_01=47, svid_02=44, elv_02=23.0, az_02=235, cno_02=43, svid_03=46, elv_03=15.0, az_03=246, cno_03=41, signalID=1)>000: 2447 5047 5356 2c33 2c33 2c31 312c 3332  | b'$GPGSV,3,3,11,32' |
016: 2c33 322c 3236 352c 3437 2c34 342c 3233  | b',32,265,47,44,23' |
032: 2c32 3335 2c34 332c 3436 2c31 352c 3234  | b',235,43,46,15,24' |
048: 362c 3431 2c31 2a35 370d 0a              | b'6,41,1*57\r\n' |
<NMEA(GPGSV, numMsg=2, msgNum=1, numSV=8, svid_01=10, elv_01=62.0, az_01=312, cno_01=42, svid_02=12, elv_02=14.0, az_02=118, cno_02=33, svid_03=15, elv_03=23.0, az_03=76, cno_03=36, svid_04=18, elv_04=26.0, az_04=189, cno_04=38, signalID=6)>000: 2447 5047 5356 2c32 2c31 2c30 382c 3130  | b'$GPGSV,2,1,08,10' |
016: 2c36 322c 3331 322c 3432 2c31 322c 3134  | b',62,312,42,12,14' |
032: 2c31 3138 2c33 332c 3135 2c32 332c 3037  | b',118,33,15,23,07' |
048: 362c 3336 2c31 382c 3236 2c31 3839 2c33  | b'6,36,18,26,189,3' |
064: 382c 362a 3632 0d0a                      | b'8,6*62\r\n' |
<NMEA(GPGSV, numMsg=2, msgNum=2, numSV=8, svid_01=23, elv_01=76.0, az_01=112, cno_01=44, svid_02=24, elv_02=54.0, az_02=66, cno_02=42, svid_03=28, elv_03=2.0, az_03=211, cno_03=35, svid_04=32, elv_04=32.0, az_04=265, cno_04=40, signalID=6)>000: 2447 5047 5356 2c32 2c32 2c30 382c 3233  | b'$GPGSV,2,2,08,23' |
016: 2c37 362c 3131 322c 3434 2c32 342c 3534  | b',76,112,44,24,54' |
032: 2c30 3636 2c34 322c 3238 2c30 322c 3231  | b',066,42,28,02,21' |
048: 312c 3335 2c33 322c 3332 2c32 3635 2c34  | b'1,35,32,32,265,4' |
064: 302c 362a 3631 0d0a                      | b'0,6*61\r\n' |
<NMEA(GPGSV, numMsg=2, msgNum=1, numSV=5, svid_01=2, elv_01=2.0, az_01=332, cno_01=, svid_02=8, elv_02=1.0, az_02=301, cno_02=, svid_03=22, elv_03=1.0, az_03=23, cno_03=, svid_04=25, elv_04=2.0, az_04=155, cno_04=, signalID=0)>000: 2447 5047 5356 2c32 2c31 2c30 352c 3032  | b'$GPGSV,2,1,05,02' |
016: 2c30 322c 3333 322c 2c30 382c 3031 2c33  | b',02,332,,08,01,3' |
032: 3031 2c2c 3232 2c30 312c 3032 332c 2c32  | b'01,,22,01,023,,2' |
048: 352c 3032 2c31 3535 2c2c 302a 3645 0d0a  | b'5,02,155,,0*6E\r\n' |
<NMEA(GPGSV, numMsg=2, msgNum=2, numSV=5, svid_01=25, elv_01=2.0, az_01=155, cno_01=, signalID=0)>000: 2447 5047 5356 2c32 2c32 2c30 352c 3235  | b'$GPGSV,2,2,05,25' |
016: 2c30 322c 3135 352c 2c30 2a35 340d 0a    | b',02,155,,0*54\r\n' |
<NMEA(GLGSV, numMsg=3, msgNum=1, numSV=10, svid_01=69, elv_01=13.0, az_01=84, cno_01=44, svid_02=70, elv_02=62.0, az_02=26, cno_02=41, svid_03=71, elv_03=38.0, az_03=302, cno_03=50, svid_04=73, elv_04=19.0, az_04=160, cno_04=43, signalID=1)>000: 2447 4c47 5356 2c33 2c31 2c31 302c 3639  | b'$GLGSV,3,1,10,69' |
016: 2c31 332c 3038 342c 3434 2c37 302c 3632  | b',13,084,44,70,62' |
032: 2c30 3236 2c34 312c 3731 2c33 382c 3330  | b',026,41,71,38,30' |
048: 322c 3530 2c37 332c 3139 2c31 3630 2c34  | b'2,50,73,19,160,4' |
064: 332c 312a 3744 0d0a                      | b'3,1*7D\r\n' |
<NMEA(GLGSV, numMsg=3, msgNum=2, numSV=10, svid_01=79, elv_01=25.0, az_01=36, cno_01=45, svid_02=80, elv_02=46.0, az_02=100, cno_02=50, svid_03=85, elv_03=23.0, az_03=226, cno_03=46, svid_04=86, elv_04=38.0, az_04=281, cno_04=49, signalID=1)>000: 2447 4c47 5356 2c33 2c32 2c31 302c 3739  | b'$GLGSV,3,2,10,79' |
016: 2c32 352c 3033 362c 3435 2c38 302c 3436  | b',25,036,45,80,46' |
032: 2c31 3030 2c35 302c 3835 2c32 332c 3232  | b',100,50,85,23,22' |
048: 362c 3436 2c38 362c 3338 2c32 3831 2c34  | b'6,46,86,38,281,4' |
064: 392c 312a 3730 0d0a                      | b'9,1*70\r\n' |
<NMEA(GLGSV, numMsg=2, msgNum=2, numSV=7, svid_01=80, elv_01=46.0, az_01=100, cno_01=37, svid_02=85, elv_02=23.0, az_02=226, cno_02=36, svid_03=, elv_03=, az_03=, cno_03=32, signalID=3)>000: 2447 4c47 5356 2c32 2c32 2c30 372c 3830  | b'$GLGSV,2,2,07,80' |
016: 2c34 362c 3130 302c 3337 2c38 352c 3233  | b',46,100,37,85,23' |
032: 2c32 3236 2c33 362c 2c2c 2c33 322c 332a  | b',226,36,,,,32,3*' |
048: 3743 0d0a                                | b'7C\r\n' |
<NMEA(GLGSV, numMsg=1, msgNum=1, numSV=1, svid_01=94, elv_01=0.0, az_01=34, cno_01=, signalID=0)>000: 2447 4c47 5356 2c31 2c31 2c30 312c 3934  | b'$GLGSV,1,1,01,94' |
016: 2c30 302c 3033 342c 2c30 2a34 320d 0a    | b',00,034,,0*42\r\n' |
<NMEA(GAGSV, numMsg=2, msgNum=1, numSV=8, svid_01=4, elv_01=24.0, az_01=69, cno_01=37, svid_02=5, elv_02=44.0, az_02=269, cno_02=42, svid_03=9, elv_03=72.0, az_03=31, cno_03=42, svid_04=11, elv_04=12.0, az_04=178, cno_04=29, signalID=2)>000: 2447 4147 5356 2c32 2c31 2c30 382c 3034  | b'$GAGSV,2,1,08,04' |
016: 2c32 342c 3036 392c 3337 2c30 352c 3434  | b',24,069,37,05,44' |
032: 2c32 3639 2c34 322c 3039 2c37 322c 3033  | b',269,42,09,72,03' |
048: 312c 3432 2c31 312c 3132 2c31 3738 2c32  | b'1,42,11,12,178,2' |
064: 392c 322a 3734 0d0a                      | b'9,2*74\r\n' |
<NMEA(GAGSV, numMsg=2, msgNum=2, numSV=8, svid_01=24, elv_01=4.0, az_01=154, cno_01=28, svid_02=31, elv_02=21.0, az_02=109, cno_02=36, svid_03=34, elv_03=41.0, az_03=296, cno_03=41, svid_04=36, elv_04=45.0, az_04=220, cno_04=41, signalID=2)>000: 2447 4147 5356 2c32 2c32 2c30 382c 3234  | b'$GAGSV,2,2,08,24' |
016: 2c30 342c 3135 342c 3238 2c33 312c 3231  | b',04,154,28,31,21' |
032: 2c31 3039 2c33 362c 3334 2c34 312c 3239  | b',109,36,34,41,29' |
048: 362c 3431 2c33 362c 3435 2c32 3230 2c34  | b'6,41,36,45,220,4' |
064: 312c 322a 3731 0d0a                      | b'1,2*71\r\n' |
<NMEA(GAGSV, numMsg=2, msgNum=1, numSV=8, svid_01=4, elv_01=24.0, az_01=69, cno_01=42, svid_02=5, elv_02=44.0, az_02=269, cno_02=46, svid_03=9, elv_03=72.0, az_03=31, cno_03=49, svid_04=11, elv_04=12.0, az_04=178, cno_04=34, signalID=7)>000: 2447 4147 5356 2c32 2c31 2c30 382c 3034  | b'$GAGSV,2,1,08,04' |
016: 2c32 342c 3036 392c 3432 2c30 352c 3434  | b',24,069,42,05,44' |
032: 2c32 3639 2c34 362c 3039 2c37 322c 3033  | b',269,46,09,72,03' |
048: 312c 3439 2c31 312c 3132 2c31 3738 2c33  | b'1,49,11,12,178,3' |
064: 342c 372a 3730 0d0a                      | b'4,7*70\r\n' |
<NMEA(GAGSV, numMsg=2, msgNum=2, numSV=8, svid_01=24, elv_01=4.0, az_01=154, cno_01=33, svid_02=31, elv_02=21.0, az_02=109, cno_02=41, svid_03=34, elv_03=41.0, az_03=296, cno_03=46, svid_04=36, elv_04=45.0, az_04=220, cno_04=46, signalID=7)>000: 2447 4147 5356 2c32 2c32 2c30 382c 3234  | b'$GAGSV,2,2,08,24' |
016: 2c30 342c 3135 342c 3333 2c33 312c 3231  | b',04,154,33,31,21' |
032: 2c31 3039 2c34 312c 3334 2c34 312c 3239  | b',109,41,34,41,29' |
048: 362c 3436 2c33 362c 3435 2c32 3230 2c34  | b'6,46,36,45,220,4' |
064: 362c 372a 3745 0d0a                      | b'6,7*7E\r\n' |
<NMEA(GAGSV, numMsg=1, msgNum=1, numSV=1, svid_01=15, elv_01=4.0, az_01=333, cno_01=, signalID=0)>000: 2447 4147 5356 2c31 2c31 2c30 312c 3135  | b'$GAGSV,1,1,01,15' |
016: 2c30 342c 3333 332c 2c30 2a34 360d 0a    | b',04,333,,0*46\r\n' |
<NMEA(GBGSV, numMsg=2, msgNum=1, numSV=8, svid_01=20, elv_01=57.0, az_01=306, cno_01=52, svid_02=23, elv_02=41.0, az_02=74, cno_02=49, svid_03=25, elv_03=9.0, az_03=35, cno_03=42, svid_04=29, elv_04=21.0, az_04=266, cno_04=44, signalID=1)>000: 2447 4247 5356 2c32 2c31 2c30 382c 3230  | b'$GBGSV,2,1,08,20' |
016: 2c35 372c 3330 362c 3532 2c32 332c 3431  | b',57,306,52,23,41' |
032: 2c30 3734 2c34 392c 3235 2c30 392c 3033  | b',074,49,25,09,03' |
048: 352c 3432 2c32 392c 3231 2c32 3636 2c34  | b'5,42,29,21,266,4' |
064: 342c 312a 3731 0d0a                      | b'4,1*71\r\n' |
<NMEA(GBGSV, numMsg=2, msgNum=2, numSV=8, svid_01=30, elv_01=7.0, az_01=215, cno_01=39, svid_02=32, elv_02=57.0, az_02=81, cno_02=51, svid_03=35, elv_03=10.0, az_03=320, cno_03=42, svid_04=37, elv_04=40.0, az_04=149, cno_04=47, signalID=1)>000: 2447 4247 5356 2c32 2c32 2c30 382c 3330  | b'$GBGSV,2,2,08,30' |
016: 2c30 372c 3231 352c 3339 2c33 322c 3537  | b',07,215,39,32,57' |
032: 2c30 3831 2c35 312c 3335 2c31 302c 3332  | b',081,51,35,10,32' |
048: 302c 3432 2c33 372c 3430 2c31 3439 2c34  | b'0,42,37,40,149,4' |
064: 372c 312a 3737 0d0a                      | b'7,1*77\r\n' |
<NMEA(GBGSV, numMsg=1, msgNum=1, numSV=3, svid_01=25, elv_01=9.0, az_01=35, cno_01=10, svid_02=30, elv_02=7.0, az_02=215, cno_02=8, svid_03=37, elv_03=40.0, az_03=149, cno_03=8, signalID=3)>000: 2447 4247 5356 2c31 2c31 2c30 332c 3235  | b'$GBGSV,1,1,03,25' |
016: 2c30 392c 3033 352c 3130 2c33 302c 3037  | b',09,035,10,30,07' |
032: 2c32 3135 2c30 382c 3337 2c34 302c 3134  | b',215,08,37,40,14' |
048: 392c 3038 2c33 2a34 300d 0a              | b'9,08,3*40\r\n' |
<NMEA(GNGLL, lat=43.8828267533, NS=N, lon=-72.1582828733, EW=W, time=19:23:03.750000, status=A, posMode=D)>000: 2447 4e47 4c4c 2c34 3335 322e 3936 3936  | b'$GNGLL,4352.9696' |
016: 3035 322c 4e2c 3037 3230 392e 3439 3639  | b'052,N,07209.4969' |
032: 3732 342c 572c 3139 3233 3033 2e37 352c  | b'724,W,192303.75,' |
048: 412c 442a 3630 0d0a                      | b'A,D*60\r\n' |
<NMEA(GNVTG, cogt=, cogtUnit=T, cogm=, cogmUnit=M, sogn=0.008, sognUnit=N, sogk=0.014, sogkUnit=K, posMode=D)>000: 2447 4e56 5447 2c2c 542c 2c4d 2c30 2e30  | b'$GNVTG,,T,,M,0.0' |
016: 3038 2c4e 2c30 2e30 3134 2c4b 2c44 2a33  | b'08,N,0.014,K,D*3' |
032: 350d 0a                                  | b'5\r\n' |
<NMEA(GNGGA, time=19:23:04, lat=43.88282675, NS=N, lon=-72.1582828783, EW=W, quality=4, numSV=12, HDOP=0.57, alt=143.116, altUnit=M, sep=-32.547, sepUnit=M, diffAge=, diffStation=0)>000: 2447 4e47 4741 2c31 3932 3330 342e 3030  | b'$GNGGA,192304.00' |
016: 2c34 3335 322e 3936 3936 3035 302c 4e2c  | b',4352.9696050,N,' |
032: 3037 3230 392e 3439 3639 3732 372c 572c  | b'07209.4969727,W,' |
048: 342c 3132 2c30 2e35 372c 3134 332e 3131  | b'4,12,0.57,143.11' |
064: 362c 4d2c 2d33 322e 3534 372c 4d2c 2c30  | b'6,M,-32.547,M,,0' |
080: 3030 302a 3741 0d0a                      | b'000*7A\r\n' |
<NMEA(GNGSA, opMode=A, navMode=3, svid_01=46, svid_02=44, svid_03=24, svid_04=18, svid_05=10, svid_06=12, svid_07=23, svid_08=15, svid_09=32, svid_10=, svid_11=, svid_12=, PDOP=1.05, HDOP=0.57, VDOP=0.88, systemId=1)>000: 2447 4e47 5341 2c41 2c33 2c34 362c 3434  | b'$GNGSA,A,3,46,44' |
016: 2c32 342c 3138 2c31 302c 3132 2c32 332c  | b',24,18,10,12,23,' |
032: 3135 2c33 322c 2c2c 2c31 2e30 352c 302e  | b'15,32,,,,1.05,0.' |
048: 3537 2c30 2e38 382c 312a 3043 0d0a       | b'57,0.88,1*0C\r\n' |
<NMEA(GNGSA, opMode=A, navMode=3, svid_01=69, svid_02=87, svid_03=85, svid_04=80, svid_05=71, svid_06=73, svid_07=70, svid_08=79, svid_09=, svid_10=, svid_11=, svid_12=, PDOP=1.05, HDOP=0.57, VDOP=0.88, systemId=2)>000: 2447 4e47 5341 2c41 2c33 2c36 392c 3837  | b'$GNGSA,A,3,69,87' |
016: 2c38 352c 3830 2c37 312c 3733 2c37 302c  | b',85,80,71,73,70,' |
032: 3739 2c2c 2c2c 2c31 2e30 352c 302e 3537  | b'79,,,,,1.05,0.57' |
048: 2c30 2e38 382c 322a 3041 0d0a            | b',0.88,2*0A\r\n' |
<NMEA(GNGSA, opMode=A, navMode=3, svid_01=36, svid_02=5, svid_03=31, svid_04=34, svid_05=4, svid_06=11, svid_07=9, svid_08=, svid_09=, svid_10=, svid_11=, svid_12=, PDOP=1.05, HDOP=0.57, VDOP=0.88, systemId=3)>000: 2447 4e47 5341 2c41 2c33 2c33 362c 3035  | b'$GNGSA,A,3,36,05' |
016: 2c33 312c 3334 2c30 342c 3131 2c30 392c  | b',31,34,04,11,09,' |
032: 2c2c 2c2c 2c31 2e30 352c 302e 3537 2c30  | b',,,,,1.05,0.57,0' |
048: 2e38 382c 332a 3044 0d0a                 | b'.88,3*0D\r\n' |
<NMEA(GNGSA, opMode=A, navMode=3, svid_01=37, svid_02=32, svid_03=29, svid_04=20, svid_05=23, svid_06=35, svid_07=, svid_08=, svid_09=, svid_10=, svid_11=, svid_12=, PDOP=1.05, HDOP=0.57, VDOP=0.88, systemId=4)>000: 2447 4e47 5341 2c41 2c33 2c33 372c 3332  | b'$GNGSA,A,3,37,32' |
016: 2c32 392c 3230 2c32 332c 3335 2c2c 2c2c  | b',29,20,23,35,,,,' |
032: 2c2c 2c31 2e30 352c 302e 3537 2c30 2e38  | b',,,1.05,0.57,0.8' |
048: 382c 342a 3039 0d0a                      | b'8,4*09\r\n' |
<NMEA(GPGSV, numMsg=3, msgNum=1, numSV=11, svid_01=10, elv_01=62.0, az_01=312, cno_01=51, svid_02=12, elv_02=14.0, az_02=118, cno_02=41, svid_03=15, elv_03=23.0, az_03=76, cno_03=43, svid_04=18, elv_04=26.0, az_04=189, cno_04=43, signalID=1)>000: 2447 5047 5356 2c33 2c31 2c31 312c 3130  | b'$GPGSV,3,1,11,10' |
016: 2c36 322c 3331 322c 3531 2c31 322c 3134  | b',62,312,51,12,14' |
032: 2c31 3138 2c34 312c 3135 2c32 332c 3037  | b',118,41,15,23,07' |
048: 362c 3433 2c31 382c 3236 2c31 3839 2c34  | b'6,43,18,26,189,4' |
064: 332c 312a 3635 0d0a                      | b'3,1*65\r\n' |
<NMEA(GPGSV, numMsg=3, msgNum=2, numSV=11, svid_01=21, elv_01=9.0, az_01=326, cno_01=39, svid_02=23, elv_02=76.0, az_02=112, cno_02=49, svid_03=24, elv_03=54.0, az_03=66, cno_03=48, svid_04=28, elv_04=2.0, az_04=211, cno_04=35, signalID=1)>000: 2447 5047 5356 2c33 2c32 2c31 312c 3231  | b'$GPGSV,3,2,11,21' |
016: 2c30 392c 3332 362c 3339 2c32 332c 3736  | b',09,326,39,23,76' |
032: 2c31 3132 2c34 392c 3234 2c35 342c 3036  | b',112,49,24,54,06' |
048: 362c 3438 2c32 382c 3032 2c32 3131 2c33  | b'6,48,28,02,211,3' |
064: 352c 312a 3641 0d0a                      | b'5,1*6A\r\n' |
<NMEA(GPGSV, numMsg=2, msgNum=1, numSV=5, svid_01=2, elv_01=2.0, az_01=332, cno_01=, svid_02=8, elv_02=1.0, az_02=301, cno_02=, svid_03=22, elv_03=1.0, az_03=23, cno_03=, svid_04=25, elv_04=2.0, az_04=155, cno_04=, signalID=0)>000: 2447 5047 5356 2c32 2c31 2c30 352c 3032  | b'$GPGSV,2,1,05,02' |
016: 2c30 322c 3333 322c 2c30 382c 3031 2c33  | b',02,332,,08,01,3' |
032: 3031 2c2c 3232 2c30 312c 3032 332c 2c32  | b'01,,22,01,023,,2' |
048: 352c 3032 2c31 3535 2c2c 302a 3645 0d0a  | b'5,02,155,,0*6E\r\n' |
<NMEA(GPGSV, numMsg=2, msgNum=2, numSV=5, svid_01=25, elv_01=2.0, az_01=155, cno_01=, signalID=0)>000: 2447 5047 5356 2c32 2c32 2c30 352c 3235  | b'$GPGSV,2,2,05,25' |
016: 2c30 322c 3135 352c 2c30 2a35 340d 0a    | b',02,155,,0*54\r\n' |
<NMEA(GLGSV, numMsg=3, msgNum=3, numSV=10, svid_01=87, elv_01=15.0, az_01=337, cno_01=42, svid_02=, elv_02=, az_02=, cno_02=47, signalID=1)>000: 2447 4c47 5356 2c33 2c33 2c31 302c 3837  | b'$GLGSV,3,3,10,87' |
016: 2c31 352c 3333 372c 3432 2c2c 2c2c 3437  | b',15,337,42,,,,47' |
032: 2c31 2a34 300d 0a                        | b',1*40\r\n' |
<NMEA(GLGSV, numMsg=2, msgNum=1, numSV=7, svid_01=69, elv_01=13.0, az_01=84, cno_01=32, svid_02=71, elv_02=38.0, az_02=302, cno_02=34, svid_03=73, elv_03=19.0, az_03=160, cno_03=35, svid_04=79, elv_04=25.0, az_04=36, cno_04=35, signalID=3)>000: 2447 4c47 5356 2c32 2c31 2c30 372c 3639  | b'$GLGSV,2,1,07,69' |
016: 2c31 332c 3038 342c 3332 2c37 312c 3338  | b',13,084,32,71,38' |
032: 2c33 3032 2c33 342c 3733 2c31 392c 3136  | b',302,34,73,19,16' |
048: 302c 3335 2c37 392c 3235 2c30 3336 2c33  | b'0,35,79,25,036,3' |
064: 352c 332a 3732 0d0a                      | b'5,3*72\r\n' |
<NMEA(GLGSV, numMsg=2, msgNum=2, numSV=7, svid_01=80, elv_01=46.0, az_01=100, cno_01=37, svid_02=85, elv_02=23.0, az_02=226, cno_02=36, svid_03=, elv_03=, az_03=, cno_03=32, signalID=3)>000: 2447 4c47 5356 2c32 2c32 2c30 372c 3830  | b'$GLGSV,2,2,07,80' |
016: 2c34 362c 3130 302c 3337 2c38 352c 3233  | b',46,100,37,85,23' |
032: 2c32 3236 2c33 362c 2c2c 2c33 322c 332a  | b',226,36,,,,32,3*' |
048: 3743 0d0a                                | b'7C\r\n' |
<NMEA(GLGSV, numMsg=1, msgNum=1, numSV=1, svid_01=94, elv_01=0.0, az_01=34, cno_01=, signalID=0)>000: 2447 4c47 5356 2c31 2c31 2c30 312c 3934  | b'$GLGSV,1,1,01,94' |
016: 2c30 302c 3033 342c 2c30 2a34 320d 0a    | b',00,034,,0*42\r\n' |
<NMEA(GAGSV, numMsg=2, msgNum=1, numSV=8, svid_01=4, elv_01=24.0, az_01=69, cno_01=36, svid_02=5, elv_02=44.0, az_02=269, cno_02=42, svid_03=9, elv_03=72.0, az_03=31, cno_03=42, svid_04=11, elv_04=12.0, az_04=178, cno_04=29, signalID=2)>000: 2447 4147 5356 2c32 2c31 2c30 382c 3034  | b'$GAGSV,2,1,08,04' |
016: 2c32 342c 3036 392c 3336 2c30 352c 3434  | b',24,069,36,05,44' |
032: 2c32 3639 2c34 322c 3039 2c37 322c 3033  | b',269,42,09,72,03' |
048: 312c 3432 2c31 312c 3132 2c31 3738 2c32  | b'1,42,11,12,178,2' |
064: 392c 322a 3735 0d0a                      | b'9,2*75\r\n' |
<NMEA(GAGSV, numMsg=2, msgNum=2, numSV=8, svid_01=24, elv_01=4.0, az_01=154, cno_01=28, svid_02=31, elv_02=21.0, az_02=109, cno_02=36, svid_03=34, elv_03=41.0, az_03=296, cno_03=41, svid_04=36, elv_04=45.0, az_04=220, cno_04=41, signalID=2)>000: 2447 4147 5356 2c32 2c32 2c30 382c 3234  | b'$GAGSV,2,2,08,24' |
016: 2c30 342c 3135 342c 3238 2c33 312c 3231  | b',04,154,28,31,21' |
032: 2c31 3039 2c33 362c 3334 2c34 312c 3239  | b',109,36,34,41,29' |
048: 362c 3431 2c33 362c 3435 2c32 3230 2c34  | b'6,41,36,45,220,4' |
064: 312c 322a 3731 0d0a                      | b'1,2*71\r\n' |
<NMEA(GAGSV, numMsg=2, msgNum=2, numSV=8, svid_01=24, elv_01=4.0, az_01=154, cno_01=33, svid_02=31, elv_02=21.0, az_02=109, cno_02=41, svid_03=34, elv_03=41.0, az_03=296, cno_03=46, svid_04=36, elv_04=45.0, az_04=220, cno_04=46, signalID=7)>000: 2447 4147 5356 2c32 2c32 2c30 382c 3234  | b'$GAGSV,2,2,08,24' |
016: 2c30 342c 3135 342c 3333 2c33 312c 3231  | b',04,154,33,31,21' |
032: 2c31 3039 2c34 312c 3334 2c34 312c 3239  | b',109,41,34,41,29' |
048: 362c 3436 2c33 362c 3435 2c32 3230 2c34  | b'6,46,36,45,220,4' |
064: 362c 372a 3745 0d0a                      | b'6,7*7E\r\n' |
<NMEA(GAGSV, numMsg=1, msgNum=1, numSV=1, svid_01=15, elv_01=4.0, az_01=333, cno_01=, signalID=0)>000: 2447 4147 5356 2c31 2c31 2c30 312c 3135  | b'$GAGSV,1,1,01,15' |
016: 2c30 342c 3333 332c 2c30 2a34 360d 0a    | b',04,333,,0*46\r\n' |
<NMEA(GBGSV, numMsg=2, msgNum=1, numSV=8, svid_01=20, elv_01=57.0, az_01=306, cno_01=52, svid_02=23, elv_02=41.0, az_02=74, cno_02=49, svid_03=25, elv_03=9.0, az_03=35, cno_03=42, svid_04=29, elv_04=21.0, az_04=266, cno_04=44, signalID=1)>000: 2447 4247 5356 2c32 2c31 2c30 382c 3230  | b'$GBGSV,2,1,08,20' |
016: 2c35 372c 3330 362c 3532 2c32 332c 3431  | b',57,306,52,23,41' |
032: 2c30 3734 2c34 392c 3235 2c30 392c 3033  | b',074,49,25,09,03' |
048: 352c 3432 2c32 392c 3231 2c32 3636 2c34  | b'5,42,29,21,266,4' |
064: 342c 312a 3731 0d0a                      | b'4,1*71\r\n' |
<NMEA(GBGSV, numMsg=2, msgNum=2, numSV=8, svid_01=30, elv_01=7.0, az_01=215, cno_01=39, svid_02=32, elv_02=57.0, az_02=81, cno_02=51, svid_03=35, elv_03=10.0, az_03=320, cno_03=42, svid_04=37, elv_04=40.0, az_04=149, cno_04=47, signalID=1)>000: 2447 4247 5356 2c32 2c32 2c30 382c 3330  | b'$GBGSV,2,2,08,30' |
016: 2c30 372c 3231 352c 3339 2c33 322c 3537  | b',07,215,39,32,57' |
032: 2c30 3831 2c35 312c 3335 2c31 302c 3332  | b',081,51,35,10,32' |
048: 302c 3432 2c33 372c 3430 2c31 3439 2c34  | b'0,42,37,40,149,4' |
064: 372c 312a 3737 0d0a                      | b'7,1*77\r\n' |
<NMEA(GBGSV, numMsg=1, msgNum=1, numSV=3, svid_01=25, elv_01=9.0, az_01=35, cno_01=10, svid_02=30, elv_02=7.0, az_02=215, cno_02=8, svid_03=37, elv_03=40.0, az_03=149, cno_03=8, signalID=3)>000: 2447 4247 5356 2c31 2c31 2c30 332c 3235  | b'$GBGSV,1,1,03,25' |
016: 2c30 392c 3033 352c 3130 2c33 302c 3037  | b',09,035,10,30,07' |
032: 2c32 3135 2c30 382c 3337 2c34 302c 3134  | b',215,08,37,40,14' |
048: 392c 3038 2c33 2a34 300d 0a              | b'9,08,3*40\r\n' |
<NMEA(GBGSV, numMsg=1, msgNum=1, numSV=1, svid_01=19, elv_01=10.0, az_01=288, cno_01=, signalID=0)>000: 2447 4247 5356 2c31 2c31 2c30 312c 3139  | b'$GBGSV,1,1,01,19' |
016: 2c31 302c 3238 382c 2c30 2a34 440d 0a    | b',10,288,,0*4D\r\n' |
<NMEA(GNGLL, lat=43.88282675, NS=N, lon=-72.1582828783, EW=W, time=19:23:04, status=A, posMode=D)>000: 2447 4e47 4c4c 2c34 3335 322e 3936 3936  | b'$GNGLL,4352.9696' |
016: 3035 302c 4e2c 3037 3230 392e 3439 3639  | b'050,N,07209.4969' |
032: 3732 372c 572c 3139 3233 3034 2e30 302c  | b'727,W,192304.00,' |
048: 412c 442a 3634 0d0a                      | b'A,D*64\r\n' |
<NMEA(GNTXT, numMsg=1, msgNum=1, msgType=0, text=txbuf alloc)>000: 2447 4e54 5854 2c30 312c 3031 2c30 302c  | b'$GNTXT,01,01,00,' |
016: 7478 6275 6620 616c 6c6f 632a 3631 0d0a  | b'txbuf alloc*61\r\n' |
<NMEA(GNRMC, time=19:23:04.250000, status=A, lat=43.88282675, NS=N, lon=-72.1582828633, EW=W, spd=0.01, cog=, date=2023-09-05, mv=, mvEW=, posMode=R, navStatus=V)>000: 2447 4e52 4d43 2c31 3932 3330 342e 3235  | b'$GNRMC,192304.25' |
016: 2c41 2c34 3335 322e 3936 3936 3035 302c  | b',A,4352.9696050,' |
032: 4e2c 3037 3230 392e 3439 3639 3731 382c  | b'N,07209.4969718,' |
048: 572c 302e 3031 302c 2c30 3530 3932 332c  | b'W,0.010,,050923,' |
064: 2c2c 522c 562a 3136 0d0a                 | b',,R,V*16\r\n' |
<NMEA(GNVTG, cogt=, cogtUnit=T, cogm=, cogmUnit=M, sogn=0.01, sognUnit=N, sogk=0.018, sogkUnit=K, posMode=D)>000: 2447 4e56 5447 2c2c 542c 2c4d 2c30 2e30  | b'$GNVTG,,T,,M,0.0' |
016: 3130 2c4e 2c30 2e30 3138 2c4b 2c44 2a33  | b'10,N,0.018,K,D*3' |
032: 300d 0a                                  | b'0\r\n' |
<NMEA(GNGGA, time=19:23:04.250000, lat=43.88282675, NS=N, lon=-72.1582828633, EW=W, quality=4, numSV=12, HDOP=0.57, alt=143.116, altUnit=M, sep=-32.547, sepUnit=M, diffAge=, diffStation=0)>000: 2447 4e47 4741 2c31 3932 3330 342e 3235  | b'$GNGGA,192304.25' |
016: 2c34 3335 322e 3936 3936 3035 302c 4e2c  | b',4352.9696050,N,' |
032: 3037 3230 392e 3439 3639 3731 382c 572c  | b'07209.4969718,W,' |
048: 342c 3132 2c30 2e35 372c 3134 332e 3131  | b'4,12,0.57,143.11' |
064: 362c 4d2c 2d33 322e 3534 372c 4d2c 2c30  | b'6,M,-32.547,M,,0' |
080: 3030 302a 3731 0d0a                      | b'000*71\r\n' |
<NMEA(GNGSA, opMode=A, navMode=3, svid_01=46, svid_02=44, svid_03=24, svid_04=18, svid_05=10, svid_06=12, svid_07=23, svid_08=15, svid_09=32, svid_10=, svid_11=, svid_12=, PDOP=1.05, HDOP=0.57, VDOP=0.88, systemId=1)>000: 2447 4e47 5341 2c41 2c33 2c34 362c 3434  | b'$GNGSA,A,3,46,44' |
016: 2c32 342c 3138 2c31 302c 3132 2c32 332c  | b',24,18,10,12,23,' |
032: 3135 2c33 322c 2c2c 2c31 2e30 352c 302e  | b'15,32,,,,1.05,0.' |
048: 3537 2c30 2e38 382c 312a 3043 0d0a       | b'57,0.88,1*0C\r\n' |
<NMEA(GNGSA, opMode=A, navMode=3, svid_01=69, svid_02=87, svid_03=85, svid_04=80, svid_05=71, svid_06=73, svid_07=70, svid_08=79, svid_09=, svid_10=, svid_11=, svid_12=, PDOP=1.05, HDOP=0.57, VDOP=0.88, systemId=2)>000: 2447 4e47 5341 2c41 2c33 2c36 392c 3837  | b'$GNGSA,A,3,69,87' |
016: 2c38 352c 3830 2c37 312c 3733 2c37 302c  | b',85,80,71,73,70,' |
032: 3739 2c2c 2c2c 2c31 2e30 352c 302e 3537  | b'79,,,,,1.05,0.57' |
048: 2c30 2e38 382c 322a 3041 0d0a            | b',0.88,2*0A\r\n' |
<NMEA(GNGSA, opMode=A, navMode=3, svid_01=36, svid_02=5, svid_03=31, svid_04=34, svid_05=4, svid_06=11, svid_07=9, svid_08=, svid_09=, svid_10=, svid_11=, svid_12=, PDOP=1.05, HDOP=0.57, VDOP=0.88, systemId=3)>000: 2447 4e47 5341 2c41 2c33 2c33 362c 3035  | b'$GNGSA,A,3,36,05' |
016: 2c33 312c 3334 2c30 342c 3131 2c30 392c  | b',31,34,04,11,09,' |
032: 2c2c 2c2c 2c31 2e30 352c 302e 3537 2c30  | b',,,,,1.05,0.57,0' |
048: 2e38 382c 332a 3044 0d0a                 | b'.88,3*0D\r\n' |
<NMEA(GNGSA, opMode=A, navMode=3, svid_01=37, svid_02=32, svid_03=29, svid_04=20, svid_05=23, svid_06=35, svid_07=, svid_08=, svid_09=, svid_10=, svid_11=, svid_12=, PDOP=1.05, HDOP=0.57, VDOP=0.88, systemId=4)>000: 2447 4e47 5341 2c41 2c33 2c33 372c 3332  | b'$GNGSA,A,3,37,32' |
016: 2c32 392c 3230 2c32 332c 3335 2c2c 2c2c  | b',29,20,23,35,,,,' |
032: 2c2c 2c31 2e30 352c 302e 3537 2c30 2e38  | b',,,1.05,0.57,0.8' |
048: 382c 342a 3039 0d0a                      | b'8,4*09\r\n' |
<NMEA(GPGSV, numMsg=3, msgNum=1, numSV=11, svid_01=10, elv_01=62.0, az_01=312, cno_01=51, svid_02=12, elv_02=14.0, az_02=118, cno_02=41, svid_03=15, elv_03=23.0, az_03=76, cno_03=43, svid_04=18, elv_04=26.0, az_04=189, cno_04=43, signalID=1)>000: 2447 5047 5356 2c33 2c31 2c31 312c 3130  | b'$GPGSV,3,1,11,10' |
016: 2c36 322c 3331 322c 3531 2c31 322c 3134  | b',62,312,51,12,14' |
032: 2c31 3138 2c34 312c 3135 2c32 332c 3037  | b',118,41,15,23,07' |
048: 362c 3433 2c31 382c 3236 2c31 3839 2c34  | b'6,43,18,26,189,4' |
064: 332c 312a 3635 0d0a                      | b'3,1*65\r\n' |
<NMEA(GPGSV, numMsg=3, msgNum=3, numSV=11, svid_01=32, elv_01=32.0, az_01=265, cno_01=46, svid_02=44, elv_02=23.0, az_02=235, cno_02=43, svid_03=46, elv_03=15.0, az_03=246, cno_03=41, signalID=1)>000: 2447 5047 5356 2c33 2c33 2c31 312c 3332  | b'$GPGSV,3,3,11,32' |
016: 2c33 322c 3236 352c 3436 2c34 342c 3233  | b',32,265,46,44,23' |
032: 2c32 3335 2c34 332c 3436 2c31 352c 3234  | b',235,43,46,15,24' |
048: 362c 3431 2c31 2a35 360d 0a              | b'6,41,1*56\r\n' |
