<NMEA(GLGSV, numMsg=1, msgNum=1, numSV=3, svid_01=79, elv_01=2.0, az_01=21, cno_01=, svid_02=86, elv_02=19.0, az_02=249, cno_02=, svid_03=88, elv_03=3.0, az_03=352, cno_03=, signalID=0)>000: 2447 4c47 5356 2c31 2c31 2c30 332c 3739  | b'$GLGSV,1,1,03,79' |
016: 2c30 322c 3032 312c 2c38 362c 3139 2c32  | b',02,021,,86,19,2' |
032: 3439 2c2c 3838 2c30 332c 3335 322c 2c30  | b'49,,88,03,352,,0' |
048: 2a34 420d 0a                             | b'*4B\r\n' |
<NMEA(GAGSV, numMsg=1, msgNum=1, numSV=1, svid_01=9, elv_01=56.0, az_01=66, cno_01=19, signalID=2)>000: 2447 4147 5356 2c31 2c31 2c30 312c 3039  | b'$GAGSV,1,1,01,09' |
016: 2c35 362c 3036 362c 3139 2c32 2a34 350d  | b',56,066,19,2*45\r' |
032: 0a                                       | b'\n' |
<NMEA(GAGSV, numMsg=2, msgNum=1, numSV=8, svid_01=3, elv_01=11.0, az_01=274, cno_01=7, svid_02=5, elv_02=60.0, az_02=296, cno_02=25, svid_03=9, elv_03=56.0, az_03=66, cno_03=28, svid_04=15, elv_04=18.0, az_04=321, cno_04=20, signalID=7)>000: 2447 4147 5356 2c32 2c31 2c30 382c 3033  | b'$GAGSV,2,1,08,03' |
016: 2c31 312c 3237 342c 3037 2c30 352c 3630  | b',11,274,07,05,60' |
032: 2c32 3936 2c32 352c 3039 2c35 362c 3036  | b',296,25,09,56,06' |
048: 362c 3238 2c31 352c 3138 2c33 3231 2c32  | b'6,28,15,18,321,2' |
064: 302c 372a 3742 0d0a                      | b'0,7*7B\r\n' |
<NMEA(GAGSV, numMsg=2, msgNum=2, numSV=8, svid_01=24, elv_01=24.0, az_01=144, cno_01=21, svid_02=31, elv_02=35.0, az_02=87, cno_02=23, svid_03=34, elv_03=38.0, az_03=267, cno_03=32, svid_04=36, elv_04=22.0, az_04=209, cno_04=18, signalID=7)>000: 2447 4147 5356 2c32 2c32 2c30 382c 3234  | b'$GAGSV,2,2,08,24' |
016: 2c32 342c 3134 342c 3231 2c33 312c 3335  | b',24,144,21,31,35' |
032: 2c30 3837 2c32 332c 3334 2c33 382c 3236  | b',087,23,34,38,26' |
048: 372c 3332 2c33 362c 3232 2c32 3039 2c31  | b'7,32,36,22,209,1' |
064: 382c 372a 3741 0d0a                      | b'8,7*7A\r\n' |
<NMEA(GAGSV, numMsg=1, msgNum=1, numSV=1, svid_01=4, elv_01=8.0, az_01=85, cno_01=, signalID=0)>000: 2447 4147 5356 2c31 2c31 2c30 312c 3034  | b'$GAGSV,1,1,01,04' |
016: 2c30 382c 3038 352c 2c30 2a34 340d 0a    | b',08,085,,0*44\r\n' |
<NMEA(GBGSV, numMsg=2, msgNum=1, numSV=8, svid_01=19, elv_01=30.0, az_01=302, cno_01=23, svid_02=20, elv_02=78.0, az_02=346, cno_02=39, svid_03=23, elv_03=29.0, az_03=50, cno_03=24, svid_04=29, elv_04=5.0, az_04=246, cno_04=12, signalID=1)>000: 2447 4247 5356 2c32 2c31 2c30 382c 3139  | b'$GBGSV,2,1,08,19' |
016: 2c33 302c 3330 322c 3233 2c32 302c 3738  | b',30,302,23,20,78' |
032: 2c33 3436 2c33 392c 3233 2c32 392c 3035  | b',346,39,23,29,05' |
048: 302c 3234 2c32 392c 3035 2c32 3436 2c31  | b'0,24,29,05,246,1' |
064: 322c 312a 3734 0d0a                      | b'2,1*74\r\n' |
<NMEA(GNRMC, time=20:24:26, status=A, lat=43.8827531333, NS=N, lon=-72.1581742667, EW=W, spd=0.662, cog=, date=2023-09-05, mv=, mvEW=, posMode=A, navStatus=V)>000: 2447 4e52 4d43 2c32 3032 3432 362e 3030  | b'$GNRMC,202426.00' |
016: 2c41 2c34 3335 322e 3936 3531 3838 302c  | b',A,4352.9651880,' |
032: 4e2c 3037 3230 392e 3439 3034 3536 302c  | b'N,07209.4904560,' |
048: 572c 302e 3636 322c 2c30 3530 3932 332c  | b'W,0.662,,050923,' |
064: 2c2c 412c 562a 3034 0d0a                 | b',,A,V*04\r\n' |
<NMEA(GNVTG, cogt=, cogtUnit=T, cogm=, cogmUnit=M, sogn=0.662, sognUnit=N, sogk=1.226, sogkUnit=K, posMode=A)>000: 2447 4e56 5447 2c2c 542c 2c4d 2c30 2e36  | b'$GNVTG,,T,,M,0.6' |
016: 3632 2c4e 2c31 2e32 3236 2c4b 2c41 2a33  | b'62,N,1.226,K,A*3' |
032: 380d 0a                                  | b'8\r\n' |
<NMEA(GNGGA, time=20:24:26, lat=43.8827531333, NS=N, lon=-72.1581742667, EW=W, quality=1, numSV=12, HDOP=0.55, alt=135.96, altUnit=M, sep=-32.547, sepUnit=M, diffAge=, diffStation=)>000: 2447 4e47 4741 2c32 3032 3432 362e 3030  | b'$GNGGA,202426.00' |
016: 2c34 3335 322e 3936 3531 3838 302c 4e2c  | b',4352.9651880,N,' |
032: 3037 3230 392e 3439 3034 3536 302c 572c  | b'07209.4904560,W,' |
048: 312c 3132 2c30 2e35 352c 3133 352e 3936  | b'1,12,0.55,135.96' |
064: 302c 4d2c 2d33 322e 3534 372c 4d2c 2c2a  | b'0,M,-32.547,M,,*' |
080: 3743 0d0a                                | b'7C\r\n' |
<NMEA(GNGSA, opMode=A, navMode=3, svid_01=25, svid_02=2, svid_03=21, svid_04=28, svid_05=12, svid_06=10, svid_07=24, svid_08=23, svid_09=32, svid_10=, svid_11=, svid_12=, PDOP=1.06, HDOP=0.55, VDOP=0.9, systemId=1)>000: 2447 4e47 5341 2c41 2c33 2c32 352c 3032  | b'$GNGSA,A,3,25,02' |
016: 2c32 312c 3238 2c31 322c 3130 2c32 342c  | b',21,28,12,10,24,' |
032: 3233 2c33 322c 2c2c 2c31 2e30 362c 302e  | b'23,32,,,,1.06,0.' |
048: 3535 2c30 2e39 302c 312a 3037 0d0a       | b'55,0.90,1*07\r\n' |
<NMEA(GNGSA, opMode=A, navMode=3, svid_01=87, svid_02=73, svid_03=80, svid_04=70, svid_05=71, svid_06=72, svid_07=74, svid_08=, svid_09=, svid_10=, svid_11=, svid_12=, PDOP=1.06, HDOP=0.55, VDOP=0.9, systemId=2)>000: 2447 4e47 5341 2c41 2c33 2c38 372c 3733  | b'$GNGSA,A,3,87,73' |
016: 2c38 302c 3730 2c37 312c 3732 2c37 342c  | b',80,70,71,72,74,' |
032: 2c2c 2c2c 2c31 2e30 362c 302e 3535 2c30  | b',,,,,1.06,0.55,0' |
048: 2e39 302c 322a 3038 0d0a                 | b'.90,2*08\r\n' |
<NMEA(GNGSA, opMode=A, navMode=3, svid_01=36, svid_02=15, svid_03=31, svid_04=34, svid_05=3, svid_06=9, svid_07=24, svid_08=5, svid_09=, svid_10=, svid_11=, svid_12=, PDOP=1.06, HDOP=0.55, VDOP=0.9, systemId=3)>000: 2447 4e47 5341 2c41 2c33 2c33 362c 3135  | b'$GNGSA,A,3,36,15' |
016: 2c33 312c 3334 2c30 332c 3039 2c32 342c  | b',31,34,03,09,24,' |
032: 3035 2c2c 2c2c 2c31 2e30 362c 302e 3535  | b'05,,,,,1.06,0.55' |
048: 2c30 2e39 302c 332a 3030 0d0a            | b',0.90,3*00\r\n' |
<NMEA(GNGSA, opMode=A, navMode=3, svid_01=37, svid_02=23, svid_03=32, svid_04=19, svid_05=20, svid_06=, svid_07=, svid_08=, svid_09=, svid_10=, svid_11=, svid_12=, PDOP=1.06, HDOP=0.55, VDOP=0.9, systemId=4)>000: 2447 4e47 5341 2c41 2c33 2c33 372c 3233  | b'$GNGSA,A,3,37,23' |
016: 2c33 322c 3139 2c32 302c 2c2c 2c2c 2c2c  | b',32,19,20,,,,,,,' |
032: 2c31 2e30 362c 302e 3535 2c30 2e39 302c  | b',1.06,0.55,0.90,' |
048: 342a 3034 0d0a                           | b'4*04\r\n' |
<NMEA(GPGSV, numMsg=3, msgNum=1, numSV=9, svid_01=2, elv_01=17.0, az_01=315, cno_01=18, svid_02=10, elv_02=85.0, az_02=216, cno_02=36, svid_03=12, elv_03=30.0, az_03=93, cno_03=25, svid_04=21, elv_04=21.0, az_04=307, cno_04=21, signalID=1)>000: 2447 5047 5356 2c33 2c31 2c30 392c 3032  | b'$GPGSV,3,1,09,02' |
016: 2c31 372c 3331 352c 3138 2c31 302c 3835  | b',17,315,18,10,85' |
032: 2c32 3136 2c33 362c 3132 2c33 302c 3039  | b',216,36,12,30,09' |
048: 332c 3235 2c32 312c 3231 2c33 3037 2c32  | b'3,25,21,21,307,2' |
064: 312c 312a 3633 0d0a                      | b'1,1*63\r\n' |
<NMEA(GPGSV, numMsg=3, msgNum=2, numSV=9, svid_01=23, elv_01=47.0, az_01=144, cno_01=26, svid_02=24, elv_02=29.0, az_02=52, cno_02=21, svid_03=25, elv_03=25.0, az_03=140, cno_03=19, svid_04=28, elv_04=28.0, az_04=220, cno_04=17, signalID=1)>000: 2447 5047 5356 2c33 2c32 2c30 392c 3233  | b'$GPGSV,3,2,09,23' |
016: 2c34 372c 3134 342c 3236 2c32 342c 3239  | b',47,144,26,24,29' |
032: 2c30 3532 2c32 312c 3235 2c32 352c 3134  | b',052,21,25,25,14' |
048: 302c 3139 2c32 382c 3238 2c32 3230 2c31  | b'0,19,28,28,220,1' |
064: 372c 312a 3639 0d0a                      | b'7,1*69\r\n' |
<NMEA(GPGSV, numMsg=3, msgNum=3, numSV=9, svid_01=32, elv_01=53.0, az_01=290, cno_01=33, signalID=1)>000: 2447 5047 5356 2c33 2c33 2c30 392c 3332  | b'$GPGSV,3,3,09,32' |
016: 2c35 332c 3239 302c 3333 2c31 2a35 310d  | b',53,290,33,1*51\r' |
032: 0a                                       | b'\n' |
<NMEA(GPGSV, numMsg=1, msgNum=1, numSV=4, svid_01=10, elv_01=85.0, az_01=216, cno_01=22, svid_02=12, elv_02=30.0, az_02=93, cno_02=17, svid_03=23, elv_03=47.0, az_03=144, cno_03=20, svid_04=32, elv_04=53.0, az_04=290, cno_04=15, signalID=6)>000: 2447 5047 5356 2c31 2c31 2c30 342c 3130  | b'$GPGSV,1,1,04,10' |
016: 2c38 352c 3231 362c 3232 2c31 322c 3330  | b',85,216,22,12,30' |
032: 2c30 3933 2c31 372c 3233 2c34 372c 3134  | b',093,17,23,47,14' |
048: 342c 3230 2c33 322c 3533 2c32 3930 2c31  | b'4,20,32,53,290,1' |
064: 352c 362a 3642 0d0a                      | b'5,6*6B\r\n' |
<NMEA(GPGSV, numMsg=2, msgNum=1, numSV=5, svid_01=15, elv_01=2.0, az_01=92, cno_01=, svid_02=18, elv_02=1.0, az_02=182, cno_02=, svid_03=31, elv_03=0.0, az_03=221, cno_03=, svid_04=44, elv_04=23.0, az_04=235, cno_04=, signalID=0)>000: 2447 5047 5356 2c32 2c31 2c30 352c 3135  | b'$GPGSV,2,1,05,15' |
016: 2c30 322c 3039 322c 2c31 382c 3031 2c31  | b',02,092,,18,01,1' |
032: 3832 2c2c 3331 2c30 302c 3232 312c 2c34  | b'82,,31,00,221,,4' |
048: 342c 3233 2c32 3335 2c2c 302a 3642 0d0a  | b'4,23,235,,0*6B\r\n' |
<NMEA(GPGSV, numMsg=2, msgNum=2, numSV=5, svid_01=44, elv_01=23.0, az_01=235, cno_01=, signalID=0)>000: 2447 5047 5356 2c32 2c32 2c30 352c 3434  | b'$GPGSV,2,2,05,44' |
016: 2c32 332c 3233 352c 2c30 2a35 350d 0a    | b',23,235,,0*55\r\n' |
<NMEA(GLGSV, numMsg=2, msgNum=1, numSV=7, svid_01=70, elv_01=47.0, az_01=82, cno_01=21, svid_02=71, elv_02=60.0, az_02=341, cno_02=36, svid_03=72, elv_03=19.0, az_03=302, cno_03=19, svid_04=73, elv_04=52.0, az_04=147, cno_04=29, signalID=1)>000: 2447 4c47 5356 2c32 2c31 2c30 372c 3730  | b'$GLGSV,2,1,07,70' |
016: 2c34 372c 3038 322c 3231 2c37 312c 3630  | b',47,082,21,71,60' |
032: 2c33 3431 2c33 362c 3732 2c31 392c 3330  | b',341,36,72,19,30' |
048: 322c 3139 2c37 332c 3532 2c31 3437 2c32  | b'2,19,73,52,147,2' |
064: 392c 312a 3743 0d0a                      | b'9,1*7C\r\n' |
<NMEA(GLGSV, numMsg=2, msgNum=2, numSV=7, svid_01=74, elv_01=15.0, az_01=181, cno_01=10, svid_02=80, elv_02=45.0, az_02=51, cno_02=31, svid_03=87, elv_03=23.0, az_03=307, cno_03=21, signalID=1)>000: 2447 4c47 5356 2c32 2c32 2c30 372c 3734  | b'$GLGSV,2,2,07,74' |
016: 2c31 352c 3138 312c 3130 2c38 302c 3435  | b',15,181,10,80,45' |
032: 2c30 3531 2c33 312c 3837 2c32 332c 3330  | b',051,31,87,23,30' |
048: 372c 3231 2c31 2a34 370d 0a              | b'7,21,1*47\r\n' |
<NMEA(GLGSV, numMsg=1, msgNum=1, numSV=3, svid_01=79, elv_01=2.0, az_01=21, cno_01=, svid_02=86, elv_02=19.0, az_02=249, cno_02=, svid_03=88, elv_03=3.0, az_03=352, cno_03=, signalID=0)>000: 2447 4c47 5356 2c31 2c31 2c30 332c 3739  | b'$GLGSV,1,1,03,79' |
016: 2c30 322c 3032 312c 2c38 362c 3139 2c32  | b',02,021,,86,19,2' |
032: 3439 2c2c 3838 2c30 332c 3335 322c 2c30  | b'49,,88,03,352,,0' |
048: 2a34 420d 0a                             | b'*4B\r\n' |
<NMEA(GAGSV, numMsg=1, msgNum=1, numSV=1, svid_01=9, elv_01=56.0, az_01=66, cno_01=19, signalID=2)>000: 2447 4147 5356 2c31 2c31 2c30 312c 3039  | b'$GAGSV,1,1,01,09' |
016: 2c35 362c 3036 362c 3139 2c32 2a34 350d  | b',56,066,19,2*45\r' |
032: 0a                                       | b'\n' |
<NMEA(GAGSV, numMsg=2, msgNum=1, numSV=8, svid_01=3, elv_01=11.0, az_01=274, cno_01=11, svid_02=5, elv_02=60.0, az_02=296, cno_02=31, svid_03=9, elv_03=56.0, az_03=66, cno_03=29, svid_04=15, elv_04=18.0, az_04=321, cno_04=20, signalID=7)>000: 2447 4147 5356 2c32 2c31 2c30 382c 3033  | b'$GAGSV,2,1,08,03' |
016: 2c31 312c 3237 342c 3131 2c30 352c 3630  | b',11,274,11,05,60' |
032: 2c32 3936 2c33 312c 3039 2c35 362c 3036  | b',296,31,09,56,06' |
048: 362c 3239 2c31 352c 3138 2c33 3231 2c32  | b'6,29,15,18,321,2' |
064: 302c 372a 3738 0d0a                      | b'0,7*78\r\n' |
<NMEA(GAGSV, numMsg=2, msgNum=2, numSV=8, svid_01=24, elv_01=24.0, az_01=144, cno_01=22, svid_02=31, elv_02=35.0, az_02=87, cno_02=23, svid_03=34, elv_03=38.0, az_03=267, cno_03=31, svid_04=36, elv_04=22.0, az_04=209, cno_04=18, signalID=7)>000: 2447 4147 5356 2c32 2c32 2c30 382c 3234  | b'$GAGSV,2,2,08,24' |
016: 2c32 342c 3134 342c 3232 2c33 312c 3335  | b',24,144,22,31,35' |
032: 2c30 3837 2c32 332c 3334 2c33 382c 3236  | b',087,23,34,38,26' |
048: 372c 3331 2c33 362c 3232 2c32 3039 2c31  | b'7,31,36,22,209,1' |
064: 382c 372a 3741 0d0a                      | b'8,7*7A\r\n' |
<NMEA(GAGSV, numMsg=1, msgNum=1, numSV=1, svid_01=4, elv_01=8.0, az_01=85, cno_01=, signalID=0)>000: 2447 4147 5356 2c31 2c31 2c30 312c 3034  | b'$GAGSV,1,1,01,04' |
016: 2c30 382c 3038 352c 2c30 2a34 340d 0a    | b',08,085,,0*44\r\n' |
<NMEA(GBGSV, numMsg=2, msgNum=1, numSV=8, svid_01=19, elv_01=30.0, az_01=302, cno_01=25, svid_02=20, elv_02=78.0, az_02=346, cno_02=39, svid_03=23, elv_03=29.0, az_03=50, cno_03=23, svid_04=29, elv_04=5.0, az_04=246, cno_04=12, signalID=1)>000: 2447 4247 5356 2c32 2c31 2c30 382c 3139  | b'$GBGSV,2,1,08,19' |
016: 2c33 302c 3330 322c 3235 2c32 302c 3738  | b',30,302,25,20,78' |
032: 2c33 3436 2c33 392c 3233 2c32 392c 3035  | b',346,39,23,29,05' |
048: 302c 3233 2c32 392c 3035 2c32 3436 2c31  | b'0,23,29,05,246,1' |
064: 322c 312a 3735 0d0a                      | b'2,1*75\r\n' |
<NMEA(GBGSV, numMsg=2, msgNum=2, numSV=8, svid_01=31, elv_01=, az_01=, cno_01=30, svid_02=32, elv_02=38.0, az_02=109, cno_02=30, svid_03=35, elv_03=9.0, az_03=298, cno_03=10, svid_04=37, elv_04=61.0, az_04=118, cno_04=35, signalID=1)>000: 2447 4247 5356 2c32 2c32 2c30 382c 3331  | b'$GBGSV,2,2,08,31' |
016: 2c2c 2c33 302c 3332 2c33 382c 3130 392c  | b',,,30,32,38,109,' |
032: 3330 2c33 352c 3039 2c32 3938 2c31 302c  | b'30,35,09,298,10,' |
048: 3337 2c36 312c 3131 382c 3335 2c31 2a34  | b'37,61,118,35,1*4' |
064: 450d 0a                                  | b'E\r\n' |
<NMEA(GBGSV, numMsg=1, msgNum=1, numSV=1, svid_01=29, elv_01=5.0, az_01=246, cno_01=9, signalID=3)>000: 2447 4247 5356 2c31 2c31 2c30 312c 3239  | b'$GBGSV,1,1,01,29' |
016: 2c30 352c 3234 362c 3039 2c33 2a34 320d  | b',05,246,09,3*42\r' |
032: 0a                                       | b'\n' |
<NMEA(GNGLL, lat=43.8827531333, NS=N, lon=-72.1581742667, EW=W, time=20:24:26, status=A, posMode=A)>000: 2447 4e47 4c4c 2c34 3335 322e 3936 3531  | b'$GNGLL,4352.9651' |
016: 3838 302c 4e2c 3037 3230 392e 3439 3034  | b'880,N,07209.4904' |
032: 3536 302c 572c 3230 3234 3236 2e30 302c  | b'560,W,202426.00,' |
048: 412c 412a 3638 0d0a                      | b'A,A*68\r\n' |
<NMEA(GNTXT, numMsg=1, msgNum=1, msgType=0, text=txbuf alloc)>000: 2447 4e54 5854 2c30 312c 3031 2c30 302c  | b'$GNTXT,01,01,00,' |
016: 7478 6275 6620 616c 6c6f 632a 3631 0d0a  | b'txbuf alloc*61\r\n' |
<NMEA(GNRMC, time=20:24:26.250000, status=A, lat=43.8827528333, NS=N, lon=-72.15817354, EW=W, spd=0.536, cog=, date=2023-09-05, mv=, mvEW=, posMode=A, navStatus=V)>000: 2447 4e52 4d43 2c32 3032 3432 362e 3235  | b'$GNRMC,202426.25' |
016: 2c41 2c34 3335 322e 3936 3531 3730 302c  | b',A,4352.9651700,' |
032: 4e2c 3037 3230 392e 3439 3034 3132 342c  | b'N,07209.4904124,' |
048: 572c 302e 3533 362c 2c30 3530 3932 332c  | b'W,0.536,,050923,' |
064: 2c2c 412c 562a 3032 0d0a                 | b',,A,V*02\r\n' |
<NMEA(GNVTG, cogt=, cogtUnit=T, cogm=, cogmUnit=M, sogn=0.536, sognUnit=N, sogk=0.992, sogkUnit=K, posMode=A)>000: 2447 4e56 5447 2c2c 542c 2c4d 2c30 2e35  | b'$GNVTG,,T,,M,0.5' |
016: 3336 2c4e 2c30 2e39 3932 2c4b 2c41 2a33  | b'36,N,0.992,K,A*3' |
032: 460d 0a                                  | b'F\r\n' |
<NMEA(GNGGA, time=20:24:26.250000, lat=43.8827528333, NS=N, lon=-72.15817354, EW=W, quality=1, numSV=12, HDOP=0.55, alt=135.971, altUnit=M, sep=-32.547, sepUnit=M, diffAge=, diffStation=)>000: 2447 4e47 4741 2c32 3032 3432 362e 3235  | b'$GNGGA,202426.25' |
016: 2c34 3335 322e 3936 3531 3730 302c 4e2c  | b',4352.9651700,N,' |
032: 3037 3230 392e 3439 3034 3132 342c 572c  | b'07209.4904124,W,' |
048: 312c 3132 2c30 2e35 352c 3133 352e 3937  | b'1,12,0.55,135.97' |
064: 312c 4d2c 2d33 322e 3534 372c 4d2c 2c2a  | b'1,M,-32.547,M,,*' |
080: 3738 0d0a                                | b'78\r\n' |
<NMEA(GNGSA, opMode=A, navMode=3, svid_01=25, svid_02=2, svid_03=21, svid_04=28, svid_05=12, svid_06=10, svid_07=24, svid_08=23, svid_09=32, svid_10=, svid_11=, svid_12=, PDOP=1.06, HDOP=0.55, VDOP=0.9, systemId=1)>000: 2447 4e47 5341 2c41 2c33 2c32 352c 3032  | b'$GNGSA,A,3,25,02' |
016: 2c32 312c 3238 2c31 322c 3130 2c32 342c  | b',21,28,12,10,24,' |
032: 3233 2c33 322c 2c2c 2c31 2e30 362c 302e  | b'23,32,,,,1.06,0.' |
048: 3535 2c30 2e39 302c 312a 3037 0d0a       | b'55,0.90,1*07\r\n' |
<NMEA(GNGSA, opMode=A, navMode=3, svid_01=87, svid_02=73, svid_03=80, svid_04=70, svid_05=71, svid_06=72, svid_07=74, svid_08=, svid_09=, svid_10=, svid_11=, svid_12=, PDOP=1.06, HDOP=0.55, VDOP=0.9, systemId=2)>000: 2447 4e47 5341 2c41 2c33 2c38 372c 3733  | b'$GNGSA,A,3,87,73' |
016: 2c38 302c 3730 2c37 312c 3732 2c37 342c  | b',80,70,71,72,74,' |
032: 2c2c 2c2c 2c31 2e30 362c 302e 3535 2c30  | b',,,,,1.06,0.55,0' |
048: 2e39 302c 322a 3038 0d0a                 | b'.90,2*08\r\n' |
<NMEA(GNGSA, opMode=A, navMode=3, svid_01=36, svid_02=15, svid_03=31, svid_04=34, svid_05=3, svid_06=9, svid_07=24, svid_08=5, svid_09=, svid_10=, svid_11=, svid_12=, PDOP=1.06, HDOP=0.55, VDOP=0.9, systemId=3)>000: 2447 4e47 5341 2c41 2c33 2c33 362c 3135  | b'$GNGSA,A,3,36,15' |
016: 2c33 312c 3334 2c30 332c 3039 2c32 342c  | b',31,34,03,09,24,' |
032: 3035 2c2c 2c2c 2c31 2e30 362c 302e 3535  | b'05,,,,,1.06,0.55' |
048: 2c30 2e39 302c 332a 3030 0d0a            | b',0.90,3*00\r\n' |
<NMEA(GNGSA, opMode=A, navMode=3, svid_01=37, svid_02=23, svid_03=32, svid_04=19, svid_05=20, svid_06=, svid_07=, svid_08=, svid_09=, svid_10=, svid_11=, svid_12=, PDOP=1.06, HDOP=0.55, VDOP=0.9, systemId=4)>000: 2447 4e47 5341 2c41 2c33 2c33 372c 3233  | b'$GNGSA,A,3,37,23' |
016: 2c33 322c 3139 2c32 302c 2c2c 2c2c 2c2c  | b',32,19,20,,,,,,,' |
032: 2c31 2e30 362c 302e 3535 2c30 2e39 302c  | b',1.06,0.55,0.90,' |
048: 342a 3034 0d0a                           | b'4*04\r\n' |
<NMEA(GPGSV, numMsg=3, msgNum=1, numSV=9, svid_01=2, elv_01=17.0, az_01=315, cno_01=18, svid_02=10, elv_02=85.0, az_02=216, cno_02=36, svid_03=12, elv_03=30.0, az_03=93, cno_03=24, svid_04=21, elv_04=21.0, az_04=307, cno_04=22, signalID=1)>000: 2447 5047 5356 2c33 2c31 2c30 392c 3032  | b'$GPGSV,3,1,09,02' |
016: 2c31 372c 3331 352c 3138 2c31 302c 3835  | b',17,315,18,10,85' |
032: 2c32 3136 2c33 362c 3132 2c33 302c 3039  | b',216,36,12,30,09' |
048: 332c 3234 2c32 312c 3231 2c33 3037 2c32  | b'3,24,21,21,307,2' |
064: 322c 312a 3631 0d0a                      | b'2,1*61\r\n' |
<NMEA(GPGSV, numMsg=3, msgNum=2, numSV=9, svid_01=23, elv_01=47.0, az_01=144, cno_01=25, svid_02=24, elv_02=29.0, az_02=52, cno_02=20, svid_03=25, elv_03=25.0, az_03=140, cno_03=19, svid_04=28, elv_04=28.0, az_04=220, cno_04=16, signalID=1)>000: 2447 5047 5356 2c33 2c32 2c30 392c 3233  | b'$GPGSV,3,2,09,23' |
016: 2c34 372c 3134 342c 3235 2c32 342c 3239  | b',47,144,25,24,29' |
032: 2c30 3532 2c32 302c 3235 2c32 352c 3134  | b',052,20,25,25,14' |
048: 302c 3139 2c32 382c 3238 2c32 3230 2c31  | b'0,19,28,28,220,1' |
064: 362c 312a 3641 0d0a                      | b'6,1*6A\r\n' |
<NMEA(GPGSV, numMsg=3, msgNum=3, numSV=9, svid_01=32, elv_01=54.0, az_01=291, cno_01=29, signalID=1)>000: 2447 5047 5356 2c33 2c33 2c30 392c 3332  | b'$GPGSV,3,3,09,32' |
016: 2c35 342c 3239 312c 3239 2c31 2a35 430d  | b',54,291,29,1*5C\r' |
032: 0a                                       | b'\n' |
<NMEA(GPGSV, numMsg=1, msgNum=1, numSV=1, svid_01=28, elv_01=28.0, az_01=220, cno_01=15, signalID=5)>000: 2447 5047 5356 2c31 2c31 2c30 312c 3238  | b'$GPGSV,1,1,01,28' |
016: 2c32 382c 3232 302c 3135 2c35 2a35 350d  | b',28,220,15,5*55\r' |
032: 0a                                       | b'\n' |
<NMEA(GPGSV, numMsg=1, msgNum=1, numSV=4, svid_01=10, elv_01=85.0, az_01=216, cno_01=22, svid_02=12, elv_02=30.0, az_02=93, cno_02=17, svid_03=23, elv_03=47.0, az_03=144, cno_03=20, svid_04=32, elv_04=54.0, az_04=291, cno_04=15, signalID=6)>000: 2447 5047 5356 2c31 2c31 2c30 342c 3130  | b'$GPGSV,1,1,04,10' |
016: 2c38 352c 3231 362c 3232 2c31 322c 3330  | b',85,216,22,12,30' |
032: 2c30 3933 2c31 372c 3233 2c34 372c 3134  | b',093,17,23,47,14' |
048: 342c 3230 2c33 322c 3534 2c32 3931 2c31  | b'4,20,32,54,291,1' |
064: 352c 362a 3644 0d0a                      | b'5,6*6D\r\n' |
<NMEA(GPGSV, numMsg=2, msgNum=1, numSV=5, svid_01=15, elv_01=2.0, az_01=92, cno_01=, svid_02=18, elv_02=1.0, az_02=182, cno_02=, svid_03=31, elv_03=0.0, az_03=221, cno_03=, svid_04=44, elv_04=23.0, az_04=235, cno_04=, signalID=0)>000: 2447 5047 5356 2c32 2c31 2c30 352c 3135  | b'$GPGSV,2,1,05,15' |
016: 2c30 322c 3039 322c 2c31 382c 3031 2c31  | b',02,092,,18,01,1' |
032: 3832 2c2c 3331 2c30 302c 3232 312c 2c34  | b'82,,31,00,221,,4' |
048: 342c 3233 2c32 3335 2c2c 302a 3642 0d0a  | b'4,23,235,,0*6B\r\n' |
<NMEA(GPGSV, numMsg=2, msgNum=2, numSV=5, svid_01=44, elv_01=23.0, az_01=235, cno_01=, signalID=0)>000: 2447 5047 5356 2c32 2c32 2c30 352c 3434  | b'$GPGSV,2,2,05,44' |
016: 2c32 332c 3233 352c 2c30 2a35 350d 0a    | b',23,235,,0*55\r\n' |
<NMEA(GLGSV, numMsg=2, msgNum=1, numSV=7, svid_01=70, elv_01=47.0, az_01=82, cno_01=20, svid_02=71, elv_02=60.0, az_02=341, cno_02=36, svid_03=72, elv_03=19.0, az_03=302, cno_03=19, svid_04=73, elv_04=52.0, az_04=147, cno_04=29, signalID=1)>000: 2447 4c47 5356 2c32 2c31 2c30 372c 3730  | b'$GLGSV,2,1,07,70' |
016: 2c34 372c 3038 322c 3230 2c37 312c 3630  | b',47,082,20,71,60' |
032: 2c33 3431 2c33 362c 3732 2c31 392c 3330  | b',341,36,72,19,30' |
048: 322c 3139 2c37 332c 3532 2c31 3437 2c32  | b'2,19,73,52,147,2' |
064: 392c 312a 3744 0d0a                      | b'9,1*7D\r\n' |
<NMEA(GLGSV, numMsg=2, msgNum=2, numSV=7, svid_01=74, elv_01=15.0, az_01=181, cno_01=11, svid_02=80, elv_02=45.0, az_02=51, cno_02=25, svid_03=87, elv_03=23.0, az_03=307, cno_03=21, signalID=1)>000: 2447 4c47 5356 2c32 2c32 2c30 372c 3734  | b'$GLGSV,2,2,07,74' |
016: 2c31 352c 3138 312c 3131 2c38 302c 3435  | b',15,181,11,80,45' |
032: 2c30 3531 2c32 352c 3837 2c32 332c 3330  | b',051,25,87,23,30' |
048: 372c 3231 2c31 2a34 330d 0a              | b'7,21,1*43\r\n' |
<NMEA(GLGSV, numMsg=1, msgNum=1, numSV=3, svid_01=79, elv_01=2.0, az_01=21, cno_01=, svid_02=86, elv_02=19.0, az_02=249, cno_02=, svid_03=88, elv_03=3.0, az_03=352, cno_03=, signalID=0)>000: 2447 4c47 5356 2c31 2c31 2c30 332c 3739  | b'$GLGSV,1,1,03,79' |
016: 2c30 322c 3032 312c 2c38 362c 3139 2c32  | b',02,021,,86,19,2' |
032: 3439 2c2c 3838 2c30 332c 3335 322c 2c30  | b'49,,88,03,352,,0' |
048: 2a34 420d 0a                             | b'*4B\r\n' |
<NMEA(GAGSV, numMsg=1, msgNum=1, numSV=2, svid_01=5, elv_01=60.0, az_01=296, cno_01=18, svid_02=9, elv_02=56.0, az_02=66, cno_02=20, signalID=2)>000: 2447 4147 5356 2c31 2c31 2c30 322c 3035  | b'$GAGSV,1,1,02,05' |
016: 2c36 302c 3239 362c 3138 2c30 392c 3536  | b',60,296,18,09,56' |
032: 2c30 3636 2c32 302c 322a 3742 0d0a       | b',066,20,2*7B\r\n' |
<NMEA(GAGSV, numMsg=2, msgNum=1, numSV=8, svid_01=3, elv_01=11.0, az_01=274, cno_01=8, svid_02=5, elv_02=60.0, az_02=296, cno_02=31, svid_03=9, elv_03=56.0, az_03=66, cno_03=33, svid_04=15, elv_04=18.0, az_04=321, cno_04=20, signalID=7)>000: 2447 4147 5356 2c32 2c31 2c30 382c 3033  | b'$GAGSV,2,1,08,03' |
016: 2c31 312c 3237 342c 3038 2c30 352c 3630  | b',11,274,08,05,60' |
032: 2c32 3936 2c33 312c 3039 2c35 362c 3036  | b',296,31,09,56,06' |
048: 362c 3333 2c31 352c 3138 2c33 3231 2c32  | b'6,33,15,18,321,2' |
064: 302c 372a 3742 0d0a                      | b'0,7*7B\r\n' |
<NMEA(GAGSV, numMsg=2, msgNum=2, numSV=8, svid_01=24, elv_01=24.0, az_01=144, cno_01=21, svid_02=31, elv_02=35.0, az_02=87, cno_02=24, svid_03=34, elv_03=38.0, az_03=267, cno_03=26, svid_04=36, elv_04=22.0, az_04=209, cno_04=18, signalID=7)>000: 2447 4147 5356 2c32 2c32 2c30 382c 3234  | b'$GAGSV,2,2,08,24' |
016: 2c32 342c 3134 342c 3231 2c33 312c 3335  | b',24,144,21,31,35' |
032: 2c30 3837 2c32 342c 3334 2c33 382c 3236  | b',087,24,34,38,26' |
048: 372c 3236 2c33 362c 3232 2c32 3039 2c31  | b'7,26,36,22,209,1' |
064: 382c 372a 3738 0d0a                      | b'8,7*78\r\n' |
<NMEA(GAGSV, numMsg=1, msgNum=1, numSV=1, svid_01=4, elv_01=8.0, az_01=85, cno_01=, signalID=0)>000: 2447 4147 5356 2c31 2c31 2c30 312c 3034  | b'$GAGSV,1,1,01,04' |
016: 2c30 382c 3038 352c 2c30 2a34 340d 0a    | b',08,085,,0*44\r\n' |
<NMEA(GBGSV, numMsg=2, msgNum=1, numSV=8, svid_01=19, elv_01=30.0, az_01=302, cno_01=26, svid_02=20, elv_02=78.0, az_02=346, cno_02=39, svid_03=23, elv_03=29.0, az_03=50, cno_03=23, svid_04=29, elv_04=5.0, az_04=246, cno_04=12, signalID=1)>000: 2447 4247 5356 2c32 2c31 2c30 382c 3139  | b'$GBGSV,2,1,08,19' |
016: 2c33 302c 3330 322c 3236 2c32 302c 3738  | b',30,302,26,20,78' |
032: 2c33 3436 2c33 392c 3233 2c32 392c 3035  | b',346,39,23,29,05' |
048: 302c 3233 2c32 392c 3035 2c32 3436 2c31  | b'0,23,29,05,246,1' |
064: 322c 312a 3736 0d0a                      | b'2,1*76\r\n' |
<NMEA(GBGSV, numMsg=2, msgNum=2, numSV=8, svid_01=31, elv_01=, az_01=, cno_01=30, svid_02=32, elv_02=38.0, az_02=109, cno_02=29, svid_03=35, elv_03=9.0, az_03=298, cno_03=9, svid_04=37, elv_04=61.0, az_04=118, cno_04=35, signalID=1)>000: 2447 4247 5356 2c32 2c32 2c30 382c 3331  | b'$GBGSV,2,2,08,31' |
016: 2c2c 2c33 302c 3332 2c33 382c 3130 392c  | b',,,30,32,38,109,' |
032: 3239 2c33 352c 3039 2c32 3938 2c30 392c  | b'29,35,09,298,09,' |
048: 3337 2c36 312c 3131 382c 3335 2c31 2a34  | b'37,61,118,35,1*4' |
064: 450d 0a                                  | b'E\r\n' |
<NMEA(GBGSV, numMsg=1, msgNum=1, numSV=1, svid_01=29, elv_01=5.0, az_01=246, cno_01=9, signalID=3)>000: 2447 4247 5356 2c31 2c31 2c30 312c 3239  | b'$GBGSV,1,1,01,29' |
016: 2c30 352c 3234 362c 3039 2c33 2a34 320d  | b',05,246,09,3*42\r' |
032: 0a                                       | b'\n' |
<NMEA(GNGLL, lat=43.8827528333, NS=N, lon=-72.15817354, EW=W, time=20:24:26.250000, status=A, posMode=A)>000: 2447 4e47 4c4c 2c34 3335 322e 3936 3531  | b'$GNGLL,4352.9651' |
016: 3730 302c 4e2c 3037 3230 392e 3439 3034  | b'700,N,07209.4904' |
032: 3132 342c 572c 3230 3234 3236 2e32 352c  | b'124,W,202426.25,' |
048: 412c 412a 3643 0d0a                      | b'A,A*6C\r\n' |
<NMEA(GNRMC, time=20:24:26.500000, status=A, lat=43.8827525783, NS=N, lon=-72.1581726433, EW=W, spd=0.521, cog=, date=2023-09-05, mv=, mvEW=, posMode=A, navStatus=V)>000: 2447 4e52 4d43 2c32 3032 3432 362e 3530  | b'$GNRMC,202426.50' |
016: 2c41 2c34 3335 322e 3936 3531 3534 372c  | b',A,4352.9651547,' |
032: 4e2c 3037 3230 392e 3439 3033 3538 362c  | b'N,07209.4903586,' |
048: 572c 302e 3532 312c 2c30 3530 3932 332c  | b'W,0.521,,050923,' |
064: 2c2c 412c 562a 3043 0d0a                 | b',,A,V*0C\r\n' |
<NMEA(GNVTG, cogt=, cogtUnit=T, cogm=, cogmUnit=M, sogn=0.521, sognUnit=N, sogk=0.965, sogkUnit=K, posMode=A)>000: 2447 4e56 5447 2c2c 542c 2c4d 2c30 2e35  | b'$GNVTG,,T,,M,0.5' |
016: 3231 2c4e 2c30 2e39 3635 2c4b 2c41 2a33  | b'21,N,0.965,K,A*3' |
032: 310d 0a                                  | b'1\r\n' |
<NMEA(GNGGA, time=20:24:26.500000, lat=43.8827525783, NS=N, lon=-72.1581726433, EW=W, quality=1, numSV=12, HDOP=0.55, alt=136.02, altUnit=M, sep=-32.547, sepUnit=M, diffAge=, diffStation=)>000: 2447 4e47 4741 2c32 3032 3432 362e 3530  | b'$GNGGA,202426.50' |
016: 2c34 3335 322e 3936 3531 3534 372c 4e2c  | b',4352.9651547,N,' |
032: 3037 3230 392e 3439 3033 3538 362c 572c  | b'07209.4903586,W,' |
048: 312c 3132 2c30 2e35 352c 3133 362e 3032  | b'1,12,0.55,136.02' |
064: 302c 4d2c 2d33 322e 3534 372c 4d2c 2c2a  | b'0,M,-32.547,M,,*' |
080: 3745 0d0a                                | b'7E\r\n' |
<NMEA(GNGSA, opMode=A, navMode=3, svid_01=25, svid_02=2, svid_03=21, svid_04=28, svid_05=12, svid_06=10, svid_07=24, svid_08=23, svid_09=32, svid_10=, svid_11=, svid_12=, PDOP=1.06, HDOP=0.55, VDOP=0.9, systemId=1)>000: 2447 4e47 5341 2c41 2c33 2c32 352c 3032  | b'$GNGSA,A,3,25,02' |
016: 2c32 312c 3238 2c31 322c 3130 2c32 342c  | b',21,28,12,10,24,' |
032: 3233 2c33 322c 2c2c 2c31 2e30 362c 302e  | b'23,32,,,,1.06,0.' |
048: 3535 2c30 2e39 302c 312a 3037 0d0a       | b'55,0.90,1*07\r\n' |
<NMEA(GNGSA, opMode=A, navMode=3, svid_01=87, svid_02=73, svid_03=80, svid_04=70, svid_05=71, svid_06=72, svid_07=74, svid_08=, svid_09=, svid_10=, svid_11=, svid_12=, PDOP=1.06, HDOP=0.55, VDOP=0.9, systemId=2)>000: 2447 4e47 5341 2c41 2c33 2c38 372c 3733  | b'$GNGSA,A,3,87,73' |
016: 2c38 302c 3730 2c37 312c 3732 2c37 342c  | b',80,70,71,72,74,' |
032: 2c2c 2c2c 2c31 2e30 362c 302e 3535 2c30  | b',,,,,1.06,0.55,0' |
048: 2e39 302c 322a 3038 0d0a                 | b'.90,2*08\r\n' |
<NMEA(GNGSA, opMode=A, navMode=3, svid_01=36, svid_02=15, svid_03=31, svid_04=34, svid_05=3, svid_06=9, svid_07=24, svid_08=5, svid_09=, svid_10=, svid_11=, svid_12=, PDOP=1.06, HDOP=0.55, VDOP=0.9, systemId=3)>000: 2447 4e47 5341 2c41 2c33 2c33 362c 3135  | b'$GNGSA,A,3,36,15' |
016: 2c33 312c 3334 2c30 332c 3039 2c32 342c  | b',31,34,03,09,24,' |
032: 3035 2c2c 2c2c 2c31 2e30 362c 302e 3535  | b'05,,,,,1.06,0.55' |
048: 2c30 2e39 302c 332a 3030 0d0a            | b',0.90,3*00\r\n' |
<NMEA(GNGSA, opMode=A, navMode=3, svid_01=37, svid_02=23, svid_03=32, svid_04=19, svid_05=20, svid_06=, svid_07=, svid_08=, svid_09=, svid_10=, svid_11=, svid_12=, PDOP=1.06, HDOP=0.55, VDOP=0.9, systemId=4)>000: 2447 4e47 5341 2c41 2c33 2c33 372c 3233  | b'$GNGSA,A,3,37,23' |
016: 2c33 322c 3139 2c32 302c 2c2c 2c2c 2c2c  | b',32,19,20,,,,,,,' |
032: 2c31 2e30 362c 302e 3535 2c30 2e39 302c  | b',1.06,0.55,0.90,' |
048: 342a 3034 0d0a                           | b'4*04\r\n' |
<NMEA(GPGSV, numMsg=3, msgNum=1, numSV=9, svid_01=2, elv_01=17.0, az_01=315, cno_01=18, svid_02=10, elv_02=85.0, az_02=216, cno_02=36, svid_03=12, elv_03=30.0, az_03=93, cno_03=23, svid_04=21, elv_04=21.0, az_04=307, cno_04=21, signalID=1)>000: 2447 5047 5356 2c33 2c31 2c30 392c 3032  | b'$GPGSV,3,1,09,02' |
016: 2c31 372c 3331 352c 3138 2c31 302c 3835  | b',17,315,18,10,85' |
032: 2c32 3136 2c33 362c 3132 2c33 302c 3039  | b',216,36,12,30,09' |
048: 332c 3233 2c32 312c 3231 2c33 3037 2c32  | b'3,23,21,21,307,2' |
064: 312c 312a 3635 0d0a                      | b'1,1*65\r\n' |
<NMEA(GPGSV, numMsg=3, msgNum=2, numSV=9, svid_01=23, elv_01=47.0, az_01=144, cno_01=24, svid_02=24, elv_02=29.0, az_02=52, cno_02=19, svid_03=25, elv_03=25.0, az_03=140, cno_03=19, svid_04=28, elv_04=28.0, az_04=220, cno_04=16, signalID=1)>000: 2447 5047 5356 2c33 2c32 2c30 392c 3233  | b'$GPGSV,3,2,09,23' |
016: 2c34 372c 3134 342c 3234 2c32 342c 3239  | b',47,144,24,24,29' |
032: 2c30 3532 2c31 392c 3235 2c32 352c 3134  | b',052,19,25,25,14' |
048: 302c 3139 2c32 382c 3238 2c32 3230 2c31  | b'0,19,28,28,220,1' |
064: 362c 312a 3631 0d0a                      | b'6,1*61\r\n' |
<NMEA(GPGSV, numMsg=3, msgNum=3, numSV=9, svid_01=32, elv_01=54.0, az_01=291, cno_01=29, signalID=1)>000: 2447 5047 5356 2c33 2c33 2c30 392c 3332  | b'$GPGSV,3,3,09,32' |
016: 2c35 342c 3239 312c 3239 2c31 2a35 430d  | b',54,291,29,1*5C\r' |
032: 0a                                       | b'\n' |
<NMEA(GPGSV, numMsg=1, msgNum=1, numSV=1, svid_01=28, elv_01=28.0, az_01=220, cno_01=15, signalID=5)>000: 2447 5047 5356 2c31 2c31 2c30 312c 3238  | b'$GPGSV,1,1,01,28' |
016: 2c32 382c 3232 302c 3135 2c35 2a35 350d  | b',28,220,15,5*55\r' |
032: 0a                                       | b'\n' |
<NMEA(GPGSV, numMsg=1, msgNum=1, numSV=4, svid_01=10, elv_01=85.0, az_01=216, cno_01=23, svid_02=12, elv_02=30.0, az_02=93, cno_02=17, svid_03=23, elv_03=47.0, az_03=144, cno_03=20, svid_04=32, elv_04=54.0, az_04=291, cno_04=15, signalID=6)>000: 2447 5047 5356 2c31 2c31 2c30 342c 3130  | b'$GPGSV,1,1,04,10' |
016: 2c38 352c 3231 362c 3233 2c31 322c 3330  | b',85,216,23,12,30' |
032: 2c30 3933 2c31 372c 3233 2c34 372c 3134  | b',093,17,23,47,14' |
048: 342c 3230 2c33 322c 3534 2c32 3931 2c31  | b'4,20,32,54,291,1' |
064: 352c 362a 3643 0d0a                      | b'5,6*6C\r\n' |
<NMEA(GPGSV, numMsg=2, msgNum=1, numSV=5, svid_01=15, elv_01=2.0, az_01=92, cno_01=, svid_02=18, elv_02=1.0, az_02=182, cno_02=, svid_03=31, elv_03=0.0, az_03=221, cno_03=, svid_04=44, elv_04=23.0, az_04=235, cno_04=, signalID=0)>000: 2447 5047 5356 2c32 2c31 2c30 352c 3135  | b'$GPGSV,2,1,05,15' |
016: 2c30 322c 3039 322c 2c31 382c 3031 2c31  | b',02,092,,18,01,1' |
032: 3832 2c2c 3331 2c30 302c 3232 312c 2c34  | b'82,,31,00,221,,4' |
048: 342c 3233 2c32 3335 2c2c 302a 3642 0d0a  | b'4,23,235,,0*6B\r\n' |
<NMEA(GPGSV, numMsg=2, msgNum=2, numSV=5, svid_01=44, elv_01=23.0, az_01=235, cno_01=, signalID=0)>000: 2447 5047 5356 2c32 2c32 2c30 352c 3434  | b'$GPGSV,2,2,05,44' |
016: 2c32 332c 3233 352c 2c30 2a35 350d 0a    | b',23,235,,0*55\r\n' |
<NMEA(GLGSV, numMsg=2, msgNum=1, numSV=7, svid_01=70, elv_01=47.0, az_01=82, cno_01=20, svid_02=71, elv_02=60.0, az_02=341, cno_02=36, svid_03=72, elv_03=19.0, az_03=302, cno_03=18, svid_04=73, elv_04=52.0, az_04=147, cno_04=29, signalID=1)>000: 2447 4c47 5356 2c32 2c31 2c30 372c 3730  | b'$GLGSV,2,1,07,70' |
016: 2c34 372c 3038 322c 3230 2c37 312c 3630  | b',47,082,20,71,60' |
032: 2c33 3431 2c33 362c 3732 2c31 392c 3330  | b',341,36,72,19,30' |
048: 322c 3138 2c37 332c 3532 2c31 3437 2c32  | b'2,18,73,52,147,2' |
064: 392c 312a 3743 0d0a                      | b'9,1*7C\r\n' |
<NMEA(GLGSV, numMsg=2, msgNum=2, numSV=7, svid_01=74, elv_01=15.0, az_01=181, cno_01=10, svid_02=80, elv_02=45.0, az_02=51, cno_02=25, svid_03=87, elv_03=23.0, az_03=307, cno_03=21, signalID=1)>000: 2447 4c47 5356 2c32 2c32 2c30 372c 3734  | b'$GLGSV,2,2,07,74' |
016: 2c31 352c 3138 312c 3130 2c38 302c 3435  | b',15,181,10,80,45' |
032: 2c30 3531 2c32 352c 3837 2c32 332c 3330  | b',051,25,87,23,30' |
048: 372c 3231 2c31 2a34 320d 0a              | b'7,21,1*42\r\n' |
<NMEA(GLGSV, numMsg=1, msgNum=1, numSV=3, svid_01=79, elv_01=2.0, az_01=21, cno_01=, svid_02=86, elv_02=19.0, az_02=249, cno_02=, svid_03=88, elv_03=3.0, az_03=352, cno_03=, signalID=0)>000: 2447 4c47 5356 2c31 2c31 2c30 332c 3739  | b'$GLGSV,1,1,03,79' |
016: 2c30 322c 3032 312c 2c38 362c 3139 2c32  | b',02,021,,86,19,2' |
032: 3439 2c2c 3838 2c30 332c 3335 322c 2c30  | b'49,,88,03,352,,0' |
048: 2a34 420d 0a                             | b'*4B\r\n' |
<NMEA(GAGSV, numMsg=1, msgNum=1, numSV=1, svid_01=9, elv_01=56.0, az_01=66, cno_01=21, signalID=2)>000: 2447 4147 5356 2c31 2c31 2c30 312c 3039  | b'$GAGSV,1,1,01,09' |
016: 2c35 362c 3036 362c 3231 2c32 2a34 450d  | b',56,066,21,2*4E\r' |
032: 0a                                       | b'\n' |
<NMEA(GAGSV, numMsg=2, msgNum=1, numSV=8, svid_01=3, elv_01=11.0, az_01=274, cno_01=8, svid_02=5, elv_02=60.0, az_02=296, cno_02=25, svid_03=9, elv_03=56.0, az_03=66, cno_03=33, svid_04=15, elv_04=18.0, az_04=321, cno_04=19, signalID=7)>000: 2447 4147 5356 2c32 2c31 2c30 382c 3033  | b'$GAGSV,2,1,08,03' |
016: 2c31 312c 3237 342c 3038 2c30 352c 3630  | b',11,274,08,05,60' |
032: 2c32 3936 2c32 352c 3039 2c35 362c 3036  | b',296,25,09,56,06' |
048: 362c 3333 2c31 352c 3138 2c33 3231 2c31  | b'6,33,15,18,321,1' |
064: 392c 372a 3734 0d0a                      | b'9,7*74\r\n' |
<NMEA(GAGSV, numMsg=2, msgNum=2, numSV=8, svid_01=24, elv_01=24.0, az_01=144, cno_01=21, svid_02=31, elv_02=35.0, az_02=87, cno_02=25, svid_03=34, elv_03=38.0, az_03=267, cno_03=26, svid_04=36, elv_04=22.0, az_04=209, cno_04=18, signalID=7)>000: 2447 4147 5356 2c32 2c32 2c30 382c 3234  | b'$GAGSV,2,2,08,24' |
016: 2c32 342c 3134 342c 3231 2c33 312c 3335  | b',24,144,21,31,35' |
032: 2c30 3837 2c32 352c 3334 2c33 382c 3236  | b',087,25,34,38,26' |
048: 372c 3236 2c33 362c 3232 2c32 3039 2c31  | b'7,26,36,22,209,1' |
064: 382c 372a 3739 0d0a                      | b'8,7*79\r\n' |
<NMEA(GAGSV, numMsg=1, msgNum=1, numSV=1, svid_01=4, elv_01=8.0, az_01=85, cno_01=, signalID=0)>000: 2447 4147 5356 2c31 2c31 2c30 312c 3034  | b'$GAGSV,1,1,01,04' |
016: 2c30 382c 3038 352c 2c30 2a34 340d 0a    | b',08,085,,0*44\r\n' |
<NMEA(GBGSV, numMsg=2, msgNum=1, numSV=8, svid_01=19, elv_01=30.0, az_01=302, cno_01=26, svid_02=20, elv_02=78.0, az_02=346, cno_02=38, svid_03=23, elv_03=29.0, az_03=50, cno_03=22, svid_04=29, elv_04=5.0, az_04=246, cno_04=11, signalID=1)>000: 2447 4247 5356 2c32 2c31 2c30 382c 3139  | b'$GBGSV,2,1,08,19' |
016: 2c33 302c 3330 322c 3236 2c32 302c 3738  | b',30,302,26,20,78' |
032: 2c33 3436 2c33 382c 3233 2c32 392c 3035  | b',346,38,23,29,05' |
048: 302c 3232 2c32 392c 3035 2c32 3436 2c31  | b'0,22,29,05,246,1' |
064: 312c 312a 3735 0d0a                      | b'1,1*75\r\n' |
<NMEA(GBGSV, numMsg=2, msgNum=2, numSV=8, svid_01=31, elv_01=, az_01=, cno_01=29, svid_02=32, elv_02=38.0, az_02=109, cno_02=28, svid_03=35, elv_03=9.0, az_03=298, cno_03=8, svid_04=37, elv_04=61.0, az_04=118, cno_04=34, signalID=1)>000: 2447 4247 5356 2c32 2c32 2c30 382c 3331  | b'$GBGSV,2,2,08,31' |
016: 2c2c 2c32 392c 3332 2c33 382c 3130 392c  | b',,,29,32,38,109,' |
032: 3238 2c33 352c 3039 2c32 3938 2c30 382c  | b'28,35,09,298,08,' |
048: 3337 2c36 312c 3131 382c 3334 2c31 2a34  | b'37,61,118,34,1*4' |
064: 370d 0a                                  | b'7\r\n' |
<NMEA(GBGSV, numMsg=1, msgNum=1, numSV=1, svid_01=29, elv_01=5.0, az_01=246, cno_01=9, signalID=3)>000: 2447 4247 5356 2c31 2c31 2c30 312c 3239  | b'$GBGSV,1,1,01,29' |
016: 2c30 352c 3234 362c 3039 2c33 2a34 320d  | b',05,246,09,3*42\r' |
032: 0a                                       | b'\n' |
<NMEA(GNGLL, lat=43.8827525783, NS=N, lon=-72.1581726433, EW=W, time=20:24:26.500000, status=A, posMode=A)>000: 2447 4e47 4c4c 2c34 3335 322e 3936 3531  | b'$GNGLL,4352.9651' |
016: 3534 372c 4e2c 3037 3230 392e 3439 3033  | b'547,N,07209.4903' |
032: 3538 362c 572c 3230 3234 3236 2e35 302c  | b'586,W,202426.50,' |
048: 412c 412a 3634 0d0a                      | b'A,A*64\r\n' |
<NMEA(GNRMC, time=20:24:26.750000, status=A, lat=43.8827519067, NS=N, lon=-72.1581717467, EW=W, spd=0.573, cog=, date=2023-09-05, mv=, mvEW=, posMode=A, navStatus=V)>000: 2447 4e52 4d43 2c32 3032 3432 362e 3735  | b'$GNRMC,202426.75' |
016: 2c41 2c34 3335 322e 3936 3531 3134 342c  | b',A,4352.9651144,' |
032: 4e2c 3037 3230 392e 3439 3033 3034 382c  | b'N,07209.4903048,' |
048: 572c 302e 3537 332c 2c30 3530 3932 332c  | b'W,0.573,,050923,' |
064: 2c2c 412c 562a 3043 0d0a                 | b',,A,V*0C\r\n' |
<NMEA(GNVTG, cogt=, cogtUnit=T, cogm=, cogmUnit=M, sogn=0.573, sognUnit=N, sogk=1.061, sogkUnit=K, posMode=A)>000: 2447 4e56 5447 2c2c 542c 2c4d 2c30 2e35  | b'$GNVTG,,T,,M,0.5' |
016: 3733 2c4e 2c31 2e30 3631 2c4b 2c41 2a33  | b'73,N,1.061,K,A*3' |
032: 410d 0a                                  | b'A\r\n' |
<NMEA(GNGGA, time=20:24:26.750000, lat=43.8827519067, NS=N, lon=-72.1581717467, EW=W, quality=1, numSV=12, HDOP=0.55, alt=136.102, altUnit=M, sep=-32.547, sepUnit=M, diffAge=, diffStation=)>000: 2447 4e47 4741 2c32 3032 3432 362e 3735  | b'$GNGGA,202426.75' |
016: 2c34 3335 322e 3936 3531 3134 342c 4e2c  | b',4352.9651144,N,' |
032: 3037 3230 392e 3439 3033 3034 382c 572c  | b'07209.4903048,W,' |
048: 312c 3132 2c30 2e35 352c 3133 362e 3130  | b'1,12,0.55,136.10' |
064: 322c 4d2c 2d33 322e 3534 372c 4d2c 2c2a  | b'2,M,-32.547,M,,*' |
080: 3738 0d0a                                | b'78\r\n' |
<NMEA(GNGSA, opMode=A, navMode=3, svid_01=25, svid_02=2, svid_03=21, svid_04=28, svid_05=12, svid_06=10, svid_07=24, svid_08=23, svid_09=32, svid_10=, svid_11=, svid_12=, PDOP=1.06, HDOP=0.55, VDOP=0.9, systemId=1)>000: 2447 4e47 5341 2c41 2c33 2c32 352c 3032  | b'$GNGSA,A,3,25,02' |
016: 2c32 312c 3238 2c31 322c 3130 2c32 342c  | b',21,28,12,10,24,' |
032: 3233 2c33 322c 2c2c 2c31 2e30 362c 302e  | b'23,32,,,,1.06,0.' |
048: 3535 2c30 2e39 302c 312a 3037 0d0a       | b'55,0.90,1*07\r\n' |
<NMEA(GNGSA, opMode=A, navMode=3, svid_01=87, svid_02=73, svid_03=80, svid_04=70, svid_05=71, svid_06=72, svid_07=74, svid_08=, svid_09=, svid_10=, svid_11=, svid_12=, PDOP=1.06, HDOP=0.55, VDOP=0.9, systemId=2)>000: 2447 4e47 5341 2c41 2c33 2c38 372c 3733  | b'$GNGSA,A,3,87,73' |
016: 2c38 302c 3730 2c37 312c 3732 2c37 342c  | b',80,70,71,72,74,' |
032: 2c2c 2c2c 2c31 2e30 362c 302e 3535 2c30  | b',,,,,1.06,0.55,0' |
048: 2e39 302c 322a 3038 0d0a                 | b'.90,2*08\r\n' |
<NMEA(GNGSA, opMode=A, navMode=3, svid_01=36, svid_02=15, svid_03=31, svid_04=34, svid_05=3, svid_06=9, svid_07=24, svid_08=5, svid_09=, svid_10=, svid_11=, svid_12=, PDOP=1.06, HDOP=0.55, VDOP=0.9, systemId=3)>000: 2447 4e47 5341 2c41 2c33 2c33 362c 3135  | b'$GNGSA,A,3,36,15' |
016: 2c33 312c 3334 2c30 332c 3039 2c32 342c  | b',31,34,03,09,24,' |
032: 3035 2c2c 2c2c 2c31 2e30 362c 302e 3535  | b'05,,,,,1.06,0.55' |
048: 2c30 2e39 302c 332a 3030 0d0a            | b',0.90,3*00\r\n' |
<NMEA(GNGSA, opMode=A, navMode=3, svid_01=37, svid_02=23, svid_03=32, svid_04=19, svid_05=20, svid_06=, svid_07=, svid_08=, svid_09=, svid_10=, svid_11=, svid_12=, PDOP=1.06, HDOP=0.55, VDOP=0.9, systemId=4)>000: 2447 4e47 5341 2c41 2c33 2c33 372c 3233  | b'$GNGSA,A,3,37,23' |
016: 2c33 322c 3139 2c32 302c 2c2c 2c2c 2c2c  | b',32,19,20,,,,,,,' |
032: 2c31 2e30 362c 302e 3535 2c30 2e39 302c  | b',1.06,0.55,0.90,' |
048: 342a 3034 0d0a                           | b'4*04\r\n' |
<NMEA(GNRMC, time=20:24:27, status=A, lat=43.8827512083, NS=N, lon=-72.1581712067, EW=W, spd=0.411, cog=, date=2023-09-05, mv=, mvEW=, posMode=A, navStatus=V)>000: 2447 4e52 4d43 2c32 3032 3432 372e 3030  | b'$GNRMC,202427.00' |
016: 2c41 2c34 3335 322e 3936 3530 3732 352c  | b',A,4352.9650725,' |
032: 4e2c 3037 3230 392e 3439 3032 3732 342c  | b'N,07209.4902724,' |
048: 572c 302e 3431 312c 2c30 3530 3932 332c  | b'W,0.411,,050923,' |
064: 2c2c 412c 562a 3036 0d0a                 | b',,A,V*06\r\n' |
<NMEA(GNVTG, cogt=, cogtUnit=T, cogm=, cogmUnit=M, sogn=0.411, sognUnit=N, sogk=0.76, sogkUnit=K, posMode=A)>000: 2447 4e56 5447 2c2c 542c 2c4d 2c30 2e34  | b'$GNVTG,,T,,M,0.4' |
016: 3131 2c4e 2c30 2e37 3630 2c4b 2c41 2a33  | b'11,N,0.760,K,A*3' |
032: 380d 0a                                  | b'8\r\n' |
<NMEA(GNGGA, time=20:24:27, lat=43.8827512083, NS=N, lon=-72.1581712067, EW=W, quality=1, numSV=12, HDOP=0.55, alt=136.091, altUnit=M, sep=-32.547, sepUnit=M, diffAge=, diffStation=)>000: 2447 4e47 4741 2c32 3032 3432 372e 3030  | b'$GNGGA,202427.00' |
016: 2c34 3335 322e 3936 3530 3732 352c 4e2c  | b',4352.9650725,N,' |
032: 3037 3230 392e 3439 3032 3732 342c 572c  | b'07209.4902724,W,' |
048: 312c 3132 2c30 2e35 352c 3133 362e 3039  | b'1,12,0.55,136.09' |
064: 312c 4d2c 2d33 322e 3534 372c 4d2c 2c2a  | b'1,M,-32.547,M,,*' |
080: 3743 0d0a                                | b'7C\r\n' |
<NMEA(GNGSA, opMode=A, navMode=3, svid_01=25, svid_02=2, svid_03=21, svid_04=28, svid_05=12, svid_06=10, svid_07=24, svid_08=23, svid_09=32, svid_10=, svid_11=, svid_12=, PDOP=1.06, HDOP=0.55, VDOP=0.9, systemId=1)>000: 2447 4e47 5341 2c41 2c33 2c32 352c 3032  | b'$GNGSA,A,3,25,02' |
016: 2c32 312c 3238 2c31 322c 3130 2c32 342c  | b',21,28,12,10,24,' |
032: 3233 2c33 322c 2c2c 2c31 2e30 362c 302e  | b'23,32,,,,1.06,0.' |
048: 3535 2c30 2e39 302c 312a 3037 0d0a       | b'55,0.90,1*07\r\n' |
<NMEA(GNGSA, opMode=A, navMode=3, svid_01=87, svid_02=73, svid_03=80, svid_04=70, svid_05=71, svid_06=72, svid_07=74, svid_08=, svid_09=, svid_10=, svid_11=, svid_12=, PDOP=1.06, HDOP=0.55, VDOP=0.9, systemId=2)>000: 2447 4e47 5341 2c41 2c33 2c38 372c 3733  | b'$GNGSA,A,3,87,73' |
016: 2c38 302c 3730 2c37 312c 3732 2c37 342c  | b',80,70,71,72,74,' |
032: 2c2c 2c2c 2c31 2e30 362c 302e 3535 2c30  | b',,,,,1.06,0.55,0' |
048: 2e39 302c 322a 3038 0d0a                 | b'.90,2*08\r\n' |
<NMEA(GNGSA, opMode=A, navMode=3, svid_01=36, svid_02=15, svid_03=31, svid_04=34, svid_05=3, svid_06=9, svid_07=24, svid_08=5, svid_09=, svid_10=, svid_11=, svid_12=, PDOP=1.06, HDOP=0.55, VDOP=0.9, systemId=3)>000: 2447 4e47 5341 2c41 2c33 2c33 362c 3135  | b'$GNGSA,A,3,36,15' |
016: 2c33 312c 3334 2c30 332c 3039 2c32 342c  | b',31,34,03,09,24,' |
032: 3035 2c2c 2c2c 2c31 2e30 362c 302e 3535  | b'05,,,,,1.06,0.55' |
048: 2c30 2e39 302c 332a 3030 0d0a            | b',0.90,3*00\r\n' |
<NMEA(GNGSA, opMode=A, navMode=3, svid_01=37, svid_02=23, svid_03=32, svid_04=19, svid_05=20, svid_06=, svid_07=, svid_08=, svid_09=, svid_10=, svid_11=, svid_12=, PDOP=1.06, HDOP=0.55, VDOP=0.9, systemId=4)>000: 2447 4e47 5341 2c41 2c33 2c33 372c 3233  | b'$GNGSA,A,3,37,23' |
016: 2c33 322c 3139 2c32 302c 2c2c 2c2c 2c2c  | b',32,19,20,,,,,,,' |
032: 2c31 2e30 362c 302e 3535 2c30 2e39 302c  | b',1.06,0.55,0.90,' |
048: 342a 3034 0d0a                           | b'4*04\r\n' |
<NMEA(GPGSV, numMsg=3, msgNum=1, numSV=9, svid_01=2, elv_01=17.0, az_01=315, cno_01=18, svid_02=10, elv_02=85.0, az_02=216, cno_02=37, svid_03=12, elv_03=30.0, az_03=93, cno_03=23, svid_04=21, elv_04=21.0, az_04=307, cno_04=21, signalID=1)>000: 2447 5047 5356 2c33 2c31 2c30 392c 3032  | b'$GPGSV,3,1,09,02' |
016: 2c31 372c 3331 352c 3138 2c31 302c 3835  | b',17,315,18,10,85' |
032: 2c32 3136 2c33 372c 3132 2c33 302c 3039  | b',216,37,12,30,09' |
048: 332c 3233 2c32 312c 3231 2c33 3037 2c32  | b'3,23,21,21,307,2' |
064: 312c 312a 3634 0d0a                      | b'1,1*64\r\n' |
<NMEA(GPGSV, numMsg=3, msgNum=2, numSV=9, svid_01=23, elv_01=47.0, az_01=144, cno_01=24, svid_02=24, elv_02=29.0, az_02=52, cno_02=20, svid_03=25, elv_03=25.0, az_03=140, cno_03=19, svid_04=28, elv_04=28.0, az_04=220, cno_04=18, signalID=1)>000: 2447 5047 5356 2c33 2c32 2c30 392c 3233  | b'$GPGSV,3,2,09,23' |
016: 2c34 372c 3134 342c 3234 2c32 342c 3239  | b',47,144,24,24,29' |
032: 2c30 3532 2c32 302c 3235 2c32 352c 3134  | b',052,20,25,25,14' |
048: 302c 3139 2c32 382c 3238 2c32 3230 2c31  | b'0,19,28,28,220,1' |
064: 382c 312a 3635 0d0a                      | b'8,1*65\r\n' |
<NMEA(GPGSV, numMsg=3, msgNum=3, numSV=9, svid_01=32, elv_01=54.0, az_01=291, cno_01=20, signalID=1)>000: 2447 5047 5356 2c33 2c33 2c30 392c 3332  | b'$GPGSV,3,3,09,32' |
016: 2c35 342c 3239 312c 3230 2c31 2a35 350d  | b',54,291,20,1*55\r' |
032: 0a                                       | b'\n' |
<NMEA(GPGSV, numMsg=1, msgNum=1, numSV=1, svid_01=28, elv_01=28.0, az_01=220, cno_01=14, signalID=5)>000: 2447 5047 5356 2c31 2c31 2c30 312c 3238  | b'$GPGSV,1,1,01,28' |
016: 2c32 382c 3232 302c 3134 2c35 2a35 340d  | b',28,220,14,5*54\r' |
032: 0a                                       | b'\n' |
<NMEA(GPGSV, numMsg=1, msgNum=1, numSV=4, svid_01=10, elv_01=85.0, az_01=216, cno_01=23, svid_02=12, elv_02=30.0, az_02=93, cno_02=17, svid_03=23, elv_03=47.0, az_03=144, cno_03=20, svid_04=32, elv_04=54.0, az_04=291, cno_04=14, signalID=6)>000: 2447 5047 5356 2c31 2c31 2c30 342c 3130  | b'$GPGSV,1,1,04,10' |
016: 2c38 352c 3231 362c 3233 2c31 322c 3330  | b',85,216,23,12,30' |
032: 2c30 3933 2c31 372c 3233 2c34 372c 3134  | b',093,17,23,47,14' |
048: 342c 3230 2c33 322c 3534 2c32 3931 2c31  | b'4,20,32,54,291,1' |
064: 342c 362a 3644 0d0a                      | b'4,6*6D\r\n' |
<NMEA(GPGSV, numMsg=2, msgNum=1, numSV=5, svid_01=15, elv_01=2.0, az_01=92, cno_01=, svid_02=18, elv_02=1.0, az_02=182, cno_02=, svid_03=31, elv_03=0.0, az_03=221, cno_03=, svid_04=44, elv_04=23.0, az_04=235, cno_04=, signalID=0)>000: 2447 5047 5356 2c32 2c31 2c30 352c 3135  | b'$GPGSV,2,1,05,15' |
016: 2c30 322c 3039 322c 2c31 382c 3031 2c31  | b',02,092,,18,01,1' |
032: 3832 2c2c 3331 2c30 302c 3232 312c 2c34  | b'82,,31,00,221,,4' |
048: 342c 3233 2c32 3335 2c2c 302a 3642 0d0a  | b'4,23,235,,0*6B\r\n' |
<NMEA(GPGSV, numMsg=2, msgNum=2, numSV=5, svid_01=44, elv_01=23.0, az_01=235, cno_01=, signalID=0)>000: 2447 5047 5356 2c32 2c32 2c30 352c 3434  | b'$GPGSV,2,2,05,44' |
016: 2c32 332c 3233 352c 2c30 2a35 350d 0a    | b',23,235,,0*55\r\n' |
<NMEA(GLGSV, numMsg=2, msgNum=1, numSV=7, svid_01=70, elv_01=47.0, az_01=82, cno_01=19, svid_02=71, elv_02=60.0, az_02=341, cno_02=39, svid_03=72, elv_03=19.0, az_03=302, cno_03=18, svid_04=73, elv_04=52.0, az_04=147, cno_04=28, signalID=1)>000: 2447 4c47 5356 2c32 2c31 2c30 372c 3730  | b'$GLGSV,2,1,07,70' |
016: 2c34 372c 3038 322c 3139 2c37 312c 3630  | b',47,082,19,71,60' |
032: 2c33 3431 2c33 392c 3732 2c31 392c 3330  | b',341,39,72,19,30' |
048: 322c 3138 2c37 332c 3532 2c31 3437 2c32  | b'2,18,73,52,147,2' |
064: 382c 312a 3738 0d0a                      | b'8,1*78\r\n' |
<NMEA(GLGSV, numMsg=2, msgNum=2, numSV=7, svid_01=74, elv_01=15.0, az_01=181, cno_01=16, svid_02=80, elv_02=45.0, az_02=51, cno_02=35, svid_03=87, elv_03=23.0, az_03=307, cno_03=21, signalID=1)>000: 2447 4c47 5356 2c32 2c32 2c30 372c 3734  | b'$GLGSV,2,2,07,74' |
016: 2c31 352c 3138 312c 3136 2c38 302c 3435  | b',15,181,16,80,45' |
032: 2c30 3531 2c33 352c 3837 2c32 332c 3330  | b',051,35,87,23,30' |
048: 372c 3231 2c31 2a34 350d 0a              | b'7,21,1*45\r\n' |
<NMEA(GLGSV, numMsg=1, msgNum=1, numSV=3, svid_01=79, elv_01=2.0, az_01=21, cno_01=, svid_02=86, elv_02=19.0, az_02=249, cno_02=, svid_03=88, elv_03=3.0, az_03=352, cno_03=, signalID=0)>000: 2447 4c47 5356 2c31 2c31 2c30 332c 3739  | b'$GLGSV,1,1,03,79' |
016: 2c30 322c 3032 312c 2c38 362c 3139 2c32  | b',02,021,,86,19,2' |
032: 3439 2c2c 3838 2c30 332c 3335 322c 2c30  | b'49,,88,03,352,,0' |
048: 2a34 420d 0a                             | b'*4B\r\n' |
<NMEA(GAGSV, numMsg=1, msgNum=1, numSV=1, svid_01=9, elv_01=56.0, az_01=66, cno_01=21, signalID=2)>000: 2447 4147 5356 2c31 2c31 2c30 312c 3039  | b'$GAGSV,1,1,01,09' |
016: 2c35 362c 3036 362c 3231 2c32 2a34 450d  | b',56,066,21,2*4E\r' |
032: 0a                                       | b'\n' |
<NMEA(GAGSV, numMsg=2, msgNum=1, numSV=8, svid_01=3, elv_01=11.0, az_01=274, cno_01=16, svid_02=5, elv_02=60.0, az_02=296, cno_02=26, svid_03=9, elv_03=56.0, az_03=66, cno_03=33, svid_04=15, elv_04=18.0, az_04=321, cno_04=18, signalID=7)>000: 2447 4147 5356 2c32 2c31 2c30 382c 3033  | b'$GAGSV,2,1,08,03' |
016: 2c31 312c 3237 342c 3136 2c30 352c 3630  | b',11,274,16,05,60' |
032: 2c32 3936 2c32 362c 3039 2c35 362c 3036  | b',296,26,09,56,06' |
048: 362c 3333 2c31 352c 3138 2c33 3231 2c31  | b'6,33,15,18,321,1' |
064: 382c 372a 3739 0d0a                      | b'8,7*79\r\n' |
<NMEA(GAGSV, numMsg=2, msgNum=2, numSV=8, svid_01=24, elv_01=24.0, az_01=144, cno_01=21, svid_02=31, elv_02=35.0, az_02=87, cno_02=24, svid_03=34, elv_03=38.0, az_03=267, cno_03=25, svid_04=36, elv_04=22.0, az_04=209, cno_04=18, signalID=7)>000: 2447 4147 5356 2c32 2c32 2c30 382c 3234  | b'$GAGSV,2,2,08,24' |
016: 2c32 342c 3134 342c 3231 2c33 312c 3335  | b',24,144,21,31,35' |
032: 2c30 3837 2c32 342c 3334 2c33 382c 3236  | b',087,24,34,38,26' |
048: 372c 3235 2c33 362c 3232 2c32 3039 2c31  | b'7,25,36,22,209,1' |
064: 382c 372a 3742 0d0a                      | b'8,7*7B\r\n' |
<NMEA(GAGSV, numMsg=1, msgNum=1, numSV=1, svid_01=4, elv_01=8.0, az_01=85, cno_01=, signalID=0)>000: 2447 4147 5356 2c31 2c31 2c30 312c 3034  | b'$GAGSV,1,1,01,04' |
016: 2c30 382c 3038 352c 2c30 2a34 340d 0a    | b',08,085,,0*44\r\n' |
<NMEA(GBGSV, numMsg=2, msgNum=1, numSV=8, svid_01=19, elv_01=30.0, az_01=302, cno_01=26, svid_02=20, elv_02=78.0, az_02=346, cno_02=38, svid_03=23, elv_03=29.0, az_03=50, cno_03=21, svid_04=29, elv_04=5.0, az_04=246, cno_04=10, signalID=1)>000: 2447 4247 5356 2c32 2c31 2c30 382c 3139  | b'$GBGSV,2,1,08,19' |
016: 2c33 302c 3330 322c 3236 2c32 302c 3738  | b',30,302,26,20,78' |
032: 2c33 3436 2c33 382c 3233 2c32 392c 3035  | b',346,38,23,29,05' |
048: 302c 3231 2c32 392c 3035 2c32 3436 2c31  | b'0,21,29,05,246,1' |
064: 302c 312a 3737 0d0a                      | b'0,1*77\r\n' |
<NMEA(GBGSV, numMsg=2, msgNum=2, numSV=8, svid_01=31, elv_01=, az_01=, cno_01=23, svid_02=32, elv_02=38.0, az_02=109, cno_02=29, svid_03=35, elv_03=9.0, az_03=298, cno_03=8, svid_04=37, elv_04=61.0, az_04=118, cno_04=35, signalID=1)>000: 2447 4247 5356 2c32 2c32 2c30 382c 3331  | b'$GBGSV,2,2,08,31' |
016: 2c2c 2c32 332c 3332 2c33 382c 3130 392c  | b',,,23,32,38,109,' |
032: 3239 2c33 352c 3039 2c32 3938 2c30 382c  | b'29,35,09,298,08,' |
048: 3337 2c36 312c 3131 382c 3335 2c31 2a34  | b'37,61,118,35,1*4' |
064: 440d 0a                                  | b'D\r\n' |
<NMEA(GBGSV, numMsg=1, msgNum=1, numSV=1, svid_01=29, elv_01=5.0, az_01=246, cno_01=8, signalID=3)>000: 2447 4247 5356 2c31 2c31 2c30 312c 3239  | b'$GBGSV,1,1,01,29' |
016: 2c30 352c 3234 362c 3038 2c33 2a34 330d  | b',05,246,08,3*43\r' |
032: 0a                                       | b'\n' |
<NMEA(GNGLL, lat=43.8827512083, NS=N, lon=-72.1581712067, EW=W, time=20:24:27, status=A, posMode=A)>000: 2447 4e47 4c4c 2c34 3335 322e 3936 3530  | b'$GNGLL,4352.9650' |
016: 3732 352c 4e2c 3037 3230 392e 3439 3032  | b'725,N,07209.4902' |
032: 3732 342c 572c 3230 3234 3237 2e30 302c  | b'724,W,202427.00,' |
048: 412c 412a 3643 0d0a                      | b'A,A*6C\r\n' |
<NMEA(GNTXT, numMsg=1, msgNum=1, msgType=0, text=txbuf alloc)>000: 2447 4e54 5854 2c30 312c 3031 2c30 302c  | b'$GNTXT,01,01,00,' |
016: 7478 6275 6620 616c 6c6f 632a 3631 0d0a  | b'txbuf alloc*61\r\n' |
<NMEA(GNRMC, time=20:24:27.250000, status=A, lat=43.8827507017, NS=N, lon=-72.15817034, EW=W, spd=0.578, cog=, date=2023-09-05, mv=, mvEW=, posMode=A, navStatus=V)>000: 2447 4e52 4d43 2c32 3032 3432 372e 3235  | b'$GNRMC,202427.25' |
016: 2c41 2c34 3335 322e 3936 3530 3432 312c  | b',A,4352.9650421,' |
032: 4e2c 3037 3230 392e 3439 3032 3230 342c  | b'N,07209.4902204,' |
048: 572c 302e 3537 382c 2c30 3530 3932 332c  | b'W,0.578,,050923,' |
064: 2c2c 412c 562a 3046 0d0a                 | b',,A,V*0F\r\n' |
<NMEA(GNVTG, cogt=, cogtUnit=T, cogm=, cogmUnit=M, sogn=0.578, sognUnit=N, sogk=1.07, sogkUnit=K, posMode=A)>000: 2447 4e56 5447 2c2c 542c 2c4d 2c30 2e35  | b'$GNVTG,,T,,M,0.5' |
016: 3738 2c4e 2c31 2e30 3730 2c4b 2c41 2a33  | b'78,N,1.070,K,A*3' |
032: 310d 0a                                  | b'1\r\n' |
<NMEA(GNGGA, time=20:24:27.250000, lat=43.8827507017, NS=N, lon=-72.15817034, EW=W, quality=1, numSV=12, HDOP=0.55, alt=136.082, altUnit=M, sep=-32.547, sepUnit=M, diffAge=, diffStation=)>000: 2447 4e47 4741 2c32 3032 3432 372e 3235  | b'$GNGGA,202427.25' |
016: 2c34 3335 322e 3936 3530 3432 312c 4e2c  | b',4352.9650421,N,' |
032: 3037 3230 392e 3439 3032 3230 342c 572c  | b'07209.4902204,W,' |
048: 312c 3132 2c30 2e35 352c 3133 362e 3038  | b'1,12,0.55,136.08' |
064: 322c 4d2c 2d33 322e 3534 372c 4d2c 2c2a  | b'2,M,-32.547,M,,*' |
080: 3739 0d0a                                | b'79\r\n' |
<NMEA(GNGSA, opMode=A, navMode=3, svid_01=25, svid_02=2, svid_03=21, svid_04=28, svid_05=12, svid_06=10, svid_07=24, svid_08=23, svid_09=32, svid_10=, svid_11=, svid_12=, PDOP=1.09, HDOP=0.55, VDOP=0.94, systemId=1)>000: 2447 4e47 5341 2c41 2c33 2c32 352c 3032  | b'$GNGSA,A,3,25,02' |
016: 2c32 312c 3238 2c31 322c 3130 2c32 342c  | b',21,28,12,10,24,' |
032: 3233 2c33 322c 2c2c 2c31 2e30 392c 302e  | b'23,32,,,,1.09,0.' |
048: 3535 2c30 2e39 342c 312a 3043 0d0a       | b'55,0.94,1*0C\r\n' |
<NMEA(GNGSA, opMode=A, navMode=3, svid_01=87, svid_02=73, svid_03=80, svid_04=70, svid_05=71, svid_06=72, svid_07=74, svid_08=, svid_09=, svid_10=, svid_11=, svid_12=, PDOP=1.09, HDOP=0.55, VDOP=0.94, systemId=2)>000: 2447 4e47 5341 2c41 2c33 2c38 372c 3733  | b'$GNGSA,A,3,87,73' |
016: 2c38 302c 3730 2c37 312c 3732 2c37 342c  | b',80,70,71,72,74,' |
032: 2c2c 2c2c 2c31 2e30 392c 302e 3535 2c30  | b',,,,,1.09,0.55,0' |
048: 2e39 342c 322a 3033 0d0a                 | b'.94,2*03\r\n' |
<NMEA(GNGSA, opMode=A, navMode=3, svid_01=36, svid_02=15, svid_03=31, svid_04=34, svid_05=3, svid_06=9, svid_07=24, svid_08=5, svid_09=, svid_10=, svid_11=, svid_12=, PDOP=1.09, HDOP=0.55, VDOP=0.94, systemId=3)>000: 2447 4e47 5341 2c41 2c33 2c33 362c 3135  | b'$GNGSA,A,3,36,15' |
016: 2c33 312c 3334 2c30 332c 3039 2c32 342c  | b',31,34,03,09,24,' |
032: 3035 2c2c 2c2c 2c31 2e30 392c 302e 3535  | b'05,,,,,1.09,0.55' |
048: 2c30 2e39 342c 332a 3042 0d0a            | b',0.94,3*0B\r\n' |
<NMEA(GNGSA, opMode=A, navMode=3, svid_01=37, svid_02=23, svid_03=32, svid_04=19, svid_05=20, svid_06=, svid_07=, svid_08=, svid_09=, svid_10=, svid_11=, svid_12=, PDOP=1.09, HDOP=0.55, VDOP=0.94, systemId=4)>000: 2447 4e47 5341 2c41 2c33 2c33 372c 3233  | b'$GNGSA,A,3,37,23' |
016: 2c33 322c 3139 2c32 302c 2c2c 2c2c 2c2c  | b',32,19,20,,,,,,,' |
032: 2c31 2e30 392c 302e 3535 2c30 2e39 342c  | b',1.09,0.55,0.94,' |
048: 342a 3046 0d0a                           | b'4*0F\r\n' |
<NMEA(GPGSV, numMsg=3, msgNum=1, numSV=9, svid_01=2, elv_01=17.0, az_01=315, cno_01=19, svid_02=10, elv_02=85.0, az_02=216, cno_02=37, svid_03=12, elv_03=30.0, az_03=93, cno_03=23, svid_04=21, elv_04=21.0, az_04=307, cno_04=22, signalID=1)>000: 2447 5047 5356 2c33 2c31 2c30 392c 3032  | b'$GPGSV,3,1,09,02' |
016: 2c31 372c 3331 352c 3139 2c31 302c 3835  | b',17,315,19,10,85' |
032: 2c32 3136 2c33 372c 3132 2c33 302c 3039  | b',216,37,12,30,09' |
048: 332c 3233 2c32 312c 3231 2c33 3037 2c32  | b'3,23,21,21,307,2' |
064: 322c 312a 3636 0d0a                      | b'2,1*66\r\n' |
<NMEA(GPGSV, numMsg=3, msgNum=2, numSV=9, svid_01=23, elv_01=47.0, az_01=144, cno_01=25, svid_02=24, elv_02=29.0, az_02=52, cno_02=19, svid_03=25, elv_03=25.0, az_03=140, cno_03=19, svid_04=28, elv_04=28.0, az_04=220, cno_04=18, signalID=1)>000: 2447 5047 5356 2c33 2c32 2c30 392c 3233  | b'$GPGSV,3,2,09,23' |
016: 2c34 372c 3134 342c 3235 2c32 342c 3239  | b',47,144,25,24,29' |
032: 2c30 3532 2c31 392c 3235 2c32 352c 3134  | b',052,19,25,25,14' |
048: 302c 3139 2c32 382c 3238 2c32 3230 2c31  | b'0,19,28,28,220,1' |
064: 382c 312a 3645 0d0a                      | b'8,1*6E\r\n' |
<NMEA(GPGSV, numMsg=3, msgNum=3, numSV=9, svid_01=32, elv_01=54.0, az_01=291, cno_01=28, signalID=1)>000: 2447 5047 5356 2c33 2c33 2c30 392c 3332  | b'$GPGSV,3,3,09,32' |
016: 2c35 342c 3239 312c 3238 2c31 2a35 440d  | b',54,291,28,1*5D\r' |
032: 0a                                       | b'\n' |
<NMEA(GPGSV, numMsg=2, msgNum=1, numSV=5, svid_01=10, elv_01=85.0, az_01=216, cno_01=23, svid_02=12, elv_02=30.0, az_02=93, cno_02=16, svid_03=23, elv_03=47.0, az_03=144, cno_03=20, svid_04=28, elv_04=28.0, az_04=220, cno_04=13, signalID=6)>000: 2447 5047 5356 2c32 2c31 2c30 352c 3130  | b'$GPGSV,2,1,05,10' |
016: 2c38 352c 3231 362c 3233 2c31 322c 3330  | b',85,216,23,12,30' |
032: 2c30 3933 2c31 362c 3233 2c34 372c 3134  | b',093,16,23,47,14' |
048: 342c 3230 2c32 382c 3238 2c32 3230 2c31  | b'4,20,28,28,220,1' |
064: 332c 362a 3633 0d0a                      | b'3,6*63\r\n' |
<NMEA(GPGSV, numMsg=2, msgNum=2, numSV=5, svid_01=32, elv_01=54.0, az_01=291, cno_01=14, signalID=6)>000: 2447 5047 5356 2c32 2c32 2c30 352c 3332  | b'$GPGSV,2,2,05,32' |
016: 2c35 342c 3239 312c 3134 2c36 2a35 390d  | b',54,291,14,6*59\r' |
032: 0a                                       | b'\n' |
<NMEA(GPGSV, numMsg=2, msgNum=1, numSV=5, svid_01=15, elv_01=2.0, az_01=92, cno_01=, svid_02=18, elv_02=1.0, az_02=182, cno_02=, svid_03=31, elv_03=0.0, az_03=221, cno_03=, svid_04=44, elv_04=23.0, az_04=235, cno_04=, signalID=0)>000: 2447 5047 5356 2c32 2c31 2c30 352c 3135  | b'$GPGSV,2,1,05,15' |
016: 2c30 322c 3039 322c 2c31 382c 3031 2c31  | b',02,092,,18,01,1' |
032: 3832 2c2c 3331 2c30 302c 3232 312c 2c34  | b'82,,31,00,221,,4' |
048: 342c 3233 2c32 3335 2c2c 302a 3642 0d0a  | b'4,23,235,,0*6B\r\n' |
<NMEA(GPGSV, numMsg=2, msgNum=2, numSV=5, svid_01=44, elv_01=23.0, az_01=235, cno_01=, signalID=0)>000: 2447 5047 5356 2c32 2c32 2c30 352c 3434  | b'$GPGSV,2,2,05,44' |
016: 2c32 332c 3233 352c 2c30 2a35 350d 0a    | b',23,235,,0*55\r\n' |
<NMEA(GLGSV, numMsg=2, msgNum=1, numSV=7, svid_01=70, elv_01=47.0, az_01=82, cno_01=18, svid_02=71, elv_02=60.0, az_02=341, cno_02=38, svid_03=72, elv_03=19.0, az_03=302, cno_03=18, svid_04=73, elv_04=52.0, az_04=147, cno_04=28, signalID=1)>000: 2447 4c47 5356 2c32 2c31 2c30 372c 3730  | b'$GLGSV,2,1,07,70' |
016: 2c34 372c 3038 322c 3138 2c37 312c 3630  | b',47,082,18,71,60' |
032: 2c33 3431 2c33 382c 3732 2c31 392c 3330  | b',341,38,72,19,30' |
048: 322c 3138 2c37 332c 3532 2c31 3437 2c32  | b'2,18,73,52,147,2' |
064: 382c 312a 3738 0d0a                      | b'8,1*78\r\n' |
<NMEA(GLGSV, numMsg=2, msgNum=2, numSV=7, svid_01=74, elv_01=15.0, az_01=181, cno_01=16, svid_02=80, elv_02=45.0, az_02=51, cno_02=34, svid_03=87, elv_03=23.0, az_03=307, cno_03=21, signalID=1)>000: 2447 4c47 5356 2c32 2c32 2c30 372c 3734  | b'$GLGSV,2,2,07,74' |
016: 2c31 352c 3138 312c 3136 2c38 302c 3435  | b',15,181,16,80,45' |
