<NMEA(GLGSV, numMsg=1, msgNum=1, numSV=3, svid_01=79, elv_01=2.0, az_01=21, cno_01=, svid_02=86, elv_02=19.0, az_02=249, cno_02=, svid_03=88, elv_03=3.0, az_03=352, cno_03=, signalID=0)>000: 2447 4c47 5356 2c31 2c31 2c30 332c 3739  | b'$GLGSV,1,1,03,79' |
016: 2c30 322c 3032 312c 2c38 362c 3139 2c32  | b',02,021,,86,19,2' |
032: 3439 2c2c 3838 2c30 332c 3335 322c 2c30  | b'49,,88,03,352,,0' |
048: 2a34 420d 0a                             | b'*4B\r\n' |
<NMEA(GAGSV, numMsg=1, msgNum=1, numSV=1, svid_01=9, elv_01=55.0, az_01=67, cno_01=14, signalID=2)>000: 2447 4147 5356 2c31 2c31 2c30 312c 3039  | b'$GAGSV,1,1,01,09' |
016: 2c35 352c 3036 372c 3134 2c32 2a34 410d  | b',55,067,14,2*4A\r' |
032: 0a                                       | b'\n' |
<NMEA(GAGSV, numMsg=2, msgNum=1, numSV=8, svid_01=3, elv_01=11.0, az_01=275, cno_01=11, svid_02=5, elv_02=60.0, az_02=296, cno_02=27, svid_03=9, elv_03=55.0, az_03=67, cno_03=22, svid_04=15, elv_04=18.0, az_04=320, cno_04=20, signalID=7)>000: 2447 4147 5356 2c32 2c31 2c30 382c 3033  | b'$GAGSV,2,1,08,03' |
016: 2c31 312c 3237 352c 3131 2c30 352c 3630  | b',11,275,11,05,60' |
032: 2c32 3936 2c32 372c 3039 2c35 352c 3036  | b',296,27,09,55,06' |
048: 372c 3232 2c31 352c 3138 2c33 3230 2c32  | b'7,22,15,18,320,2' |
064: 302c 372a 3736 0d0a                      | b'0,7*76\r\n' |
<NMEA(GAGSV, numMsg=2, msgNum=2, numSV=8, svid_01=24, elv_01=25.0, az_01=144, cno_01=17, svid_02=31, elv_02=35.0, az_02=86, cno_02=21, svid_03=34, elv_03=38.0, az_03=266, cno_03=27, svid_04=36, elv_04=21.0, az_04=208, cno_04=16, signalID=7)>000: 2447 4147 5356 2c32 2c32 2c30 382c 3234  | b'$GAGSV,2,2,08,24' |
016: 2c32 352c 3134 342c 3137 2c33 312c 3335  | b',25,144,17,31,35' |
032: 2c30 3836 2c32 312c 3334 2c33 382c 3236  | b',086,21,34,38,26' |
048: 362c 3237 2c33 362c 3231 2c32 3038 2c31  | b'6,27,36,21,208,1' |
064: 362c 372a 3734 0d0a                      | b'6,7*74\r\n' |
<NMEA(GAGSV, numMsg=1, msgNum=1, numSV=1, svid_01=4, elv_01=8.0, az_01=85, cno_01=, signalID=0)>000: 2447 4147 5356 2c31 2c31 2c30 312c 3034  | b'$GAGSV,1,1,01,04' |
016: 2c30 382c 3038 352c 2c30 2a34 340d 0a    | b',08,085,,0*44\r\n' |
<NMEA(GBGSV, numMsg=2, msgNum=1, numSV=7, svid_01=19, elv_01=31.0, az_01=302, cno_01=24, svid_02=20, elv_02=79.0, az_02=349, cno_02=31, svid_03=23, elv_03=28.0, az_03=49, cno_03=18, svid_04=29, elv_04=4.0, az_04=246, cno_04=13, signalID=1)>000: 2447 4247 5356 2c32 2c31 2c30 372c 3139  | b'$GBGSV,2,1,07,19' |
016: 2c33 312c 3330 322c 3234 2c32 302c 3739  | b',31,302,24,20,79' |
032: 2c33 3439 2c33 312c 3233 2c32 382c 3034  | b',349,31,23,28,04' |
048: 392c 3138 2c32 392c 3034 2c32 3436 2c31  | b'9,18,29,04,246,1' |
064: 332c 312a 3744 0d0a                      | b'3,1*7D\r\n' |
<NMEA(GBGSV, numMsg=2, msgNum=2, numSV=7, svid_01=32, elv_01=38.0, az_01=109, cno_01=26, svid_02=35, elv_02=9.0, az_02=298, cno_02=16, svid_03=37, elv_03=61.0, az_03=118, cno_03=32, signalID=1)>000: 2447 4247 5356 2c32 2c32 2c30 372c 3332  | b'$GBGSV,2,2,07,32' |
016: 2c33 382c 3130 392c 3236 2c33 352c 3039  | b',38,109,26,35,09' |
032: 2c32 3938 2c31 362c 3337 2c36 312c 3131  | b',298,16,37,61,11' |
048: 382c 3332 2c31 2a34 360d 0a              | b'8,32,1*46\r\n' |
<NMEA(GNGLL, lat=43.88273413, NS=N, lon=-72.1580673683, EW=W, time=20:25:27.750000, status=A, posMode=D)>000: 2447 4e47 4c4c 2c34 3335 322e 3936 3430  | b'$GNGLL,4352.9640' |
016: 3437 382c 4e2c 3037 3230 392e 3438 3430  | b'478,N,07209.4840' |
032: 3432 312c 572c 3230 3235 3237 2e37 352c  | b'421,W,202527.75,' |
048: 412c 442a 3631 0d0a                      | b'A,D*61\r\n' |
<NMEA(GNRMC, time=20:25:28, status=A, lat=43.8827338033, NS=N, lon=-72.1580672283, EW=W, spd=0.33, cog=, date=2023-09-05, mv=, mvEW=, posMode=D, navStatus=V)>000: 2447 4e52 4d43 2c32 3032 3532 382e 3030  | b'$GNRMC,202528.00' |
016: 2c41 2c34 3335 322e 3936 3430 3238 322c  | b',A,4352.9640282,' |
032: 4e2c 3037 3230 392e 3438 3430 3333 372c  | b'N,07209.4840337,' |
048: 572c 302e 3333 302c 2c30 3530 3932 332c  | b'W,0.330,,050923,' |
064: 2c2c 442c 562a 3031 0d0a                 | b',,D,V*01\r\n' |
<NMEA(GNVTG, cogt=, cogtUnit=T, cogm=, cogmUnit=M, sogn=0.33, sognUnit=N, sogk=0.611, sogkUnit=K, posMode=D)>000: 2447 4e56 5447 2c2c 542c 2c4d 2c30 2e33  | b'$GNVTG,,T,,M,0.3' |
016: 3330 2c4e 2c30 2e36 3131 2c4b 2c44 2a33  | b'30,N,0.611,K,D*3' |
032: 450d 0a                                  | b'E\r\n' |
<NMEA(GNGGA, time=20:25:28, lat=43.8827338033, NS=N, lon=-72.1580672283, EW=W, quality=2, numSV=12, HDOP=1.98, alt=139.527, altUnit=M, sep=-32.547, sepUnit=M, diffAge=, diffStation=0)>000: 2447 4e47 4741 2c32 3032 3532 382e 3030  | b'$GNGGA,202528.00' |
016: 2c34 3335 322e 3936 3430 3238 322c 4e2c  | b',4352.9640282,N,' |
032: 3037 3230 392e 3438 3430 3333 372c 572c  | b'07209.4840337,W,' |
048: 322c 3132 2c31 2e39 382c 3133 392e 3532  | b'2,12,1.98,139.52' |
064: 372c 4d2c 2d33 322e 3534 372c 4d2c 2c30  | b'7,M,-32.547,M,,0' |
080: 3030 302a 3745 0d0a                      | b'000*7E\r\n' |
<NMEA(GNGSA, opMode=A, navMode=3, svid_01=25, svid_02=2, svid_03=21, svid_04=28, svid_05=12, svid_06=10, svid_07=24, svid_08=23, svid_09=32, svid_10=, svid_11=, svid_12=, PDOP=3.3, HDOP=1.98, VDOP=2.63, systemId=1)>000: 2447 4e47 5341 2c41 2c33 2c32 352c 3032  | b'$GNGSA,A,3,25,02' |
016: 2c32 312c 3238 2c31 322c 3130 2c32 342c  | b',21,28,12,10,24,' |
032: 3233 2c33 322c 2c2c 2c33 2e33 302c 312e  | b'23,32,,,,3.30,1.' |
048: 3938 2c32 2e36 332c 312a 3045 0d0a       | b'98,2.63,1*0E\r\n' |
<NMEA(GNGSA, opMode=A, navMode=3, svid_01=87, svid_02=73, svid_03=71, svid_04=80, svid_05=70, svid_06=72, svid_07=74, svid_08=, svid_09=, svid_10=, svid_11=, svid_12=, PDOP=3.3, HDOP=1.98, VDOP=2.63, systemId=2)>000: 2447 4e47 5341 2c41 2c33 2c38 372c 3733  | b'$GNGSA,A,3,87,73' |
016: 2c37 312c 3830 2c37 302c 3732 2c37 342c  | b',71,80,70,72,74,' |
032: 2c2c 2c2c 2c33 2e33 302c 312e 3938 2c32  | b',,,,,3.30,1.98,2' |
048: 2e36 332c 322a 3031 0d0a                 | b'.63,2*01\r\n' |
<NMEA(GNGSA, opMode=A, navMode=3, svid_01=15, svid_02=31, svid_03=36, svid_04=34, svid_05=9, svid_06=24, svid_07=5, svid_08=, svid_09=, svid_10=, svid_11=, svid_12=, PDOP=3.3, HDOP=1.98, VDOP=2.63, systemId=3)>000: 2447 4e47 5341 2c41 2c33 2c31 352c 3331  | b'$GNGSA,A,3,15,31' |
016: 2c33 362c 3334 2c30 392c 3234 2c30 352c  | b',36,34,09,24,05,' |
032: 2c2c 2c2c 2c33 2e33 302c 312e 3938 2c32  | b',,,,,3.30,1.98,2' |
048: 2e36 332c 332a 3041 0d0a                 | b'.63,3*0A\r\n' |
<NMEA(GNGSA, opMode=A, navMode=3, svid_01=37, svid_02=23, svid_03=32, svid_04=19, svid_05=20, svid_06=, svid_07=, svid_08=, svid_09=, svid_10=, svid_11=, svid_12=, PDOP=3.3, HDOP=1.98, VDOP=2.63, systemId=4)>000: 2447 4e47 5341 2c41 2c33 2c33 372c 3233  | b'$GNGSA,A,3,37,23' |
016: 2c33 322c 3139 2c32 302c 2c2c 2c2c 2c2c  | b',32,19,20,,,,,,,' |
032: 2c33 2e33 302c 312e 3938 2c32 2e36 332c  | b',3.30,1.98,2.63,' |
048: 342a 3044 0d0a                           | b'4*0D\r\n' |
<NMEA(GPGSV, numMsg=3, msgNum=1, numSV=10, svid_01=2, elv_01=17.0, az_01=315, cno_01=20, svid_02=10, elv_02=85.0, az_02=216, cno_02=37, svid_03=12, elv_03=30.0, az_03=93, cno_03=20, svid_04=15, elv_04=2.0, az_04=92, cno_04=8, signalID=1)>000: 2447 5047 5356 2c33 2c31 2c31 302c 3032  | b'$GPGSV,3,1,10,02' |
016: 2c31 372c 3331 352c 3230 2c31 302c 3835  | b',17,315,20,10,85' |
032: 2c32 3136 2c33 372c 3132 2c33 302c 3039  | b',216,37,12,30,09' |
048: 332c 3230 2c31 352c 3032 2c30 3932 2c30  | b'3,20,15,02,092,0' |
064: 382c 312a 3636 0d0a                      | b'8,1*66\r\n' |
<NMEA(GPGSV, numMsg=3, msgNum=2, numSV=10, svid_01=21, elv_01=21.0, az_01=307, cno_01=22, svid_02=23, elv_02=47.0, az_02=144, cno_02=25, svid_03=24, elv_03=29.0, az_03=52, cno_03=16, svid_04=25, elv_04=25.0, az_04=140, cno_04=19, signalID=1)>000: 2447 5047 5356 2c33 2c32 2c31 302c 3231  | b'$GPGSV,3,2,10,21' |
016: 2c32 312c 3330 372c 3232 2c32 332c 3437  | b',21,307,22,23,47' |
032: 2c31 3434 2c32 352c 3234 2c32 392c 3035  | b',144,25,24,29,05' |
048: 322c 3136 2c32 352c 3235 2c31 3430 2c31  | b'2,16,25,25,140,1' |
064: 392c 312a 3634 0d0a                      | b'9,1*64\r\n' |
<NMEA(GPGSV, numMsg=3, msgNum=3, numSV=10, svid_01=28, elv_01=28.0, az_01=220, cno_01=20, svid_02=32, elv_02=54.0, az_02=291, cno_02=30, signalID=1)>000: 2447 5047 5356 2c33 2c33 2c31 302c 3238  | b'$GPGSV,3,3,10,28' |
016: 2c32 382c 3232 302c 3230 2c33 322c 3534  | b',28,220,20,32,54' |
032: 2c32 3931 2c33 302c 312a 3645 0d0a       | b',291,30,1*6E\r\n' |
<NMEA(GPGSV, numMsg=1, msgNum=1, numSV=2, svid_01=10, elv_01=85.0, az_01=216, cno_01=17, svid_02=23, elv_02=47.0, az_02=144, cno_02=14, signalID=6)>000: 2447 5047 5356 2c31 2c31 2c30 322c 3130  | b'$GPGSV,1,1,02,10' |
016: 2c38 352c 3231 362c 3137 2c32 332c 3437  | b',85,216,17,23,47' |
032: 2c31 3434 2c31 342c 362a 3638 0d0a       | b',144,14,6*68\r\n' |
<NMEA(GPGSV, numMsg=1, msgNum=1, numSV=4, svid_01=18, elv_01=1.0, az_01=182, cno_01=, svid_02=31, elv_02=0.0, az_02=221, cno_02=, svid_03=44, elv_03=23.0, az_03=235, cno_03=, svid_04=46, elv_04=15.0, az_04=246, cno_04=, signalID=0)>000: 2447 5047 5356 2c31 2c31 2c30 342c 3138  | b'$GPGSV,1,1,04,18' |
016: 2c30 312c 3138 322c 2c33 312c 3030 2c32  | b',01,182,,31,00,2' |
032: 3231 2c2c 3434 2c32 332c 3233 352c 2c34  | b'21,,44,23,235,,4' |
048: 362c 3135 2c32 3436 2c2c 302a 3632 0d0a  | b'6,15,246,,0*62\r\n' |
<NMEA(GLGSV, numMsg=2, msgNum=1, numSV=7, svid_01=70, elv_01=47.0, az_01=82, cno_01=15, svid_02=71, elv_02=60.0, az_02=341, cno_02=34, svid_03=72, elv_03=19.0, az_03=302, cno_03=17, svid_04=73, elv_04=52.0, az_04=147, cno_04=28, signalID=1)>000: 2447 4c47 5356 2c32 2c31 2c30 372c 3730  | b'$GLGSV,2,1,07,70' |
016: 2c34 372c 3038 322c 3135 2c37 312c 3630  | b',47,082,15,71,60' |
032: 2c33 3431 2c33 342c 3732 2c31 392c 3330  | b',341,34,72,19,30' |
048: 322c 3137 2c37 332c 3532 2c31 3437 2c32  | b'2,17,73,52,147,2' |
064: 382c 312a 3736 0d0a                      | b'8,1*76\r\n' |
<NMEA(GLGSV, numMsg=2, msgNum=2, numSV=7, svid_01=74, elv_01=15.0, az_01=181, cno_01=10, svid_02=80, elv_02=45.0, az_02=51, cno_02=26, svid_03=87, elv_03=23.0, az_03=307, cno_03=21, signalID=1)>000: 2447 4c47 5356 2c32 2c32 2c30 372c 3734  | b'$GLGSV,2,2,07,74' |
016: 2c31 352c 3138 312c 3130 2c38 302c 3435  | b',15,181,10,80,45' |
032: 2c30 3531 2c32 362c 3837 2c32 332c 3330  | b',051,26,87,23,30' |
048: 372c 3231 2c31 2a34 310d 0a              | b'7,21,1*41\r\n' |
<NMEA(GLGSV, numMsg=1, msgNum=1, numSV=3, svid_01=79, elv_01=2.0, az_01=21, cno_01=, svid_02=86, elv_02=19.0, az_02=249, cno_02=, svid_03=88, elv_03=3.0, az_03=352, cno_03=, signalID=0)>000: 2447 4c47 5356 2c31 2c31 2c30 332c 3739  | b'$GLGSV,1,1,03,79' |
016: 2c30 322c 3032 312c 2c38 362c 3139 2c32  | b',02,021,,86,19,2' |
032: 3439 2c2c 3838 2c30 332c 3335 322c 2c30  | b'49,,88,03,352,,0' |
048: 2a34 420d 0a                             | b'*4B\r\n' |
<NMEA(GAGSV, numMsg=1, msgNum=1, numSV=1, svid_01=9, elv_01=55.0, az_01=67, cno_01=13, signalID=2)>000: 2447 4147 5356 2c31 2c31 2c30 312c 3039  | b'$GAGSV,1,1,01,09' |
016: 2c35 352c 3036 372c 3133 2c32 2a34 440d  | b',55,067,13,2*4D\r' |
032: 0a                                       | b'\n' |
<NMEA(GAGSV, numMsg=2, msgNum=1, numSV=8, svid_01=3, elv_01=11.0, az_01=275, cno_01=7, svid_02=5, elv_02=60.0, az_02=296, cno_02=26, svid_03=9, elv_03=55.0, az_03=67, cno_03=23, svid_04=15, elv_04=18.0, az_04=320, cno_04=19, signalID=7)>000: 2447 4147 5356 2c32 2c31 2c30 382c 3033  | b'$GAGSV,2,1,08,03' |
016: 2c31 312c 3237 352c 3037 2c30 352c 3630  | b',11,275,07,05,60' |
032: 2c32 3936 2c32 362c 3039 2c35 352c 3036  | b',296,26,09,55,06' |
048: 372c 3233 2c31 352c 3138 2c33 3230 2c31  | b'7,23,15,18,320,1' |
064: 392c 372a 3742 0d0a                      | b'9,7*7B\r\n' |
<NMEA(GNTXT, numMsg=1, msgNum=1, msgType=0, text=txbuf alloc)>000: 2447 4e54 5854 2c30 312c 3031 2c30 302c  | b'$GNTXT,01,01,00,' |
016: 7478 6275 6620 616c 6c6f 632a 3631 0d0a  | b'txbuf alloc*61\r\n' |
<NMEA(GNRMC, time=20:25:28.250000, status=A, lat=43.8827336767, NS=N, lon=-72.1580667833, EW=W, spd=0.327, cog=, date=2023-09-05, mv=, mvEW=, posMode=D, navStatus=V)>000: 2447 4e52 4d43 2c32 3032 3532 382e 3235  | b'$GNRMC,202528.25' |
016: 2c41 2c34 3335 322e 3936 3430 3230 362c  | b',A,4352.9640206,' |
032: 4e2c 3037 3230 392e 3438 3430 3037 302c  | b'N,07209.4840070,' |
048: 572c 302e 3332 372c 2c30 3530 3932 332c  | b'W,0.327,,050923,' |
064: 2c2c 442c 562a 3043 0d0a                 | b',,D,V*0C\r\n' |
<NMEA(GNVTG, cogt=, cogtUnit=T, cogm=, cogmUnit=M, sogn=0.327, sognUnit=N, sogk=0.605, sogkUnit=K, posMode=D)>000: 2447 4e56 5447 2c2c 542c 2c4d 2c30 2e33  | b'$GNVTG,,T,,M,0.3' |
016: 3237 2c4e 2c30 2e36 3035 2c4b 2c44 2a33  | b'27,N,0.605,K,D*3' |
032: 440d 0a                                  | b'D\r\n' |
<NMEA(GNGGA, time=20:25:28.250000, lat=43.8827336767, NS=N, lon=-72.1580667833, EW=W, quality=2, numSV=12, HDOP=1.98, alt=139.612, altUnit=M, sep=-32.547, sepUnit=M, diffAge=, diffStation=0)>000: 2447 4e47 4741 2c32 3032 3532 382e 3235  | b'$GNGGA,202528.25' |
016: 2c34 3335 322e 3936 3430 3230 362c 4e2c  | b',4352.9640206,N,' |
032: 3037 3230 392e 3438 3430 3037 302c 572c  | b'07209.4840070,W,' |
048: 322c 3132 2c31 2e39 382c 3133 392e 3631  | b'2,12,1.98,139.61' |
064: 322c 4d2c 2d33 322e 3534 372c 4d2c 2c30  | b'2,M,-32.547,M,,0' |
080: 3030 302a 3730 0d0a                      | b'000*70\r\n' |
<NMEA(GNGSA, opMode=A, navMode=3, svid_01=25, svid_02=2, svid_03=21, svid_04=28, svid_05=12, svid_06=10, svid_07=24, svid_08=23, svid_09=32, svid_10=, svid_11=, svid_12=, PDOP=3.3, HDOP=1.98, VDOP=2.63, systemId=1)>000: 2447 4e47 5341 2c41 2c33 2c32 352c 3032  | b'$GNGSA,A,3,25,02' |
016: 2c32 312c 3238 2c31 322c 3130 2c32 342c  | b',21,28,12,10,24,' |
032: 3233 2c33 322c 2c2c 2c33 2e33 302c 312e  | b'23,32,,,,3.30,1.' |
048: 3938 2c32 2e36 332c 312a 3045 0d0a       | b'98,2.63,1*0E\r\n' |
<NMEA(GNGSA, opMode=A, navMode=3, svid_01=87, svid_02=73, svid_03=71, svid_04=80, svid_05=70, svid_06=72, svid_07=74, svid_08=, svid_09=, svid_10=, svid_11=, svid_12=, PDOP=3.3, HDOP=1.98, VDOP=2.63, systemId=2)>000: 2447 4e47 5341 2c41 2c33 2c38 372c 3733  | b'$GNGSA,A,3,87,73' |
016: 2c37 312c 3830 2c37 302c 3732 2c37 342c  | b',71,80,70,72,74,' |
032: 2c2c 2c2c 2c33 2e33 302c 312e 3938 2c32  | b',,,,,3.30,1.98,2' |
048: 2e36 332c 322a 3031 0d0a                 | b'.63,2*01\r\n' |
<NMEA(GNGSA, opMode=A, navMode=3, svid_01=15, svid_02=31, svid_03=36, svid_04=34, svid_05=3, svid_06=9, svid_07=24, svid_08=5, svid_09=, svid_10=, svid_11=, svid_12=, PDOP=3.3, HDOP=1.98, VDOP=2.63, systemId=3)>000: 2447 4e47 5341 2c41 2c33 2c31 352c 3331  | b'$GNGSA,A,3,15,31' |
016: 2c33 362c 3334 2c30 332c 3039 2c32 342c  | b',36,34,03,09,24,' |
032: 3035 2c2c 2c2c 2c33 2e33 302c 312e 3938  | b'05,,,,,3.30,1.98' |
048: 2c32 2e36 332c 332a 3039 0d0a            | b',2.63,3*09\r\n' |
<NMEA(GNGSA, opMode=A, navMode=3, svid_01=37, svid_02=23, svid_03=32, svid_04=19, svid_05=20, svid_06=, svid_07=, svid_08=, svid_09=, svid_10=, svid_11=, svid_12=, PDOP=3.3, HDOP=1.98, VDOP=2.63, systemId=4)>000: 2447 4e47 5341 2c41 2c33 2c33 372c 3233  | b'$GNGSA,A,3,37,23' |
016: 2c33 322c 3139 2c32 302c 2c2c 2c2c 2c2c  | b',32,19,20,,,,,,,' |
032: 2c33 2e33 302c 312e 3938 2c32 2e36 332c  | b',3.30,1.98,2.63,' |
048: 342a 3044 0d0a                           | b'4*0D\r\n' |
<NMEA(GPGSV, numMsg=3, msgNum=1, numSV=10, svid_01=2, elv_01=17.0, az_01=315, cno_01=20, svid_02=10, elv_02=85.0, az_02=216, cno_02=35, svid_03=12, elv_03=30.0, az_03=93, cno_03=19, svid_04=15, elv_04=2.0, az_04=92, cno_04=9, signalID=1)>000: 2447 5047 5356 2c33 2c31 2c31 302c 3032  | b'$GPGSV,3,1,10,02' |
016: 2c31 372c 3331 352c 3230 2c31 302c 3835  | b',17,315,20,10,85' |
032: 2c32 3136 2c33 352c 3132 2c33 302c 3039  | b',216,35,12,30,09' |
048: 332c 3139 2c31 352c 3032 2c30 3932 2c30  | b'3,19,15,02,092,0' |
064: 392c 312a 3646 0d0a                      | b'9,1*6F\r\n' |
<NMEA(GPGSV, numMsg=3, msgNum=2, numSV=10, svid_01=21, elv_01=21.0, az_01=307, cno_01=22, svid_02=23, elv_02=47.0, az_02=144, cno_02=25, svid_03=24, elv_03=29.0, az_03=52, cno_03=17, svid_04=25, elv_04=25.0, az_04=140, cno_04=19, signalID=1)>000: 2447 5047 5356 2c33 2c32 2c31 302c 3231  | b'$GPGSV,3,2,10,21' |
016: 2c32 312c 3330 372c 3232 2c32 332c 3437  | b',21,307,22,23,47' |
032: 2c31 3434 2c32 352c 3234 2c32 392c 3035  | b',144,25,24,29,05' |
048: 322c 3137 2c32 352c 3235 2c31 3430 2c31  | b'2,17,25,25,140,1' |
064: 392c 312a 3635 0d0a                      | b'9,1*65\r\n' |
<NMEA(GPGSV, numMsg=3, msgNum=3, numSV=10, svid_01=28, elv_01=28.0, az_01=220, cno_01=20, svid_02=32, elv_02=54.0, az_02=291, cno_02=23, signalID=1)>000: 2447 5047 5356 2c33 2c33 2c31 302c 3238  | b'$GPGSV,3,3,10,28' |
016: 2c32 382c 3232 302c 3230 2c33 322c 3534  | b',28,220,20,32,54' |
032: 2c32 3931 2c32 332c 312a 3643 0d0a       | b',291,23,1*6C\r\n' |
<NMEA(GPGSV, numMsg=1, msgNum=1, numSV=2, svid_01=10, elv_01=85.0, az_01=216, cno_01=17, svid_02=23, elv_02=47.0, az_02=144, cno_02=14, signalID=6)>000: 2447 5047 5356 2c31 2c31 2c30 322c 3130  | b'$GPGSV,1,1,02,10' |
016: 2c38 352c 3231 362c 3137 2c32 332c 3437  | b',85,216,17,23,47' |
032: 2c31 3434 2c31 342c 362a 3638 0d0a       | b',144,14,6*68\r\n' |
<NMEA(GPGSV, numMsg=1, msgNum=1, numSV=4, svid_01=18, elv_01=1.0, az_01=182, cno_01=, svid_02=31, elv_02=0.0, az_02=221, cno_02=, svid_03=44, elv_03=23.0, az_03=235, cno_03=, svid_04=46, elv_04=15.0, az_04=246, cno_04=, signalID=0)>000: 2447 5047 5356 2c31 2c31 2c30 342c 3138  | b'$GPGSV,1,1,04,18' |
016: 2c30 312c 3138 322c 2c33 312c 3030 2c32  | b',01,182,,31,00,2' |
032: 3231 2c2c 3434 2c32 332c 3233 352c 2c34  | b'21,,44,23,235,,4' |
048: 362c 3135 2c32 3436 2c2c 302a 3632 0d0a  | b'6,15,246,,0*62\r\n' |
<NMEA(GLGSV, numMsg=2, msgNum=1, numSV=7, svid_01=70, elv_01=47.0, az_01=82, cno_01=15, svid_02=71, elv_02=60.0, az_02=341, cno_02=35, svid_03=72, elv_03=19.0, az_03=302, cno_03=18, svid_04=73, elv_04=52.0, az_04=147, cno_04=27, signalID=1)>000: 2447 4c47 5356 2c32 2c31 2c30 372c 3730  | b'$GLGSV,2,1,07,70' |
016: 2c34 372c 3038 322c 3135 2c37 312c 3630  | b',47,082,15,71,60' |
032: 2c33 3431 2c33 352c 3732 2c31 392c 3330  | b',341,35,72,19,30' |
048: 322c 3138 2c37 332c 3532 2c31 3437 2c32  | b'2,18,73,52,147,2' |
064: 372c 312a 3737 0d0a                      | b'7,1*77\r\n' |
<NMEA(GLGSV, numMsg=2, msgNum=2, numSV=7, svid_01=74, elv_01=15.0, az_01=181, cno_01=10, svid_02=80, elv_02=45.0, az_02=51, cno_02=26, svid_03=87, elv_03=23.0, az_03=307, cno_03=22, signalID=1)>000: 2447 4c47 5356 2c32 2c32 2c30 372c 3734  | b'$GLGSV,2,2,07,74' |
016: 2c31 352c 3138 312c 3130 2c38 302c 3435  | b',15,181,10,80,45' |
032: 2c30 3531 2c32 362c 3837 2c32 332c 3330  | b',051,26,87,23,30' |
048: 372c 3232 2c31 2a34 320d 0a              | b'7,22,1*42\r\n' |
<NMEA(GLGSV, numMsg=1, msgNum=1, numSV=3, svid_01=79, elv_01=2.0, az_01=21, cno_01=, svid_02=86, elv_02=19.0, az_02=249, cno_02=, svid_03=88, elv_03=3.0, az_03=352, cno_03=, signalID=0)>000: 2447 4c47 5356 2c31 2c31 2c30 332c 3739  | b'$GLGSV,1,1,03,79' |
016: 2c30 322c 3032 312c 2c38 362c 3139 2c32  | b',02,021,,86,19,2' |
032: 3439 2c2c 3838 2c30 332c 3335 322c 2c30  | b'49,,88,03,352,,0' |
048: 2a34 420d 0a                             | b'*4B\r\n' |
<NMEA(GAGSV, numMsg=1, msgNum=1, numSV=1, svid_01=9, elv_01=55.0, az_01=67, cno_01=14, signalID=2)>000: 2447 4147 5356 2c31 2c31 2c30 312c 3039  | b'$GAGSV,1,1,01,09' |
016: 2c35 352c 3036 372c 3134 2c32 2a34 410d  | b',55,067,14,2*4A\r' |
032: 0a                                       | b'\n' |
<NMEA(GAGSV, numMsg=2, msgNum=1, numSV=8, svid_01=3, elv_01=11.0, az_01=275, cno_01=11, svid_02=5, elv_02=60.0, az_02=296, cno_02=26, svid_03=9, elv_03=55.0, az_03=67, cno_03=24, svid_04=15, elv_04=18.0, az_04=320, cno_04=19, signalID=7)>000: 2447 4147 5356 2c32 2c31 2c30 382c 3033  | b'$GAGSV,2,1,08,03' |
016: 2c31 312c 3237 352c 3131 2c30 352c 3630  | b',11,275,11,05,60' |
032: 2c32 3936 2c32 362c 3039 2c35 352c 3036  | b',296,26,09,55,06' |
048: 372c 3234 2c31 352c 3138 2c33 3230 2c31  | b'7,24,15,18,320,1' |
064: 392c 372a 3742 0d0a                      | b'9,7*7B\r\n' |
<NMEA(GAGSV, numMsg=2, msgNum=2, numSV=8, svid_01=24, elv_01=25.0, az_01=144, cno_01=17, svid_02=31, elv_02=35.0, az_02=86, cno_02=22, svid_03=34, elv_03=38.0, az_03=266, cno_03=31, svid_04=36, elv_04=21.0, az_04=208, cno_04=16, signalID=7)>000: 2447 4147 5356 2c32 2c32 2c30 382c 3234  | b'$GAGSV,2,2,08,24' |
016: 2c32 352c 3134 342c 3137 2c33 312c 3335  | b',25,144,17,31,35' |
032: 2c30 3836 2c32 322c 3334 2c33 382c 3236  | b',086,22,34,38,26' |
048: 362c 3331 2c33 362c 3231 2c32 3038 2c31  | b'6,31,36,21,208,1' |
064: 362c 372a 3730 0d0a                      | b'6,7*70\r\n' |
<NMEA(GAGSV, numMsg=1, msgNum=1, numSV=1, svid_01=4, elv_01=8.0, az_01=85, cno_01=, signalID=0)>000: 2447 4147 5356 2c31 2c31 2c30 312c 3034  | b'$GAGSV,1,1,01,04' |
016: 2c30 382c 3038 352c 2c30 2a34 340d 0a    | b',08,085,,0*44\r\n' |
<NMEA(GBGSV, numMsg=2, msgNum=1, numSV=7, svid_01=19, elv_01=31.0, az_01=302, cno_01=25, svid_02=20, elv_02=79.0, az_02=349, cno_02=35, svid_03=23, elv_03=28.0, az_03=49, cno_03=18, svid_04=29, elv_04=4.0, az_04=246, cno_04=11, signalID=1)>000: 2447 4247 5356 2c32 2c31 2c30 372c 3139  | b'$GBGSV,2,1,07,19' |
016: 2c33 312c 3330 322c 3235 2c32 302c 3739  | b',31,302,25,20,79' |
032: 2c33 3439 2c33 352c 3233 2c32 382c 3034  | b',349,35,23,28,04' |
048: 392c 3138 2c32 392c 3034 2c32 3436 2c31  | b'9,18,29,04,246,1' |
064: 312c 312a 3741 0d0a                      | b'1,1*7A\r\n' |
<NMEA(GBGSV, numMsg=2, msgNum=2, numSV=7, svid_01=32, elv_01=38.0, az_01=109, cno_01=27, svid_02=35, elv_02=9.0, az_02=298, cno_02=17, svid_03=37, elv_03=61.0, az_03=118, cno_03=36, signalID=1)>000: 2447 4247 5356 2c32 2c32 2c30 372c 3332  | b'$GBGSV,2,2,07,32' |
016: 2c33 382c 3130 392c 3237 2c33 352c 3039  | b',38,109,27,35,09' |
032: 2c32 3938 2c31 372c 3337 2c36 312c 3131  | b',298,17,37,61,11' |
048: 382c 3336 2c31 2a34 320d 0a              | b'8,36,1*42\r\n' |
<NMEA(GNGLL, lat=43.8827336767, NS=N, lon=-72.1580667833, EW=W, time=20:25:28.250000, status=A, posMode=D)>000: 2447 4e47 4c4c 2c34 3335 322e 3936 3430  | b'$GNGLL,4352.9640' |
016: 3230 362c 4e2c 3037 3230 392e 3438 3430  | b'206,N,07209.4840' |
032: 3037 302c 572c 3230 3235 3238 2e32 352c  | b'070,W,202528.25,' |
048: 412c 442a 3634 0d0a                      | b'A,D*64\r\n' |
<NMEA(GNRMC, time=20:25:28.500000, status=A, lat=43.8827338017, NS=N, lon=-72.15806559, EW=W, spd=0.627, cog=, date=2023-09-05, mv=, mvEW=, posMode=D, navStatus=V)>000: 2447 4e52 4d43 2c32 3032 3532 382e 3530  | b'$GNRMC,202528.50' |
016: 2c41 2c34 3335 322e 3936 3430 3238 312c  | b',A,4352.9640281,' |
032: 4e2c 3037 3230 392e 3438 3339 3335 342c  | b'N,07209.4839354,' |
048: 572c 302e 3632 372c 2c30 3530 3932 332c  | b'W,0.627,,050923,' |
064: 2c2c 442c 562a 3046 0d0a                 | b',,D,V*0F\r\n' |
<NMEA(GNVTG, cogt=, cogtUnit=T, cogm=, cogmUnit=M, sogn=0.627, sognUnit=N, sogk=1.162, sogkUnit=K, posMode=D)>000: 2447 4e56 5447 2c2c 542c 2c4d 2c30 2e36  | b'$GNVTG,,T,,M,0.6' |
016: 3237 2c4e 2c31 2e31 3632 2c4b 2c44 2a33  | b'27,N,1.162,K,D*3' |
032: 460d 0a                                  | b'F\r\n' |
<NMEA(GNGGA, time=20:25:28.500000, lat=43.8827338017, NS=N, lon=-72.15806559, EW=W, quality=2, numSV=12, HDOP=1.98, alt=139.735, altUnit=M, sep=-32.547, sepUnit=M, diffAge=, diffStation=0)>000: 2447 4e47 4741 2c32 3032 3532 382e 3530  | b'$GNGGA,202528.50' |
016: 2c34 3335 322e 3936 3430 3238 312c 4e2c  | b',4352.9640281,N,' |
032: 3037 3230 392e 3438 3339 3335 342c 572c  | b'07209.4839354,W,' |
048: 322c 3132 2c31 2e39 382c 3133 392e 3733  | b'2,12,1.98,139.73' |
064: 352c 4d2c 2d33 322e 3534 372c 4d2c 2c30  | b'5,M,-32.547,M,,0' |
080: 3030 302a 3732 0d0a                      | b'000*72\r\n' |
<NMEA(GNGSA, opMode=A, navMode=3, svid_01=25, svid_02=2, svid_03=21, svid_04=28, svid_05=12, svid_06=10, svid_07=24, svid_08=23, svid_09=32, svid_10=, svid_11=, svid_12=, PDOP=3.3, HDOP=1.98, VDOP=2.63, systemId=1)>000: 2447 4e47 5341 2c41 2c33 2c32 352c 3032  | b'$GNGSA,A,3,25,02' |
016: 2c32 312c 3238 2c31 322c 3130 2c32 342c  | b',21,28,12,10,24,' |
032: 3233 2c33 322c 2c2c 2c33 2e33 302c 312e  | b'23,32,,,,3.30,1.' |
048: 3938 2c32 2e36 332c 312a 3045 0d0a       | b'98,2.63,1*0E\r\n' |
<NMEA(GNGSA, opMode=A, navMode=3, svid_01=87, svid_02=73, svid_03=71, svid_04=80, svid_05=70, svid_06=72, svid_07=, svid_08=, svid_09=, svid_10=, svid_11=, svid_12=, PDOP=3.3, HDOP=1.98, VDOP=2.63, systemId=2)>000: 2447 4e47 5341 2c41 2c33 2c38 372c 3733  | b'$GNGSA,A,3,87,73' |
016: 2c37 312c 3830 2c37 302c 3732 2c2c 2c2c  | b',71,80,70,72,,,,' |
032: 2c2c 2c33 2e33 302c 312e 3938 2c32 2e36  | b',,,3.30,1.98,2.6' |
048: 332c 322a 3032 0d0a                      | b'3,2*02\r\n' |
<NMEA(GNGSA, opMode=A, navMode=3, svid_01=15, svid_02=31, svid_03=36, svid_04=34, svid_05=3, svid_06=9, svid_07=24, svid_08=5, svid_09=, svid_10=, svid_11=, svid_12=, PDOP=3.3, HDOP=1.98, VDOP=2.63, systemId=3)>000: 2447 4e47 5341 2c41 2c33 2c31 352c 3331  | b'$GNGSA,A,3,15,31' |
016: 2c33 362c 3334 2c30 332c 3039 2c32 342c  | b',36,34,03,09,24,' |
032: 3035 2c2c 2c2c 2c33 2e33 302c 312e 3938  | b'05,,,,,3.30,1.98' |
048: 2c32 2e36 332c 332a 3039 0d0a            | b',2.63,3*09\r\n' |
<NMEA(GNGSA, opMode=A, navMode=3, svid_01=37, svid_02=23, svid_03=32, svid_04=19, svid_05=20, svid_06=, svid_07=, svid_08=, svid_09=, svid_10=, svid_11=, svid_12=, PDOP=3.3, HDOP=1.98, VDOP=2.63, systemId=4)>000: 2447 4e47 5341 2c41 2c33 2c33 372c 3233  | b'$GNGSA,A,3,37,23' |
016: 2c33 322c 3139 2c32 302c 2c2c 2c2c 2c2c  | b',32,19,20,,,,,,,' |
032: 2c33 2e33 302c 312e 3938 2c32 2e36 332c  | b',3.30,1.98,2.63,' |
048: 342a 3044 0d0a                           | b'4*0D\r\n' |
<NMEA(GPGSV, numMsg=3, msgNum=1, numSV=10, svid_01=2, elv_01=17.0, az_01=315, cno_01=20, svid_02=10, elv_02=85.0, az_02=216, cno_02=34, svid_03=12, elv_03=30.0, az_03=93, cno_03=19, svid_04=15, elv_04=2.0, az_04=92, cno_04=9, signalID=1)>000: 2447 5047 5356 2c33 2c31 2c31 302c 3032  | b'$GPGSV,3,1,10,02' |
016: 2c31 372c 3331 352c 3230 2c31 302c 3835  | b',17,315,20,10,85' |
032: 2c32 3136 2c33 342c 3132 2c33 302c 3039  | b',216,34,12,30,09' |
048: 332c 3139 2c31 352c 3032 2c30 3932 2c30  | b'3,19,15,02,092,0' |
064: 392c 312a 3645 0d0a                      | b'9,1*6E\r\n' |
<NMEA(GPGSV, numMsg=3, msgNum=2, numSV=10, svid_01=21, elv_01=21.0, az_01=307, cno_01=22, svid_02=23, elv_02=47.0, az_02=144, cno_02=25, svid_03=24, elv_03=29.0, az_03=52, cno_03=18, svid_04=25, elv_04=25.0, az_04=140, cno_04=18, signalID=1)>000: 2447 5047 5356 2c33 2c32 2c31 302c 3231  | b'$GPGSV,3,2,10,21' |
016: 2c32 312c 3330 372c 3232 2c32 332c 3437  | b',21,307,22,23,47' |
032: 2c31 3434 2c32 352c 3234 2c32 392c 3035  | b',144,25,24,29,05' |
048: 322c 3138 2c32 352c 3235 2c31 3430 2c31  | b'2,18,25,25,140,1' |
064: 382c 312a 3642 0d0a                      | b'8,1*6B\r\n' |
<NMEA(GPGSV, numMsg=3, msgNum=3, numSV=10, svid_01=28, elv_01=28.0, az_01=220, cno_01=19, svid_02=32, elv_02=54.0, az_02=291, cno_02=22, signalID=1)>000: 2447 5047 5356 2c33 2c33 2c31 302c 3238  | b'$GPGSV,3,3,10,28' |
016: 2c32 382c 3232 302c 3139 2c33 322c 3534  | b',28,220,19,32,54' |
032: 2c32 3931 2c32 322c 312a 3637 0d0a       | b',291,22,1*67\r\n' |
<NMEA(GPGSV, numMsg=1, msgNum=1, numSV=2, svid_01=10, elv_01=85.0, az_01=216, cno_01=16, svid_02=23, elv_02=47.0, az_02=144, cno_02=14, signalID=6)>000: 2447 5047 5356 2c31 2c31 2c30 322c 3130  | b'$GPGSV,1,1,02,10' |
016: 2c38 352c 3231 362c 3136 2c32 332c 3437  | b',85,216,16,23,47' |
032: 2c31 3434 2c31 342c 362a 3639 0d0a       | b',144,14,6*69\r\n' |
<NMEA(GPGSV, numMsg=1, msgNum=1, numSV=4, svid_01=18, elv_01=1.0, az_01=182, cno_01=, svid_02=31, elv_02=0.0, az_02=221, cno_02=, svid_03=44, elv_03=23.0, az_03=235, cno_03=, svid_04=46, elv_04=15.0, az_04=246, cno_04=, signalID=0)>000: 2447 5047 5356 2c31 2c31 2c30 342c 3138  | b'$GPGSV,1,1,04,18' |
016: 2c30 312c 3138 322c 2c33 312c 3030 2c32  | b',01,182,,31,00,2' |
032: 3231 2c2c 3434 2c32 332c 3233 352c 2c34  | b'21,,44,23,235,,4' |
048: 362c 3135 2c32 3436 2c2c 302a 3632 0d0a  | b'6,15,246,,0*62\r\n' |
<NMEA(GLGSV, numMsg=2, msgNum=1, numSV=7, svid_01=70, elv_01=47.0, az_01=82, cno_01=14, svid_02=71, elv_02=60.0, az_02=341, cno_02=35, svid_03=72, elv_03=19.0, az_03=302, cno_03=18, svid_04=73, elv_04=52.0, az_04=147, cno_04=27, signalID=1)>000: 2447 4c47 5356 2c32 2c31 2c30 372c 3730  | b'$GLGSV,2,1,07,70' |
016: 2c34 372c 3038 322c 3134 2c37 312c 3630  | b',47,082,14,71,60' |
032: 2c33 3431 2c33 352c 3732 2c31 392c 3330  | b',341,35,72,19,30' |
048: 322c 3138 2c37 332c 3532 2c31 3437 2c32  | b'2,18,73,52,147,2' |
064: 372c 312a 3736 0d0a                      | b'7,1*76\r\n' |
<NMEA(GLGSV, numMsg=2, msgNum=2, numSV=7, svid_01=74, elv_01=15.0, az_01=181, cno_01=4, svid_02=80, elv_02=45.0, az_02=51, cno_02=26, svid_03=87, elv_03=23.0, az_03=307, cno_03=22, signalID=1)>000: 2447 4c47 5356 2c32 2c32 2c30 372c 3734  | b'$GLGSV,2,2,07,74' |
016: 2c31 352c 3138 312c 3034 2c38 302c 3435  | b',15,181,04,80,45' |
032: 2c30 3531 2c32 362c 3837 2c32 332c 3330  | b',051,26,87,23,30' |
048: 372c 3232 2c31 2a34 370d 0a              | b'7,22,1*47\r\n' |
<NMEA(GLGSV, numMsg=1, msgNum=1, numSV=3, svid_01=79, elv_01=2.0, az_01=21, cno_01=, svid_02=86, elv_02=19.0, az_02=249, cno_02=, svid_03=88, elv_03=3.0, az_03=352, cno_03=, signalID=0)>000: 2447 4c47 5356 2c31 2c31 2c30 332c 3739  | b'$GLGSV,1,1,03,79' |
016: 2c30 322c 3032 312c 2c38 362c 3139 2c32  | b',02,021,,86,19,2' |
032: 3439 2c2c 3838 2c30 332c 3335 322c 2c30  | b'49,,88,03,352,,0' |
048: 2a34 420d 0a                             | b'*4B\r\n' |
<NMEA(GAGSV, numMsg=1, msgNum=1, numSV=1, svid_01=9, elv_01=55.0, az_01=67, cno_01=14, signalID=2)>000: 2447 4147 5356 2c31 2c31 2c30 312c 3039  | b'$GAGSV,1,1,01,09' |
016: 2c35 352c 3036 372c 3134 2c32 2a34 410d  | b',55,067,14,2*4A\r' |
032: 0a                                       | b'\n' |
<NMEA(GAGSV, numMsg=2, msgNum=1, numSV=8, svid_01=3, elv_01=11.0, az_01=275, cno_01=11, svid_02=5, elv_02=60.0, az_02=296, cno_02=25, svid_03=9, elv_03=55.0, az_03=67, cno_03=30, svid_04=15, elv_04=18.0, az_04=320, cno_04=18, signalID=7)>000: 2447 4147 5356 2c32 2c31 2c30 382c 3033  | b'$GAGSV,2,1,08,03' |
016: 2c31 312c 3237 352c 3131 2c30 352c 3630  | b',11,275,11,05,60' |
032: 2c32 3936 2c32 352c 3039 2c35 352c 3036  | b',296,25,09,55,06' |
048: 372c 3330 2c31 352c 3138 2c33 3230 2c31  | b'7,30,15,18,320,1' |
064: 382c 372a 3743 0d0a                      | b'8,7*7C\r\n' |
<NMEA(GAGSV, numMsg=2, msgNum=2, numSV=8, svid_01=24, elv_01=25.0, az_01=144, cno_01=17, svid_02=31, elv_02=35.0, az_02=86, cno_02=21, svid_03=34, elv_03=38.0, az_03=266, cno_03=25, svid_04=36, elv_04=21.0, az_04=208, cno_04=16, signalID=7)>000: 2447 4147 5356 2c32 2c32 2c30 382c 3234  | b'$GAGSV,2,2,08,24' |
016: 2c32 352c 3134 342c 3137 2c33 312c 3335  | b',25,144,17,31,35' |
032: 2c30 3836 2c32 312c 3334 2c33 382c 3236  | b',086,21,34,38,26' |
048: 362c 3235 2c33 362c 3231 2c32 3038 2c31  | b'6,25,36,21,208,1' |
064: 362c 372a 3736 0d0a                      | b'6,7*76\r\n' |
<NMEA(GAGSV, numMsg=1, msgNum=1, numSV=1, svid_01=4, elv_01=8.0, az_01=85, cno_01=, signalID=0)>000: 2447 4147 5356 2c31 2c31 2c30 312c 3034  | b'$GAGSV,1,1,01,04' |
016: 2c30 382c 3038 352c 2c30 2a34 340d 0a    | b',08,085,,0*44\r\n' |
<NMEA(GBGSV, numMsg=2, msgNum=1, numSV=7, svid_01=19, elv_01=31.0, az_01=302, cno_01=31, svid_02=20, elv_02=79.0, az_02=349, cno_02=35, svid_03=23, elv_03=28.0, az_03=49, cno_03=18, svid_04=29, elv_04=4.0, az_04=246, cno_04=11, signalID=1)>000: 2447 4247 5356 2c32 2c31 2c30 372c 3139  | b'$GBGSV,2,1,07,19' |
016: 2c33 312c 3330 322c 3331 2c32 302c 3739  | b',31,302,31,20,79' |
032: 2c33 3439 2c33 352c 3233 2c32 382c 3034  | b',349,35,23,28,04' |
048: 392c 3138 2c32 392c 3034 2c32 3436 2c31  | b'9,18,29,04,246,1' |
064: 312c 312a 3746 0d0a                      | b'1,1*7F\r\n' |
<NMEA(GBGSV, numMsg=2, msgNum=2, numSV=7, svid_01=32, elv_01=38.0, az_01=109, cno_01=26, svid_02=35, elv_02=9.0, az_02=298, cno_02=16, svid_03=37, elv_03=61.0, az_03=118, cno_03=36, signalID=1)>000: 2447 4247 5356 2c32 2c32 2c30 372c 3332  | b'$GBGSV,2,2,07,32' |
016: 2c33 382c 3130 392c 3236 2c33 352c 3039  | b',38,109,26,35,09' |
032: 2c32 3938 2c31 362c 3337 2c36 312c 3131  | b',298,16,37,61,11' |
048: 382c 3336 2c31 2a34 320d 0a              | b'8,36,1*42\r\n' |
<NMEA(GNGLL, lat=43.8827338017, NS=N, lon=-72.15806559, EW=W, time=20:25:28.500000, status=A, posMode=D)>000: 2447 4e47 4c4c 2c34 3335 322e 3936 3430  | b'$GNGLL,4352.9640' |
016: 3238 312c 4e2c 3037 3230 392e 3438 3339  | b'281,N,07209.4839' |
032: 3335 342c 572c 3230 3235 3238 2e35 302c  | b'354,W,202528.50,' |
048: 412c 442a 3632 0d0a                      | b'A,D*62\r\n' |
<NMEA(GNRMC, time=20:25:28.750000, status=A, lat=43.882733075, NS=N, lon=-72.158065135, EW=W, spd=0.48, cog=, date=2023-09-05, mv=, mvEW=, posMode=D, navStatus=V)>000: 2447 4e52 4d43 2c32 3032 3532 382e 3735  | b'$GNRMC,202528.75' |
016: 2c41 2c34 3335 322e 3936 3339 3834 352c  | b',A,4352.9639845,' |
032: 4e2c 3037 3230 392e 3438 3339 3038 312c  | b'N,07209.4839081,' |
048: 572c 302e 3438 302c 2c30 3530 3932 332c  | b'W,0.480,,050923,' |
064: 2c2c 442c 562a 3030 0d0a                 | b',,D,V*00\r\n' |
<NMEA(GNVTG, cogt=, cogtUnit=T, cogm=, cogmUnit=M, sogn=0.48, sognUnit=N, sogk=0.889, sogkUnit=K, posMode=D)>000: 2447 4e56 5447 2c2c 542c 2c4d 2c30 2e34  | b'$GNVTG,,T,,M,0.4' |
016: 3830 2c4e 2c30 2e38 3839 2c4b 2c44 2a33  | b'80,N,0.889,K,D*3' |
032: 440d 0a                                  | b'D\r\n' |
<NMEA(GNGGA, time=20:25:28.750000, lat=43.882733075, NS=N, lon=-72.158065135, EW=W, quality=2, numSV=12, HDOP=1.98, alt=139.808, altUnit=M, sep=-32.547, sepUnit=M, diffAge=, diffStation=0)>000: 2447 4e47 4741 2c32 3032 3532 382e 3735  | b'$GNGGA,202528.75' |
016: 2c34 3335 322e 3936 3339 3834 352c 4e2c  | b',4352.9639845,N,' |
032: 3037 3230 392e 3438 3339 3038 312c 572c  | b'07209.4839081,W,' |
048: 322c 3132 2c31 2e39 382c 3133 392e 3830  | b'2,12,1.98,139.80' |
064: 382c 4d2c 2d33 322e 3534 372c 4d2c 2c30  | b'8,M,-32.547,M,,0' |
080: 3030 302a 3733 0d0a                      | b'000*73\r\n' |
<NMEA(GNGSA, opMode=A, navMode=3, svid_01=25, svid_02=2, svid_03=21, svid_04=28, svid_05=12, svid_06=10, svid_07=24, svid_08=23, svid_09=32, svid_10=, svid_11=, svid_12=, PDOP=3.3, HDOP=1.98, VDOP=2.63, systemId=1)>000: 2447 4e47 5341 2c41 2c33 2c32 352c 3032  | b'$GNGSA,A,3,25,02' |
016: 2c32 312c 3238 2c31 322c 3130 2c32 342c  | b',21,28,12,10,24,' |
032: 3233 2c33 322c 2c2c 2c33 2e33 302c 312e  | b'23,32,,,,3.30,1.' |
048: 3938 2c32 2e36 332c 312a 3045 0d0a       | b'98,2.63,1*0E\r\n' |
<NMEA(GNGSA, opMode=A, navMode=3, svid_01=87, svid_02=73, svid_03=71, svid_04=80, svid_05=70, svid_06=72, svid_07=74, svid_08=, svid_09=, svid_10=, svid_11=, svid_12=, PDOP=3.3, HDOP=1.98, VDOP=2.63, systemId=2)>000: 2447 4e47 5341 2c41 2c33 2c38 372c 3733  | b'$GNGSA,A,3,87,73' |
016: 2c37 312c 3830 2c37 302c 3732 2c37 342c  | b',71,80,70,72,74,' |
032: 2c2c 2c2c 2c33 2e33 302c 312e 3938 2c32  | b',,,,,3.30,1.98,2' |
048: 2e36 332c 322a 3031 0d0a                 | b'.63,2*01\r\n' |
<NMEA(GNGSA, opMode=A, navMode=3, svid_01=15, svid_02=31, svid_03=36, svid_04=34, svid_05=3, svid_06=9, svid_07=24, svid_08=5, svid_09=, svid_10=, svid_11=, svid_12=, PDOP=3.3, HDOP=1.98, VDOP=2.63, systemId=3)>000: 2447 4e47 5341 2c41 2c33 2c31 352c 3331  | b'$GNGSA,A,3,15,31' |
016: 2c33 362c 3334 2c30 332c 3039 2c32 342c  | b',36,34,03,09,24,' |
032: 3035 2c2c 2c2c 2c33 2e33 302c 312e 3938  | b'05,,,,,3.30,1.98' |
048: 2c32 2e36 332c 332a 3039 0d0a            | b',2.63,3*09\r\n' |
<NMEA(GNGSA, opMode=A, navMode=3, svid_01=37, svid_02=23, svid_03=32, svid_04=19, svid_05=20, svid_06=, svid_07=, svid_08=, svid_09=, svid_10=, svid_11=, svid_12=, PDOP=3.3, HDOP=1.98, VDOP=2.63, systemId=4)>000: 2447 4e47 5341 2c41 2c33 2c33 372c 3233  | b'$GNGSA,A,3,37,23' |
016: 2c33 322c 3139 2c32 302c 2c2c 2c2c 2c2c  | b',32,19,20,,,,,,,' |
032: 2c33 2e33 302c 312e 3938 2c32 2e36 332c  | b',3.30,1.98,2.63,' |
048: 342a 3044 0d0a                           | b'4*0D\r\n' |
<NMEA(GPGSV, numMsg=3, msgNum=1, numSV=10, svid_01=2, elv_01=17.0, az_01=315, cno_01=20, svid_02=10, elv_02=85.0, az_02=216, cno_02=34, svid_03=12, elv_03=30.0, az_03=93, cno_03=20, svid_04=15, elv_04=2.0, az_04=92, cno_04=7, signalID=1)>000: 2447 5047 5356 2c33 2c31 2c31 302c 3032  | b'$GPGSV,3,1,10,02' |
016: 2c31 372c 3331 352c 3230 2c31 302c 3835  | b',17,315,20,10,85' |
032: 2c32 3136 2c33 342c 3132 2c33 302c 3039  | b',216,34,12,30,09' |
048: 332c 3230 2c31 352c 3032 2c30 3932 2c30  | b'3,20,15,02,092,0' |
064: 372c 312a 3641 0d0a                      | b'7,1*6A\r\n' |
<NMEA(GPGSV, numMsg=3, msgNum=2, numSV=10, svid_01=21, elv_01=21.0, az_01=307, cno_01=23, svid_02=23, elv_02=47.0, az_02=144, cno_02=25, svid_03=24, elv_03=29.0, az_03=52, cno_03=18, svid_04=25, elv_04=25.0, az_04=140, cno_04=18, signalID=1)>000: 2447 5047 5356 2c33 2c32 2c31 302c 3231  | b'$GPGSV,3,2,10,21' |
016: 2c32 312c 3330 372c 3233 2c32 332c 3437  | b',21,307,23,23,47' |
032: 2c31 3434 2c32 352c 3234 2c32 392c 3035  | b',144,25,24,29,05' |
048: 322c 3138 2c32 352c 3235 2c31 3430 2c31  | b'2,18,25,25,140,1' |
064: 382c 312a 3641 0d0a                      | b'8,1*6A\r\n' |
<NMEA(GPGSV, numMsg=3, msgNum=3, numSV=10, svid_01=28, elv_01=28.0, az_01=220, cno_01=20, svid_02=32, elv_02=54.0, az_02=291, cno_02=22, signalID=1)>000: 2447 5047 5356 2c33 2c33 2c31 302c 3238  | b'$GPGSV,3,3,10,28' |
016: 2c32 382c 3232 302c 3230 2c33 322c 3534  | b',28,220,20,32,54' |
032: 2c32 3931 2c32 322c 312a 3644 0d0a       | b',291,22,1*6D\r\n' |
<NMEA(GPGSV, numMsg=1, msgNum=1, numSV=2, svid_01=10, elv_01=85.0, az_01=216, cno_01=16, svid_02=23, elv_02=47.0, az_02=144, cno_02=13, signalID=6)>000: 2447 5047 5356 2c31 2c31 2c30 322c 3130  | b'$GPGSV,1,1,02,10' |
016: 2c38 352c 3231 362c 3136 2c32 332c 3437  | b',85,216,16,23,47' |
032: 2c31 3434 2c31 332c 362a 3645 0d0a       | b',144,13,6*6E\r\n' |
<NMEA(GPGSV, numMsg=1, msgNum=1, numSV=4, svid_01=18, elv_01=1.0, az_01=182, cno_01=, svid_02=31, elv_02=0.0, az_02=221, cno_02=, svid_03=44, elv_03=23.0, az_03=235, cno_03=, svid_04=46, elv_04=15.0, az_04=246, cno_04=, signalID=0)>000: 2447 5047 5356 2c31 2c31 2c30 342c 3138  | b'$GPGSV,1,1,04,18' |
016: 2c30 312c 3138 322c 2c33 312c 3030 2c32  | b',01,182,,31,00,2' |
032: 3231 2c2c 3434 2c32 332c 3233 352c 2c34  | b'21,,44,23,235,,4' |
048: 362c 3135 2c32 3436 2c2c 302a 3632 0d0a  | b'6,15,246,,0*62\r\n' |
<NMEA(GLGSV, numMsg=2, msgNum=1, numSV=7, svid_01=70, elv_01=47.0, az_01=82, cno_01=14, svid_02=71, elv_02=60.0, az_02=341, cno_02=35, svid_03=72, elv_03=19.0, az_03=302, cno_03=18, svid_04=73, elv_04=52.0, az_04=147, cno_04=27, signalID=1)>000: 2447 4c47 5356 2c32 2c31 2c30 372c 3730  | b'$GLGSV,2,1,07,70' |
016: 2c34 372c 3038 322c 3134 2c37 312c 3630  | b',47,082,14,71,60' |
032: 2c33 3431 2c33 352c 3732 2c31 392c 3330  | b',341,35,72,19,30' |
048: 322c 3138 2c37 332c 3532 2c31 3437 2c32  | b'2,18,73,52,147,2' |
064: 372c 312a 3736 0d0a                      | b'7,1*76\r\n' |
<NMEA(GLGSV, numMsg=2, msgNum=2, numSV=7, svid_01=74, elv_01=15.0, az_01=181, cno_01=9, svid_02=80, elv_02=45.0, az_02=51, cno_02=26, svid_03=87, elv_03=23.0, az_03=307, cno_03=22, signalID=1)>000: 2447 4c47 5356 2c32 2c32 2c30 372c 3734  | b'$GLGSV,2,2,07,74' |
016: 2c31 352c 3138 312c 3039 2c38 302c 3435  | b',15,181,09,80,45' |
032: 2c30 3531 2c32 362c 3837 2c32 332c 3330  | b',051,26,87,23,30' |
048: 372c 3232 2c31 2a34 410d 0a              | b'7,22,1*4A\r\n' |
<NMEA(GLGSV, numMsg=1, msgNum=1, numSV=3, svid_01=79, elv_01=2.0, az_01=21, cno_01=, svid_02=86, elv_02=19.0, az_02=249, cno_02=, svid_03=88, elv_03=3.0, az_03=352, cno_03=, signalID=0)>000: 2447 4c47 5356 2c31 2c31 2c30 332c 3739  | b'$GLGSV,1,1,03,79' |
016: 2c30 322c 3032 312c 2c38 362c 3139 2c32  | b',02,021,,86,19,2' |
032: 3439 2c2c 3838 2c30 332c 3335 322c 2c30  | b'49,,88,03,352,,0' |
048: 2a34 420d 0a                             | b'*4B\r\n' |
<NMEA(GAGSV, numMsg=1, msgNum=1, numSV=1, svid_01=9, elv_01=55.0, az_01=67, cno_01=14, signalID=2)>000: 2447 4147 5356 2c31 2c31 2c30 312c 3039  | b'$GAGSV,1,1,01,09' |
016: 2c35 352c 3036 372c 3134 2c32 2a34 410d  | b',55,067,14,2*4A\r' |
032: 0a                                       | b'\n' |
<NMEA(GAGSV, numMsg=2, msgNum=1, numSV=8, svid_01=3, elv_01=11.0, az_01=275, cno_01=9, svid_02=5, elv_02=60.0, az_02=296, cno_02=25, svid_03=9, elv_03=55.0, az_03=67, cno_03=30, svid_04=15, elv_04=18.0, az_04=320, cno_04=18, signalID=7)>000: 2447 4147 5356 2c32 2c31 2c30 382c 3033  | b'$GAGSV,2,1,08,03' |
016: 2c31 312c 3237 352c 3039 2c30 352c 3630  | b',11,275,09,05,60' |
032: 2c32 3936 2c32 352c 3039 2c35 352c 3036  | b',296,25,09,55,06' |
048: 372c 3330 2c31 352c 3138 2c33 3230 2c31  | b'7,30,15,18,320,1' |
064: 382c 372a 3735 0d0a                      | b'8,7*75\r\n' |
<NMEA(GAGSV, numMsg=2, msgNum=2, numSV=8, svid_01=24, elv_01=25.0, az_01=144, cno_01=17, svid_02=31, elv_02=35.0, az_02=86, cno_02=20, svid_03=34, elv_03=38.0, az_03=266, cno_03=25, svid_04=36, elv_04=21.0, az_04=208, cno_04=16, signalID=7)>000: 2447 4147 5356 2c32 2c32 2c30 382c 3234  | b'$GAGSV,2,2,08,24' |
016: 2c32 352c 3134 342c 3137 2c33 312c 3335  | b',25,144,17,31,35' |
032: 2c30 3836 2c32 302c 3334 2c33 382c 3236  | b',086,20,34,38,26' |
048: 362c 3235 2c33 362c 3231 2c32 3038 2c31  | b'6,25,36,21,208,1' |
064: 362c 372a 3737 0d0a                      | b'6,7*77\r\n' |
<NMEA(GAGSV, numMsg=1, msgNum=1, numSV=1, svid_01=4, elv_01=8.0, az_01=85, cno_01=, signalID=0)>000: 2447 4147 5356 2c31 2c31 2c30 312c 3034  | b'$GAGSV,1,1,01,04' |
016: 2c30 382c 3038 352c 2c30 2a34 340d 0a    | b',08,085,,0*44\r\n' |
<NMEA(GBGSV, numMsg=2, msgNum=1, numSV=8, svid_01=19, elv_01=31.0, az_01=302, cno_01=31, svid_02=20, elv_02=79.0, az_02=349, cno_02=35, svid_03=23, elv_03=28.0, az_03=49, cno_03=20, svid_04=29, elv_04=4.0, az_04=246, cno_04=12, signalID=1)>000: 2447 4247 5356 2c32 2c31 2c30 382c 3139  | b'$GBGSV,2,1,08,19' |
016: 2c33 312c 3330 322c 3331 2c32 302c 3739  | b',31,302,31,20,79' |
032: 2c33 3439 2c33 352c 3233 2c32 382c 3034  | b',349,35,23,28,04' |
048: 392c 3230 2c32 392c 3034 2c32 3436 2c31  | b'9,20,29,04,246,1' |
064: 322c 312a 3738 0d0a                      | b'2,1*78\r\n' |
<NMEA(GBGSV, numMsg=2, msgNum=2, numSV=8, svid_01=32, elv_01=38.0, az_01=109, cno_01=26, svid_02=33, elv_02=, az_02=, cno_02=21, svid_03=35, elv_03=9.0, az_03=298, cno_03=16, svid_04=37, elv_04=61.0, az_04=118, cno_04=33, signalID=1)>000: 2447 4247 5356 2c32 2c32 2c30 382c 3332  | b'$GBGSV,2,2,08,32' |
016: 2c33 382c 3130 392c 3236 2c33 332c 2c2c  | b',38,109,26,33,,,' |
032: 3231 2c33 352c 3039 2c32 3938 2c31 362c  | b'21,35,09,298,16,' |
048: 3337 2c36 312c 3131 382c 3333 2c31 2a34  | b'37,61,118,33,1*4' |
064: 420d 0a                                  | b'B\r\n' |
<NMEA(GNGLL, lat=43.882733075, NS=N, lon=-72.158065135, EW=W, time=20:25:28.750000, status=A, posMode=D)>000: 2447 4e47 4c4c 2c34 3335 322e 3936 3339  | b'$GNGLL,4352.9639' |
016: 3834 352c 4e2c 3037 3230 392e 3438 3339  | b'845,N,07209.4839' |
032: 3038 312c 572c 3230 3235 3238 2e37 352c  | b'081,W,202528.75,' |
048: 412c 442a 3632 0d0a                      | b'A,D*62\r\n' |
<NMEA(GNRMC, time=20:25:29, status=A, lat=43.8827328583, NS=N, lon=-72.1580648833, EW=W, spd=0.24, cog=, date=2023-09-05, mv=, mvEW=, posMode=D, navStatus=V)>000: 2447 4e52 4d43 2c32 3032 3532 392e 3030  | b'$GNRMC,202529.00' |
016: 2c41 2c34 3335 322e 3936 3339 3731 352c  | b',A,4352.9639715,' |
032: 4e2c 3037 3230 392e 3438 3338 3933 302c  | b'N,07209.4838930,' |
048: 572c 302e 3234 302c 2c30 3530 3932 332c  | b'W,0.240,,050923,' |
064: 2c2c 442c 562a 3031 0d0a                 | b',,D,V*01\r\n' |
<NMEA(GNVTG, cogt=, cogtUnit=T, cogm=, cogmUnit=M, sogn=0.24, sognUnit=N, sogk=0.445, sogkUnit=K, posMode=D)>000: 2447 4e56 5447 2c2c 542c 2c4d 2c30 2e32  | b'$GNVTG,,T,,M,0.2' |
016: 3430 2c4e 2c30 2e34 3435 2c4b 2c44 2a33  | b'40,N,0.445,K,D*3' |
032: 420d 0a                                  | b'B\r\n' |
<NMEA(GNGGA, time=20:25:29, lat=43.8827328583, NS=N, lon=-72.1580648833, EW=W, quality=2, numSV=12, HDOP=1.98, alt=139.811, altUnit=M, sep=-32.547, sepUnit=M, diffAge=, diffStation=0)>000: 2447 4e47 4741 2c32 3032 3532 392e 3030  | b'$GNGGA,202529.00' |
016: 2c34 3335 322e 3936 3339 3731 352c 4e2c  | b',4352.9639715,N,' |
032: 3037 3230 392e 3438 3338 3933 302c 572c  | b'07209.4838930,W,' |
048: 322c 3132 2c31 2e39 382c 3133 392e 3831  | b'2,12,1.98,139.81' |
064: 312c 4d2c 2d33 322e 3534 372c 4d2c 2c30  | b'1,M,-32.547,M,,0' |
080: 3030 302a 3730 0d0a                      | b'000*70\r\n' |
<NMEA(GNGSA, opMode=A, navMode=3, svid_01=25, svid_02=2, svid_03=21, svid_04=28, svid_05=12, svid_06=10, svid_07=24, svid_08=23, svid_09=32, svid_10=, svid_11=, svid_12=, PDOP=3.3, HDOP=1.98, VDOP=2.63, systemId=1)>000: 2447 4e47 5341 2c41 2c33 2c32 352c 3032  | b'$GNGSA,A,3,25,02' |
016: 2c32 312c 3238 2c31 322c 3130 2c32 342c  | b',21,28,12,10,24,' |
032: 3233 2c33 322c 2c2c 2c33 2e33 302c 312e  | b'23,32,,,,3.30,1.' |
048: 3938 2c32 2e36 332c 312a 3045 0d0a       | b'98,2.63,1*0E\r\n' |
<NMEA(GNGSA, opMode=A, navMode=3, svid_01=87, svid_02=73, svid_03=71, svid_04=80, svid_05=70, svid_06=72, svid_07=74, svid_08=, svid_09=, svid_10=, svid_11=, svid_12=, PDOP=3.3, HDOP=1.98, VDOP=2.63, systemId=2)>000: 2447 4e47 5341 2c41 2c33 2c38 372c 3733  | b'$GNGSA,A,3,87,73' |
016: 2c37 312c 3830 2c37 302c 3732 2c37 342c  | b',71,80,70,72,74,' |
032: 2c2c 2c2c 2c33 2e33 302c 312e 3938 2c32  | b',,,,,3.30,1.98,2' |
048: 2e36 332c 322a 3031 0d0a                 | b'.63,2*01\r\n' |
<NMEA(GNGSA, opMode=A, navMode=3, svid_01=15, svid_02=31, svid_03=36, svid_04=34, svid_05=3, svid_06=9, svid_07=24, svid_08=5, svid_09=, svid_10=, svid_11=, svid_12=, PDOP=3.3, HDOP=1.98, VDOP=2.63, systemId=3)>000: 2447 4e47 5341 2c41 2c33 2c31 352c 3331  | b'$GNGSA,A,3,15,31' |
016: 2c33 362c 3334 2c30 332c 3039 2c32 342c  | b',36,34,03,09,24,' |
032: 3035 2c2c 2c2c 2c33 2e33 302c 312e 3938  | b'05,,,,,3.30,1.98' |
048: 2c32 2e36 332c 332a 3039 0d0a            | b',2.63,3*09\r\n' |
<NMEA(GNGSA, opMode=A, navMode=3, svid_01=37, svid_02=23, svid_03=32, svid_04=19, svid_05=20, svid_06=, svid_07=, svid_08=, svid_09=, svid_10=, svid_11=, svid_12=, PDOP=3.3, HDOP=1.98, VDOP=2.63, systemId=4)>000: 2447 4e47 5341 2c41 2c33 2c33 372c 3233  | b'$GNGSA,A,3,37,23' |
016: 2c33 322c 3139 2c32 302c 2c2c 2c2c 2c2c  | b',32,19,20,,,,,,,' |
032: 2c33 2e33 302c 312e 3938 2c32 2e36 332c  | b',3.30,1.98,2.63,' |
048: 342a 3044 0d0a                           | b'4*0D\r\n' |
<NMEA(GPGSV, numMsg=3, msgNum=1, numSV=10, svid_01=2, elv_01=17.0, az_01=315, cno_01=20, svid_02=10, elv_02=85.0, az_02=216, cno_02=34, svid_03=12, elv_03=30.0, az_03=93, cno_03=20, svid_04=15, elv_04=2.0, az_04=92, cno_04=7, signalID=1)>000: 2447 5047 5356 2c33 2c31 2c31 302c 3032  | b'$GPGSV,3,1,10,02' |
016: 2c31 372c 3331 352c 3230 2c31 302c 3835  | b',17,315,20,10,85' |
032: 2c32 3136 2c33 342c 3132 2c33 302c 3039  | b',216,34,12,30,09' |
048: 332c 3230 2c31 352c 3032 2c30 3932 2c30  | b'3,20,15,02,092,0' |
064: 372c 312a 3641 0d0a                      | b'7,1*6A\r\n' |
<NMEA(GPGSV, numMsg=3, msgNum=2, numSV=10, svid_01=21, elv_01=21.0, az_01=307, cno_01=22, svid_02=23, elv_02=47.0, az_02=144, cno_02=25, svid_03=24, elv_03=29.0, az_03=52, cno_03=19, svid_04=25, elv_04=25.0, az_04=140, cno_04=19, signalID=1)>000: 2447 5047 5356 2c33 2c32 2c31 302c 3231  | b'$GPGSV,3,2,10,21' |
016: 2c32 312c 3330 372c 3232 2c32 332c 3437  | b',21,307,22,23,47' |
032: 2c31 3434 2c32 352c 3234 2c32 392c 3035  | b',144,25,24,29,05' |
048: 322c 3139 2c32 352c 3235 2c31 3430 2c31  | b'2,19,25,25,140,1' |
064: 392c 312a 3642 0d0a                      | b'9,1*6B\r\n' |
<NMEA(GPGSV, numMsg=3, msgNum=3, numSV=10, svid_01=28, elv_01=28.0, az_01=220, cno_01=21, svid_02=32, elv_02=54.0, az_02=291, cno_02=22, signalID=1)>000: 2447 5047 5356 2c33 2c33 2c31 302c 3238  | b'$GPGSV,3,3,10,28' |
016: 2c32 382c 3232 302c 3231 2c33 322c 3534  | b',28,220,21,32,54' |
032: 2c32 3931 2c32 322c 312a 3643 0d0a       | b',291,22,1*6C\r\n' |
<NMEA(GPGSV, numMsg=1, msgNum=1, numSV=2, svid_01=10, elv_01=85.0, az_01=216, cno_01=15, svid_02=23, elv_02=47.0, az_02=144, cno_02=13, signalID=6)>000: 2447 5047 5356 2c31 2c31 2c30 322c 3130  | b'$GPGSV,1,1,02,10' |
016: 2c38 352c 3231 362c 3135 2c32 332c 3437  | b',85,216,15,23,47' |
032: 2c31 3434 2c31 332c 362a 3644 0d0a       | b',144,13,6*6D\r\n' |
<NMEA(GPGSV, numMsg=1, msgNum=1, numSV=4, svid_01=18, elv_01=1.0, az_01=182, cno_01=, svid_02=31, elv_02=0.0, az_02=221, cno_02=, svid_03=44, elv_03=23.0, az_03=235, cno_03=, svid_04=46, elv_04=15.0, az_04=246, cno_04=, signalID=0)>000: 2447 5047 5356 2c31 2c31 2c30 342c 3138  | b'$GPGSV,1,1,04,18' |
016: 2c30 312c 3138 322c 2c33 312c 3030 2c32  | b',01,182,,31,00,2' |
032: 3231 2c2c 3434 2c32 332c 3233 352c 2c34  | b'21,,44,23,235,,4' |
048: 362c 3135 2c32 3436 2c2c 302a 3632 0d0a  | b'6,15,246,,0*62\r\n' |
<NMEA(GLGSV, numMsg=2, msgNum=1, numSV=7, svid_01=70, elv_01=47.0, az_01=82, cno_01=14, svid_02=71, elv_02=60.0, az_02=341, cno_02=35, svid_03=72, elv_03=19.0, az_03=302, cno_03=18, svid_04=73, elv_04=52.0, az_04=147, cno_04=27, signalID=1)>000: 2447 4c47 5356 2c32 2c31 2c30 372c 3730  | b'$GLGSV,2,1,07,70' |
016: 2c34 372c 3038 322c 3134 2c37 312c 3630  | b',47,082,14,71,60' |
032: 2c33 3431 2c33 352c 3732 2c31 392c 3330  | b',341,35,72,19,30' |
048: 322c 3138 2c37 332c 3532 2c31 3437 2c32  | b'2,18,73,52,147,2' |
064: 372c 312a 3736 0d0a                      | b'7,1*76\r\n' |
<NMEA(GLGSV, numMsg=2, msgNum=2, numSV=7, svid_01=74, elv_01=15.0, az_01=181, cno_01=9, svid_02=80, elv_02=45.0, az_02=51, cno_02=26, svid_03=87, elv_03=23.0, az_03=307, cno_03=21, signalID=1)>000: 2447 4c47 5356 2c32 2c32 2c30 372c 3734  | b'$GLGSV,2,2,07,74' |
016: 2c31 352c 3138 312c 3039 2c38 302c 3435  | b',15,181,09,80,45' |
032: 2c30 3531 2c32 362c 3837 2c32 332c 3330  | b',051,26,87,23,30' |
048: 372c 3231 2c31 2a34 390d 0a              | b'7,21,1*49\r\n' |
<NMEA(GLGSV, numMsg=1, msgNum=1, numSV=3, svid_01=79, elv_01=2.0, az_01=21, cno_01=, svid_02=86, elv_02=19.0, az_02=249, cno_02=, svid_03=88, elv_03=3.0, az_03=352, cno_03=, signalID=0)>000: 2447 4c47 5356 2c31 2c31 2c30 332c 3739  | b'$GLGSV,1,1,03,79' |
016: 2c30 322c 3032 312c 2c38 362c 3139 2c32  | b',02,021,,86,19,2' |
032: 3439 2c2c 3838 2c30 332c 3335 322c 2c30  | b'49,,88,03,352,,0' |
048: 2a34 420d 0a                             | b'*4B\r\n' |
<NMEA(GAGSV, numMsg=1, msgNum=1, numSV=1, svid_01=9, elv_01=55.0, az_01=67, cno_01=14, signalID=2)>000: 2447 4147 5356 2c31 2c31 2c30 312c 3039  | b'$GAGSV,1,1,01,09' |
016: 2c35 352c 3036 372c 3134 2c32 2a34 410d  | b',55,067,14,2*4A\r' |
032: 0a                                       | b'\n' |
<NMEA(GNTXT, numMsg=1, msgNum=1, msgType=0, text=txbuf alloc)>000: 2447 4e54 5854 2c30 312c 3031 2c30 302c  | b'$GNTXT,01,01,00,' |
016: 7478 6275 6620 616c 6c6f 632a 3631 0d0a  | b'txbuf alloc*61\r\n' |
<NMEA(GNRMC, time=20:25:29.250000, status=A, lat=43.8827322567, NS=N, lon=-72.1580644417, EW=W, spd=0.439, cog=, date=2023-09-05, mv=, mvEW=, posMode=D, navStatus=V)>000: 2447 4e52 4d43 2c32 3032 3532 392e 3235  | b'$GNRMC,202529.25' |
016: 2c41 2c34 3335 322e 3936 3339 3335 342c  | b',A,4352.9639354,' |
032: 4e2c 3037 3230 392e 3438 3338 3636 352c  | b'N,07209.4838665,' |
048: 572c 302e 3433 392c 2c30 3530 3932 332c  | b'W,0.439,,050923,' |
064: 2c2c 442c 562a 3030 0d0a                 | b',,D,V*00\r\n' |
<NMEA(GNVTG, cogt=, cogtUnit=T, cogm=, cogmUnit=M, sogn=0.439, sognUnit=N, sogk=0.814, sogkUnit=K, posMode=D)>000: 2447 4e56 5447 2c2c 542c 2c4d 2c30 2e34  | b'$GNVTG,,T,,M,0.4' |
016: 3339 2c4e 2c30 2e38 3134 2c4b 2c44 2a33  | b'39,N,0.814,K,D*3' |
032: 420d 0a                                  | b'B\r\n' |
<NMEA(GNGGA, time=20:25:29.250000, lat=43.8827322567, NS=N, lon=-72.1580644417, EW=W, quality=2, numSV=12, HDOP=1.98, alt=139.81, altUnit=M, sep=-32.547, sepUnit=M, diffAge=, diffStation=0)>000: 2447 4e47 4741 2c32 3032 3532 392e 3235  | b'$GNGGA,202529.25' |
016: 2c34 3335 322e 3936 3339 3335 342c 4e2c  | b',4352.9639354,N,' |
032: 3037 3230 392e 3438 3338 3636 352c 572c  | b'07209.4838665,W,' |
048: 322c 3132 2c31 2e39 382c 3133 392e 3831  | b'2,12,1.98,139.81' |
064: 302c 4d2c 2d33 322e 3534 372c 4d2c 2c30  | b'0,M,-32.547,M,,0' |
080: 3030 302a 3738 0d0a                      | b'000*78\r\n' |
<NMEA(GNGSA, opMode=A, navMode=3, svid_01=25, svid_02=2, svid_03=21, svid_04=28, svid_05=12, svid_06=10, svid_07=24, svid_08=23, svid_09=32, svid_10=, svid_11=, svid_12=, PDOP=3.3, HDOP=1.98, VDOP=2.63, systemId=1)>000: 2447 4e47 5341 2c41 2c33 2c32 352c 3032  | b'$GNGSA,A,3,25,02' |
016: 2c32 312c 3238 2c31 322c 3130 2c32 342c  | b',21,28,12,10,24,' |
032: 3233 2c33 322c 2c2c 2c33 2e33 302c 312e  | b'23,32,,,,3.30,1.' |
048: 3938 2c32 2e36 332c 312a 3045 0d0a       | b'98,2.63,1*0E\r\n' |
<NMEA(GNGSA, opMode=A, navMode=3, svid_01=87, svid_02=73, svid_03=71, svid_04=80, svid_05=70, svid_06=72, svid_07=74, svid_08=, svid_09=, svid_10=, svid_11=, svid_12=, PDOP=3.3, HDOP=1.98, VDOP=2.63, systemId=2)>000: 2447 4e47 5341 2c41 2c33 2c38 372c 3733  | b'$GNGSA,A,3,87,73' |
016: 2c37 312c 3830 2c37 302c 3732 2c37 342c  | b',71,80,70,72,74,' |
032: 2c2c 2c2c 2c33 2e33 302c 312e 3938 2c32  | b',,,,,3.30,1.98,2' |
048: 2e36 332c 322a 3031 0d0a                 | b'.63,2*01\r\n' |
<NMEA(GNGSA, opMode=A, navMode=3, svid_01=15, svid_02=31, svid_03=36, svid_04=34, svid_05=3, svid_06=9, svid_07=24, svid_08=5, svid_09=, svid_10=, svid_11=, svid_12=, PDOP=3.3, HDOP=1.98, VDOP=2.63, systemId=3)>000: 2447 4e47 5341 2c41 2c33 2c31 352c 3331  | b'$GNGSA,A,3,15,31' |
016: 2c33 362c 3334 2c30 332c 3039 2c32 342c  | b',36,34,03,09,24,' |
032: 3035 2c2c 2c2c 2c33 2e33 302c 312e 3938  | b'05,,,,,3.30,1.98' |
048: 2c32 2e36 332c 332a 3039 0d0a            | b',2.63,3*09\r\n' |
<NMEA(GNGSA, opMode=A, navMode=3, svid_01=37, svid_02=23, svid_03=32, svid_04=19, svid_05=20, svid_06=, svid_07=, svid_08=, svid_09=, svid_10=, svid_11=, svid_12=, PDOP=3.3, HDOP=1.98, VDOP=2.63, systemId=4)>000: 2447 4e47 5341 2c41 2c33 2c33 372c 3233  | b'$GNGSA,A,3,37,23' |
016: 2c33 322c 3139 2c32 302c 2c2c 2c2c 2c2c  | b',32,19,20,,,,,,,' |
032: 2c33 2e33 302c 312e 3938 2c32 2e36 332c  | b',3.30,1.98,2.63,' |
048: 342a 3044 0d0a                           | b'4*0D\r\n' |
<NMEA(GPGSV, numMsg=3, msgNum=1, numSV=10, svid_01=2, elv_01=17.0, az_01=315, cno_01=20, svid_02=10, elv_02=85.0, az_02=216, cno_02=37, svid_03=12, elv_03=30.0, az_03=93, cno_03=21, svid_04=15, elv_04=2.0, az_04=92, cno_04=9, signalID=1)>000: 2447 5047 5356 2c33 2c31 2c31 302c 3032  | b'$GPGSV,3,1,10,02' |
016: 2c31 372c 3331 352c 3230 2c31 302c 3835  | b',17,315,20,10,85' |
032: 2c32 3136 2c33 372c 3132 2c33 302c 3039  | b',216,37,12,30,09' |
048: 332c 3231 2c31 352c 3032 2c30 3932 2c30  | b'3,21,15,02,092,0' |
064: 392c 312a 3636 0d0a                      | b'9,1*66\r\n' |
<NMEA(GPGSV, numMsg=3, msgNum=2, numSV=10, svid_01=21, elv_01=21.0, az_01=307, cno_01=22, svid_02=23, elv_02=47.0, az_02=144, cno_02=26, svid_03=24, elv_03=29.0, az_03=52, cno_03=19, svid_04=25, elv_04=25.0, az_04=140, cno_04=19, signalID=1)>000: 2447 5047 5356 2c33 2c32 2c31 302c 3231  | b'$GPGSV,3,2,10,21' |
016: 2c32 312c 3330 372c 3232 2c32 332c 3437  | b',21,307,22,23,47' |
032: 2c31 3434 2c32 362c 3234 2c32 392c 3035  | b',144,26,24,29,05' |
048: 322c 3139 2c32 352c 3235 2c31 3430 2c31  | b'2,19,25,25,140,1' |
064: 392c 312a 3638 0d0a                      | b'9,1*68\r\n' |
<NMEA(GPGSV, numMsg=3, msgNum=3, numSV=10, svid_01=28, elv_01=28.0, az_01=220, cno_01=21, svid_02=32, elv_02=54.0, az_02=291, cno_02=22, signalID=1)>000: 2447 5047 5356 2c33 2c33 2c31 302c 3238  | b'$GPGSV,3,3,10,28' |
016: 2c32 382c 3232 302c 3231 2c33 322c 3534  | b',28,220,21,32,54' |
032: 2c32 3931 2c32 322c 312a 3643 0d0a       | b',291,22,1*6C\r\n' |
<NMEA(GPGSV, numMsg=1, msgNum=1, numSV=2, svid_01=10, elv_01=85.0, az_01=216, cno_01=15, svid_02=23, elv_02=47.0, az_02=144, cno_02=13, signalID=6)>000: 2447 5047 5356 2c31 2c31 2c30 322c 3130  | b'$GPGSV,1,1,02,10' |
016: 2c38 352c 3231 362c 3135 2c32 332c 3437  | b',85,216,15,23,47' |
032: 2c31 3434 2c31 332c 362a 3644 0d0a       | b',144,13,6*6D\r\n' |
<NMEA(GPGSV, numMsg=1, msgNum=1, numSV=4, svid_01=18, elv_01=1.0, az_01=182, cno_01=, svid_02=31, elv_02=0.0, az_02=221, cno_02=, svid_03=44, elv_03=23.0, az_03=235, cno_03=, svid_04=46, elv_04=15.0, az_04=246, cno_04=, signalID=0)>000: 2447 5047 5356 2c31 2c31 2c30 342c 3138  | b'$GPGSV,1,1,04,18' |
016: 2c30 312c 3138 322c 2c33 312c 3030 2c32  | b',01,182,,31,00,2' |
032: 3231 2c2c 3434 2c32 332c 3233 352c 2c34  | b'21,,44,23,235,,4' |
048: 362c 3135 2c32 3436 2c2c 302a 3632 0d0a  | b'6,15,246,,0*62\r\n' |
<NMEA(GLGSV, numMsg=2, msgNum=1, numSV=7, svid_01=70, elv_01=47.0, az_01=82, cno_01=14, svid_02=71, elv_02=60.0, az_02=341, cno_02=31, svid_03=72, elv_03=19.0, az_03=302, cno_03=17, svid_04=73, elv_04=52.0, az_04=147, cno_04=28, signalID=1)>000: 2447 4c47 5356 2c32 2c31 2c30 372c 3730  | b'$GLGSV,2,1,07,70' |
016: 2c34 372c 3038 322c 3134 2c37 312c 3630  | b',47,082,14,71,60' |
032: 2c33 3431 2c33 312c 3732 2c31 392c 3330  | b',341,31,72,19,30' |
048: 322c 3137 2c37 332c 3532 2c31 3437 2c32  | b'2,17,73,52,147,2' |
064: 382c 312a 3732 0d0a                      | b'8,1*72\r\n' |
<NMEA(GLGSV, numMsg=2, msgNum=2, numSV=7, svid_01=74, elv_01=15.0, az_01=181, cno_01=9, svid_02=80, elv_02=45.0, az_02=51, cno_02=26, svid_03=87, elv_03=23.0, az_03=307, cno_03=21, signalID=1)>000: 2447 4c47 5356 2c32 2c32 2c30 372c 3734  | b'$GLGSV,2,2,07,74' |
016: 2c31 352c 3138 312c 3039 2c38 302c 3435  | b',15,181,09,80,45' |
032: 2c30 3531 2c32 362c 3837 2c32 332c 3330  | b',051,26,87,23,30' |
048: 372c 3231 2c31 2a34 390d 0a              | b'7,21,1*49\r\n' |
<NMEA(GLGSV, numMsg=1, msgNum=1, numSV=3, svid_01=79, elv_01=2.0, az_01=21, cno_01=, svid_02=86, elv_02=19.0, az_02=249, cno_02=, svid_03=88, elv_03=3.0, az_03=352, cno_03=, signalID=0)>000: 2447 4c47 5356 2c31 2c31 2c30 332c 3739  | b'$GLGSV,1,1,03,79' |
016: 2c30 322c 3032 312c 2c38 362c 3139 2c32  | b',02,021,,86,19,2' |
032: 3439 2c2c 3838 2c30 332c 3335 322c 2c30  | b'49,,88,03,352,,0' |
048: 2a34 420d 0a                             | b'*4B\r\n' |
<NMEA(GAGSV, numMsg=1, msgNum=1, numSV=1, svid_01=9, elv_01=55.0, az_01=67, cno_01=14, signalID=2)>000: 2447 4147 5356 2c31 2c31 2c30 312c 3039  | b'$GAGSV,1,1,01,09' |
016: 2c35 352c 3036 372c 3134 2c32 2a34 410d  | b',55,067,14,2*4A\r' |
032: 0a                                       | b'\n' |
<NMEA(GAGSV, numMsg=2, msgNum=1, numSV=8, svid_01=3, elv_01=11.0, az_01=275, cno_01=13, svid_02=5, elv_02=60.0, az_02=296, cno_02=24, svid_03=9, elv_03=55.0, az_03=67, cno_03=31, svid_04=15, elv_04=18.0, az_04=320, cno_04=17, signalID=7)>000: 2447 4147 5356 2c32 2c31 2c30 382c 3033  | b'$GAGSV,2,1,08,03' |
016: 2c31 312c 3237 352c 3133 2c30 352c 3630  | b',11,275,13,05,60' |
032: 2c32 3936 2c32 342c 3039 2c35 352c 3036  | b',296,24,09,55,06' |
048: 372c 3331 2c31 352c 3138 2c33 3230 2c31  | b'7,31,15,18,320,1' |
064: 372c 372a 3731 0d0a                      | b'7,7*71\r\n' |
<NMEA(GAGSV, numMsg=2, msgNum=2, numSV=8, svid_01=24, elv_01=25.0, az_01=144, cno_01=17, svid_02=31, elv_02=35.0, az_02=86, cno_02=21, svid_03=34, elv_03=38.0, az_03=266, cno_03=23, svid_04=36, elv_04=21.0, az_04=208, cno_04=16, signalID=7)>000: 2447 4147 5356 2c32 2c32 2c30 382c 3234  | b'$GAGSV,2,2,08,24' |
016: 2c32 352c 3134 342c 3137 2c33 312c 3335  | b',25,144,17,31,35' |
032: 2c30 3836 2c32 312c 3334 2c33 382c 3236  | b',086,21,34,38,26' |
