<NMEA(GPGSV, numMsg=1, msgNum=1, numSV=1, svid_01=31, elv_01=0.0, az_01=221, cno_01=, signalID=0)>000: 2447 5047 5356 2c31 2c31 2c30 312c 3331  | b'$GPGSV,1,1,01,31' |
016: 2c30 302c 3232 312c 2c30 2a35 370d 0a    | b',00,221,,0*57\r\n' |
<NMEA(GLGSV, numMsg=2, msgNum=1, numSV=7, svid_01=70, elv_01=46.0, az_01=85, cno_01=17, svid_02=71, elv_02=61.0, az_02=344, cno_02=38, svid_03=72, elv_03=20.0, az_03=304, cno_03=16, svid_04=73, elv_04=54.0, az_04=145, cno_04=34, signalID=1)>000: 2447 4c47 5356 2c32 2c31 2c30 372c 3730  | b'$GLGSV,2,1,07,70' |
016: 2c34 362c 3038 352c 3137 2c37 312c 3631  | b',46,085,17,71,61' |
032: 2c33 3434 2c33 382c 3732 2c32 302c 3330  | b',344,38,72,20,30' |
048: 342c 3136 2c37 332c 3534 2c31 3435 2c33  | b'4,16,73,54,145,3' |
064: 342c 312a 3745 0d0a                      | b'4,1*7E\r\n' |
<NMEA(GLGSV, numMsg=2, msgNum=2, numSV=7, svid_01=74, elv_01=17.0, az_01=181, cno_01=12, svid_02=80, elv_02=44.0, az_02=48, cno_02=33, svid_03=87, elv_03=23.0, az_03=304, cno_03=21, signalID=1)>000: 2447 4c47 5356 2c32 2c32 2c30 372c 3734  | b'$GLGSV,2,2,07,74' |
016: 2c31 372c 3138 312c 3132 2c38 302c 3434  | b',17,181,12,80,44' |
032: 2c30 3438 2c33 332c 3837 2c32 332c 3330  | b',048,33,87,23,30' |
048: 342c 3231 2c31 2a34 460d 0a              | b'4,21,1*4F\r\n' |
<NMEA(GLGSV, numMsg=1, msgNum=1, numSV=3, svid_01=79, elv_01=0.0, az_01=21, cno_01=, svid_02=86, elv_02=17.0, az_02=248, cno_02=, svid_03=88, elv_03=4.0, az_03=351, cno_03=, signalID=0)>000: 2447 4c47 5356 2c31 2c31 2c30 332c 3739  | b'$GLGSV,1,1,03,79' |
016: 2c30 302c 3032 312c 2c38 362c 3137 2c32  | b',00,021,,86,17,2' |
032: 3438 2c2c 3838 2c30 342c 3335 312c 2c30  | b'48,,88,04,351,,0' |
048: 2a34 320d 0a                             | b'*42\r\n' |
<NMEA(GAGSV, numMsg=1, msgNum=1, numSV=1, svid_01=9, elv_01=55.0, az_01=68, cno_01=14, signalID=2)>000: 2447 4147 5356 2c31 2c31 2c30 312c 3039  | b'$GAGSV,1,1,01,09' |
016: 2c35 352c 3036 382c 3134 2c32 2a34 350d  | b',55,068,14,2*45\r' |
032: 0a                                       | b'\n' |
<NMEA(GAGSV, numMsg=3, msgNum=1, numSV=9, svid_01=3, elv_01=12.0, az_01=275, cno_01=15, svid_02=4, elv_02=7.0, az_02=86, cno_02=10, svid_03=5, elv_03=61.0, az_03=297, cno_03=21, svid_04=9, elv_04=55.0, az_04=68, cno_04=33, signalID=7)>000: 2447 4147 5356 2c33 2c31 2c30 392c 3033  | b'$GAGSV,3,1,09,03' |
016: 2c31 322c 3237 352c 3135 2c30 342c 3037  | b',12,275,15,04,07' |
032: 2c30 3836 2c31 302c 3035 2c36 312c 3239  | b',086,10,05,61,29' |
048: 372c 3231 2c30 392c 3535 2c30 3638 2c33  | b'7,21,09,55,068,3' |
064: 332c 372a 3741 0d0a                      | b'3,7*7A\r\n' |
<NMEA(GAGSV, numMsg=3, msgNum=2, numSV=9, svid_01=15, elv_01=19.0, az_01=320, cno_01=20, svid_02=24, elv_02=26.0, az_02=143, cno_02=23, svid_03=31, elv_03=35.0, az_03=85, cno_03=32, svid_04=34, elv_04=37.0, az_04=265, cno_04=23, signalID=7)>000: 2447 4147 5356 2c33 2c32 2c30 392c 3135  | b'$GAGSV,3,2,09,15' |
016: 2c31 392c 3332 302c 3230 2c32 342c 3236  | b',19,320,20,24,26' |
032: 2c31 3433 2c32 332c 3331 2c33 352c 3038  | b',143,23,31,35,08' |
048: 352c 3332 2c33 342c 3337 2c32 3635 2c32  | b'5,32,34,37,265,2' |
064: 332c 372a 3741 0d0a                      | b'3,7*7A\r\n' |
<NMEA(GAGSV, numMsg=3, msgNum=3, numSV=9, svid_01=36, elv_01=21.0, az_01=208, cno_01=21, signalID=7)>000: 2447 4147 5356 2c33 2c33 2c30 392c 3336  | b'$GAGSV,3,3,09,36' |
016: 2c32 312c 3230 382c 3231 2c37 2a34 350d  | b',21,208,21,7*45\r' |
032: 0a                                       | b'\n' |
<NMEA(GBGSV, numMsg=2, msgNum=1, numSV=6, svid_01=19, elv_01=31.0, az_01=303, cno_01=26, svid_02=20, elv_02=80.0, az_02=352, cno_02=34, svid_03=23, elv_03=28.0, az_03=49, cno_03=20, svid_04=32, elv_04=36.0, az_04=110, cno_04=31, signalID=1)>000: 2447 4247 5356 2c32 2c31 2c30 362c 3139  | b'$GBGSV,2,1,06,19' |
016: 2c33 312c 3330 332c 3236 2c32 302c 3830  | b',31,303,26,20,80' |
032: 2c33 3532 2c33 342c 3233 2c32 382c 3034  | b',352,34,23,28,04' |
048: 392c 3230 2c33 322c 3336 2c31 3130 2c33  | b'9,20,32,36,110,3' |
064: 312c 312a 3736 0d0a                      | b'1,1*76\r\n' |
<NMEA(GBGSV, numMsg=2, msgNum=2, numSV=6, svid_01=35, elv_01=8.0, az_01=297, cno_01=8, svid_02=37, elv_02=62.0, az_02=115, cno_02=35, signalID=1)>000: 2447 4247 5356 2c32 2c32 2c30 362c 3335  | b'$GBGSV,2,2,06,35' |
016: 2c30 382c 3239 372c 3038 2c33 372c 3632  | b',08,297,08,37,62' |
032: 2c31 3135 2c33 352c 312a 3739 0d0a       | b',115,35,1*79\r\n' |
<NMEA(GBGSV, numMsg=1, msgNum=1, numSV=1, svid_01=29, elv_01=4.0, az_01=245, cno_01=, signalID=0)>000: 2447 4247 5356 2c31 2c31 2c30 312c 3239  | b'$GBGSV,1,1,01,29' |
016: 2c30 342c 3234 352c 2c30 2a34 410d 0a    | b',04,245,,0*4A\r\n' |
<NMEA(GNGLL, lat=43.882510695, NS=N, lon=-72.1575142717, EW=W, time=20:28:28.500000, status=A, posMode=D)>000: 2447 4e47 4c4c 2c34 3335 322e 3935 3036  | b'$GNGLL,4352.9506' |
016: 3431 372c 4e2c 3037 3230 392e 3435 3038  | b'417,N,07209.4508' |
032: 3536 332c 572c 3230 3238 3238 2e35 302c  | b'563,W,202828.50,' |
048: 412c 442a 3641 0d0a                      | b'A,D*6A\r\n' |
<NMEA(GNRMC, time=20:28:28.750000, status=A, lat=43.8825104617, NS=N, lon=-72.157513795, EW=W, spd=0.299, cog=, date=2023-09-05, mv=, mvEW=, posMode=F, navStatus=V)>000: 2447 4e52 4d43 2c32 3032 3832 382e 3735  | b'$GNRMC,202828.75' |
016: 2c41 2c34 3335 322e 3935 3036 3237 372c  | b',A,4352.9506277,' |
032: 4e2c 3037 3230 392e 3435 3038 3237 372c  | b'N,07209.4508277,' |
048: 572c 302e 3239 392c 2c30 3530 3932 332c  | b'W,0.299,,050923,' |
064: 2c2c 462c 562a 3031 0d0a                 | b',,F,V*01\r\n' |
<NMEA(GNVTG, cogt=, cogtUnit=T, cogm=, cogmUnit=M, sogn=0.299, sognUnit=N, sogk=0.554, sogkUnit=K, posMode=D)>000: 2447 4e56 5447 2c2c 542c 2c4d 2c30 2e32  | b'$GNVTG,,T,,M,0.2' |
016: 3939 2c4e 2c30 2e35 3534 2c4b 2c44 2a33  | b'99,N,0.554,K,D*3' |
032: 450d 0a                                  | b'E\r\n' |
<NMEA(GNGGA, time=20:28:28.750000, lat=43.8825104617, NS=N, lon=-72.157513795, EW=W, quality=5, numSV=12, HDOP=0.62, alt=139.79, altUnit=M, sep=-32.546, sepUnit=M, diffAge=, diffStation=0)>000: 2447 4e47 4741 2c32 3032 3832 382e 3735  | b'$GNGGA,202828.75' |
016: 2c34 3335 322e 3935 3036 3237 372c 4e2c  | b',4352.9506277,N,' |
032: 3037 3230 392e 3435 3038 3237 372c 572c  | b'07209.4508277,W,' |
048: 352c 3132 2c30 2e36 322c 3133 392e 3739  | b'5,12,0.62,139.79' |
064: 302c 4d2c 2d33 322e 3534 362c 4d2c 2c30  | b'0,M,-32.546,M,,0' |
080: 3030 302a 3732 0d0a                      | b'000*72\r\n' |
<NMEA(GNGSA, opMode=A, navMode=3, svid_01=25, svid_02=2, svid_03=21, svid_04=28, svid_05=12, svid_06=10, svid_07=32, svid_08=23, svid_09=, svid_10=, svid_11=, svid_12=, PDOP=1.17, HDOP=0.62, VDOP=0.99, systemId=1)>000: 2447 4e47 5341 2c41 2c33 2c32 352c 3032  | b'$GNGSA,A,3,25,02' |
016: 2c32 312c 3238 2c31 322c 3130 2c33 322c  | b',21,28,12,10,32,' |
032: 3233 2c2c 2c2c 2c31 2e31 372c 302e 3632  | b'23,,,,,1.17,0.62' |
048: 2c30 2e39 392c 312a 3043 0d0a            | b',0.99,1*0C\r\n' |
<NMEA(GNGSA, opMode=A, navMode=3, svid_01=73, svid_02=71, svid_03=80, svid_04=70, svid_05=87, svid_06=72, svid_07=74, svid_08=, svid_09=, svid_10=, svid_11=, svid_12=, PDOP=1.17, HDOP=0.62, VDOP=0.99, systemId=2)>000: 2447 4e47 5341 2c41 2c33 2c37 332c 3731  | b'$GNGSA,A,3,73,71' |
016: 2c38 302c 3730 2c38 372c 3732 2c37 342c  | b',80,70,87,72,74,' |
032: 2c2c 2c2c 2c31 2e31 372c 302e 3632 2c30  | b',,,,,1.17,0.62,0' |
048: 2e39 392c 322a 3035 0d0a                 | b'.99,2*05\r\n' |
<NMEA(GNGSA, opMode=A, navMode=3, svid_01=15, svid_02=31, svid_03=34, svid_04=9, svid_05=24, svid_06=5, svid_07=, svid_08=, svid_09=, svid_10=, svid_11=, svid_12=, PDOP=1.17, HDOP=0.62, VDOP=0.99, systemId=3)>000: 2447 4e47 5341 2c41 2c33 2c31 352c 3331  | b'$GNGSA,A,3,15,31' |
016: 2c33 342c 3039 2c32 342c 3035 2c2c 2c2c  | b',34,09,24,05,,,,' |
032: 2c2c 2c31 2e31 372c 302e 3632 2c30 2e39  | b',,,1.17,0.62,0.9' |
048: 392c 332a 3042 0d0a                      | b'9,3*0B\r\n' |
<NMEA(GNGSA, opMode=A, navMode=3, svid_01=37, svid_02=23, svid_03=32, svid_04=19, svid_05=20, svid_06=, svid_07=, svid_08=, svid_09=, svid_10=, svid_11=, svid_12=, PDOP=1.17, HDOP=0.62, VDOP=0.99, systemId=4)>000: 2447 4e47 5341 2c41 2c33 2c33 372c 3233  | b'$GNGSA,A,3,37,23' |
016: 2c33 322c 3139 2c32 302c 2c2c 2c2c 2c2c  | b',32,19,20,,,,,,,' |
032: 2c31 2e31 372c 302e 3632 2c30 2e39 392c  | b',1.17,0.62,0.99,' |
048: 342a 3039 0d0a                           | b'4*09\r\n' |
<NMEA(GPGSV, numMsg=3, msgNum=1, numSV=12, svid_01=2, elv_01=18.0, az_01=314, cno_01=21, svid_02=10, elv_02=83.0, az_02=201, cno_02=41, svid_03=12, elv_03=31.0, az_03=91, cno_03=23, svid_04=15, elv_04=1.0, az_04=94, cno_04=6, signalID=1)>000: 2447 5047 5356 2c33 2c31 2c31 322c 3032  | b'$GPGSV,3,1,12,02' |
016: 2c31 382c 3331 342c 3231 2c31 302c 3833  | b',18,314,21,10,83' |
032: 2c32 3031 2c34 312c 3132 2c33 312c 3039  | b',201,41,12,31,09' |
048: 312c 3233 2c31 352c 3031 2c30 3934 2c30  | b'1,23,15,01,094,0' |
064: 362c 312a 3631 0d0a                      | b'6,1*61\r\n' |
<NMEA(GPGSV, numMsg=3, msgNum=2, numSV=12, svid_01=21, elv_01=22.0, az_01=305, cno_01=23, svid_02=23, elv_02=45.0, az_02=145, cno_02=32, svid_03=24, elv_03=27.0, az_03=52, cno_03=24, svid_04=25, elv_04=27.0, az_04=139, cno_04=23, signalID=1)>000: 2447 5047 5356 2c33 2c32 2c31 322c 3231  | b'$GPGSV,3,2,12,21' |
016: 2c32 322c 3330 352c 3233 2c32 332c 3435  | b',22,305,23,23,45' |
032: 2c31 3435 2c33 322c 3234 2c32 372c 3035  | b',145,32,24,27,05' |
048: 322c 3234 2c32 352c 3237 2c31 3339 2c32  | b'2,24,25,27,139,2' |
064: 332c 312a 3639 0d0a                      | b'3,1*69\r\n' |
<NMEA(GPGSV, numMsg=3, msgNum=3, numSV=12, svid_01=28, elv_01=30.0, az_01=221, cno_01=30, svid_02=32, elv_02=55.0, az_02=292, cno_02=30, svid_03=44, elv_03=23.0, az_03=235, cno_03=27, svid_04=46, elv_04=15.0, az_04=246, cno_04=26, signalID=1)>000: 2447 5047 5356 2c33 2c33 2c31 322c 3238  | b'$GPGSV,3,3,12,28' |
016: 2c33 302c 3232 312c 3330 2c33 322c 3535  | b',30,221,30,32,55' |
032: 2c32 3932 2c33 302c 3434 2c32 332c 3233  | b',292,30,44,23,23' |
048: 352c 3237 2c34 362c 3135 2c32 3436 2c32  | b'5,27,46,15,246,2' |
064: 362c 312a 3635 0d0a                      | b'6,1*65\r\n' |
<NMEA(GPGSV, numMsg=1, msgNum=1, numSV=1, svid_01=10, elv_01=83.0, az_01=201, cno_01=13, signalID=6)>000: 2447 5047 5356 2c31 2c31 2c30 312c 3130  | b'$GPGSV,1,1,01,10' |
016: 2c38 332c 3230 312c 3133 2c36 2a35 390d  | b',83,201,13,6*59\r' |
032: 0a                                       | b'\n' |
<NMEA(GPGSV, numMsg=1, msgNum=1, numSV=1, svid_01=31, elv_01=0.0, az_01=221, cno_01=, signalID=0)>000: 2447 5047 5356 2c31 2c31 2c30 312c 3331  | b'$GPGSV,1,1,01,31' |
016: 2c30 302c 3232 312c 2c30 2a35 370d 0a    | b',00,221,,0*57\r\n' |
<NMEA(GLGSV, numMsg=2, msgNum=1, numSV=7, svid_01=70, elv_01=46.0, az_01=85, cno_01=17, svid_02=71, elv_02=61.0, az_02=344, cno_02=37, svid_03=72, elv_03=20.0, az_03=304, cno_03=16, svid_04=73, elv_04=54.0, az_04=145, cno_04=34, signalID=1)>000: 2447 4c47 5356 2c32 2c31 2c30 372c 3730  | b'$GLGSV,2,1,07,70' |
016: 2c34 362c 3038 352c 3137 2c37 312c 3631  | b',46,085,17,71,61' |
032: 2c33 3434 2c33 372c 3732 2c32 302c 3330  | b',344,37,72,20,30' |
048: 342c 3136 2c37 332c 3534 2c31 3435 2c33  | b'4,16,73,54,145,3' |
064: 342c 312a 3731 0d0a                      | b'4,1*71\r\n' |
<NMEA(GLGSV, numMsg=2, msgNum=2, numSV=7, svid_01=74, elv_01=17.0, az_01=181, cno_01=12, svid_02=80, elv_02=44.0, az_02=48, cno_02=32, svid_03=87, elv_03=23.0, az_03=304, cno_03=22, signalID=1)>000: 2447 4c47 5356 2c32 2c32 2c30 372c 3734  | b'$GLGSV,2,2,07,74' |
016: 2c31 372c 3138 312c 3132 2c38 302c 3434  | b',17,181,12,80,44' |
032: 2c30 3438 2c33 322c 3837 2c32 332c 3330  | b',048,32,87,23,30' |
048: 342c 3232 2c31 2a34 440d 0a              | b'4,22,1*4D\r\n' |
<NMEA(GLGSV, numMsg=1, msgNum=1, numSV=3, svid_01=79, elv_01=0.0, az_01=21, cno_01=, svid_02=86, elv_02=17.0, az_02=248, cno_02=, svid_03=88, elv_03=4.0, az_03=351, cno_03=, signalID=0)>000: 2447 4c47 5356 2c31 2c31 2c30 332c 3739  | b'$GLGSV,1,1,03,79' |
016: 2c30 302c 3032 312c 2c38 362c 3137 2c32  | b',00,021,,86,17,2' |
032: 3438 2c2c 3838 2c30 342c 3335 312c 2c30  | b'48,,88,04,351,,0' |
048: 2a34 320d 0a                             | b'*42\r\n' |
<NMEA(GAGSV, numMsg=1, msgNum=1, numSV=1, svid_01=9, elv_01=55.0, az_01=68, cno_01=14, signalID=2)>000: 2447 4147 5356 2c31 2c31 2c30 312c 3039  | b'$GAGSV,1,1,01,09' |
016: 2c35 352c 3036 382c 3134 2c32 2a34 350d  | b',55,068,14,2*45\r' |
032: 0a                                       | b'\n' |
<NMEA(GAGSV, numMsg=3, msgNum=1, numSV=9, svid_01=3, elv_01=12.0, az_01=275, cno_01=15, svid_02=4, elv_02=7.0, az_02=86, cno_02=9, svid_03=5, elv_03=61.0, az_03=297, cno_03=23, svid_04=9, elv_04=55.0, az_04=68, cno_04=32, signalID=7)>000: 2447 4147 5356 2c33 2c31 2c30 392c 3033  | b'$GAGSV,3,1,09,03' |
016: 2c31 322c 3237 352c 3135 2c30 342c 3037  | b',12,275,15,04,07' |
032: 2c30 3836 2c30 392c 3035 2c36 312c 3239  | b',086,09,05,61,29' |
048: 372c 3233 2c30 392c 3535 2c30 3638 2c33  | b'7,23,09,55,068,3' |
064: 322c 372a 3731 0d0a                      | b'2,7*71\r\n' |
<NMEA(GAGSV, numMsg=3, msgNum=2, numSV=9, svid_01=15, elv_01=19.0, az_01=320, cno_01=20, svid_02=24, elv_02=26.0, az_02=143, cno_02=23, svid_03=31, elv_03=35.0, az_03=85, cno_03=31, svid_04=34, elv_04=37.0, az_04=265, cno_04=29, signalID=7)>000: 2447 4147 5356 2c33 2c32 2c30 392c 3135  | b'$GAGSV,3,2,09,15' |
016: 2c31 392c 3332 302c 3230 2c32 342c 3236  | b',19,320,20,24,26' |
032: 2c31 3433 2c32 332c 3331 2c33 352c 3038  | b',143,23,31,35,08' |
048: 352c 3331 2c33 342c 3337 2c32 3635 2c32  | b'5,31,34,37,265,2' |
064: 392c 372a 3733 0d0a                      | b'9,7*73\r\n' |
<NMEA(GAGSV, numMsg=3, msgNum=3, numSV=9, svid_01=36, elv_01=21.0, az_01=208, cno_01=21, signalID=7)>000: 2447 4147 5356 2c33 2c33 2c30 392c 3336  | b'$GAGSV,3,3,09,36' |
016: 2c32 312c 3230 382c 3231 2c37 2a34 350d  | b',21,208,21,7*45\r' |
032: 0a                                       | b'\n' |
<NMEA(GBGSV, numMsg=2, msgNum=1, numSV=7, svid_01=19, elv_01=31.0, az_01=303, cno_01=26, svid_02=20, elv_02=80.0, az_02=352, cno_02=34, svid_03=23, elv_03=28.0, az_03=49, cno_03=20, svid_04=29, elv_04=4.0, az_04=245, cno_04=15, signalID=1)>000: 2447 4247 5356 2c32 2c31 2c30 372c 3139  | b'$GBGSV,2,1,07,19' |
016: 2c33 312c 3330 332c 3236 2c32 302c 3830  | b',31,303,26,20,80' |
032: 2c33 3532 2c33 342c 3233 2c32 382c 3034  | b',352,34,23,28,04' |
048: 392c 3230 2c32 392c 3034 2c32 3435 2c31  | b'9,20,29,04,245,1' |
064: 352c 312a 3739 0d0a                      | b'5,1*79\r\n' |
<NMEA(GBGSV, numMsg=2, msgNum=2, numSV=7, svid_01=32, elv_01=36.0, az_01=110, cno_01=26, svid_02=35, elv_02=8.0, az_02=297, cno_02=8, svid_03=37, elv_03=62.0, az_03=115, cno_03=35, signalID=1)>000: 2447 4247 5356 2c32 2c32 2c30 372c 3332  | b'$GBGSV,2,2,07,32' |
016: 2c33 362c 3131 302c 3236 2c33 352c 3038  | b',36,110,26,35,08' |
032: 2c32 3937 2c30 382c 3337 2c36 322c 3131  | b',297,08,37,62,11' |
048: 352c 3335 2c31 2a34 380d 0a              | b'5,35,1*48\r\n' |
<NMEA(GNGLL, lat=43.8825104617, NS=N, lon=-72.157513795, EW=W, time=20:28:28.750000, status=A, posMode=D)>000: 2447 4e47 4c4c 2c34 3335 322e 3935 3036  | b'$GNGLL,4352.9506' |
016: 3237 372c 4e2c 3037 3230 392e 3435 3038  | b'277,N,07209.4508' |
032: 3237 372c 572c 3230 3238 3238 2e37 352c  | b'277,W,202828.75,' |
048: 412c 442a 3646 0d0a                      | b'A,D*6F\r\n' |
<NMEA(GNRMC, time=20:28:29, status=A, lat=43.8825102817, NS=N, lon=-72.157513885, EW=W, spd=0.1, cog=, date=2023-09-05, mv=, mvEW=, posMode=F, navStatus=V)>000: 2447 4e52 4d43 2c32 3032 3832 392e 3030  | b'$GNRMC,202829.00' |
016: 2c41 2c34 3335 322e 3935 3036 3136 392c  | b',A,4352.9506169,' |
032: 4e2c 3037 3230 392e 3435 3038 3333 312c  | b'N,07209.4508331,' |
048: 572c 302e 3130 302c 2c30 3530 3932 332c  | b'W,0.100,,050923,' |
064: 2c2c 462c 562a 3045 0d0a                 | b',,F,V*0E\r\n' |
<NMEA(GNVTG, cogt=, cogtUnit=T, cogm=, cogmUnit=M, sogn=0.1, sognUnit=N, sogk=0.185, sogkUnit=K, posMode=D)>000: 2447 4e56 5447 2c2c 542c 2c4d 2c30 2e31  | b'$GNVTG,,T,,M,0.1' |
016: 3030 2c4e 2c30 2e31 3835 2c4b 2c44 2a33  | b'00,N,0.185,K,D*3' |
032: 350d 0a                                  | b'5\r\n' |
<NMEA(GNGGA, time=20:28:29, lat=43.8825102817, NS=N, lon=-72.157513885, EW=W, quality=5, numSV=12, HDOP=0.57, alt=139.777, altUnit=M, sep=-32.546, sepUnit=M, diffAge=, diffStation=0)>000: 2447 4e47 4741 2c32 3032 3832 392e 3030  | b'$GNGGA,202829.00' |
016: 2c34 3335 322e 3935 3036 3136 392c 4e2c  | b',4352.9506169,N,' |
032: 3037 3230 392e 3435 3038 3333 312c 572c  | b'07209.4508331,W,' |
048: 352c 3132 2c30 2e35 372c 3133 392e 3737  | b'5,12,0.57,139.77' |
064: 372c 4d2c 2d33 322e 3534 362c 4d2c 2c30  | b'7,M,-32.546,M,,0' |
080: 3030 302a 3731 0d0a                      | b'000*71\r\n' |
<NMEA(GNGSA, opMode=A, navMode=3, svid_01=25, svid_02=2, svid_03=21, svid_04=28, svid_05=12, svid_06=10, svid_07=32, svid_08=23, svid_09=, svid_10=, svid_11=, svid_12=, PDOP=1.12, HDOP=0.57, VDOP=0.97, systemId=1)>000: 2447 4e47 5341 2c41 2c33 2c32 352c 3032  | b'$GNGSA,A,3,25,02' |
016: 2c32 312c 3238 2c31 322c 3130 2c33 322c  | b',21,28,12,10,32,' |
032: 3233 2c2c 2c2c 2c31 2e31 322c 302e 3537  | b'23,,,,,1.12,0.57' |
048: 2c30 2e39 372c 312a 3031 0d0a            | b',0.97,1*01\r\n' |
<NMEA(GNGSA, opMode=A, navMode=3, svid_01=73, svid_02=71, svid_03=80, svid_04=70, svid_05=87, svid_06=72, svid_07=74, svid_08=, svid_09=, svid_10=, svid_11=, svid_12=, PDOP=1.12, HDOP=0.57, VDOP=0.97, systemId=2)>000: 2447 4e47 5341 2c41 2c33 2c37 332c 3731  | b'$GNGSA,A,3,73,71' |
016: 2c38 302c 3730 2c38 372c 3732 2c37 342c  | b',80,70,87,72,74,' |
032: 2c2c 2c2c 2c31 2e31 322c 302e 3537 2c30  | b',,,,,1.12,0.57,0' |
048: 2e39 372c 322a 3038 0d0a                 | b'.97,2*08\r\n' |
<NMEA(GNGSA, opMode=A, navMode=3, svid_01=15, svid_02=31, svid_03=34, svid_04=36, svid_05=9, svid_06=24, svid_07=5, svid_08=, svid_09=, svid_10=, svid_11=, svid_12=, PDOP=1.12, HDOP=0.57, VDOP=0.97, systemId=3)>000: 2447 4e47 5341 2c41 2c33 2c31 352c 3331  | b'$GNGSA,A,3,15,31' |
016: 2c33 342c 3336 2c30 392c 3234 2c30 352c  | b',34,36,09,24,05,' |
032: 2c2c 2c2c 2c31 2e31 322c 302e 3537 2c30  | b',,,,,1.12,0.57,0' |
048: 2e39 372c 332a 3033 0d0a                 | b'.97,3*03\r\n' |
<NMEA(GNGSA, opMode=A, navMode=3, svid_01=37, svid_02=23, svid_03=32, svid_04=19, svid_05=20, svid_06=, svid_07=, svid_08=, svid_09=, svid_10=, svid_11=, svid_12=, PDOP=1.12, HDOP=0.57, VDOP=0.97, systemId=4)>000: 2447 4e47 5341 2c41 2c33 2c33 372c 3233  | b'$GNGSA,A,3,37,23' |
016: 2c33 322c 3139 2c32 302c 2c2c 2c2c 2c2c  | b',32,19,20,,,,,,,' |
032: 2c31 2e31 322c 302e 3537 2c30 2e39 372c  | b',1.12,0.57,0.97,' |
048: 342a 3034 0d0a                           | b'4*04\r\n' |
<NMEA(GPGSV, numMsg=3, msgNum=1, numSV=12, svid_01=2, elv_01=18.0, az_01=314, cno_01=20, svid_02=10, elv_02=83.0, az_02=201, cno_02=41, svid_03=12, elv_03=31.0, az_03=91, cno_03=23, svid_04=15, elv_04=1.0, az_04=94, cno_04=6, signalID=1)>000: 2447 5047 5356 2c33 2c31 2c31 322c 3032  | b'$GPGSV,3,1,12,02' |
016: 2c31 382c 3331 342c 3230 2c31 302c 3833  | b',18,314,20,10,83' |
032: 2c32 3031 2c34 312c 3132 2c33 312c 3039  | b',201,41,12,31,09' |
048: 312c 3233 2c31 352c 3031 2c30 3934 2c30  | b'1,23,15,01,094,0' |
064: 362c 312a 3630 0d0a                      | b'6,1*60\r\n' |
<NMEA(GPGSV, numMsg=3, msgNum=2, numSV=12, svid_01=21, elv_01=22.0, az_01=305, cno_01=23, svid_02=23, elv_02=45.0, az_02=145, cno_02=32, svid_03=24, elv_03=27.0, az_03=52, cno_03=23, svid_04=25, elv_04=27.0, az_04=139, cno_04=24, signalID=1)>000: 2447 5047 5356 2c33 2c32 2c31 322c 3231  | b'$GPGSV,3,2,12,21' |
016: 2c32 322c 3330 352c 3233 2c32 332c 3435  | b',22,305,23,23,45' |
032: 2c31 3435 2c33 322c 3234 2c32 372c 3035  | b',145,32,24,27,05' |
048: 322c 3233 2c32 352c 3237 2c31 3339 2c32  | b'2,23,25,27,139,2' |
064: 342c 312a 3639 0d0a                      | b'4,1*69\r\n' |
<NMEA(GPGSV, numMsg=3, msgNum=3, numSV=12, svid_01=28, elv_01=30.0, az_01=221, cno_01=30, svid_02=32, elv_02=55.0, az_02=292, cno_02=30, svid_03=44, elv_03=23.0, az_03=235, cno_03=27, svid_04=46, elv_04=15.0, az_04=246, cno_04=27, signalID=1)>000: 2447 5047 5356 2c33 2c33 2c31 322c 3238  | b'$GPGSV,3,3,12,28' |
016: 2c33 302c 3232 312c 3330 2c33 322c 3535  | b',30,221,30,32,55' |
032: 2c32 3932 2c33 302c 3434 2c32 332c 3233  | b',292,30,44,23,23' |
048: 352c 3237 2c34 362c 3135 2c32 3436 2c32  | b'5,27,46,15,246,2' |
064: 372c 312a 3634 0d0a                      | b'7,1*64\r\n' |
<NMEA(GPGSV, numMsg=1, msgNum=1, numSV=1, svid_01=10, elv_01=83.0, az_01=201, cno_01=13, signalID=6)>000: 2447 5047 5356 2c31 2c31 2c30 312c 3130  | b'$GPGSV,1,1,01,10' |
016: 2c38 332c 3230 312c 3133 2c36 2a35 390d  | b',83,201,13,6*59\r' |
032: 0a                                       | b'\n' |
<NMEA(GPGSV, numMsg=1, msgNum=1, numSV=1, svid_01=31, elv_01=0.0, az_01=221, cno_01=, signalID=0)>000: 2447 5047 5356 2c31 2c31 2c30 312c 3331  | b'$GPGSV,1,1,01,31' |
016: 2c30 302c 3232 312c 2c30 2a35 370d 0a    | b',00,221,,0*57\r\n' |
<NMEA(GLGSV, numMsg=2, msgNum=1, numSV=7, svid_01=70, elv_01=46.0, az_01=85, cno_01=17, svid_02=71, elv_02=61.0, az_02=344, cno_02=35, svid_03=72, elv_03=20.0, az_03=304, cno_03=16, svid_04=73, elv_04=54.0, az_04=145, cno_04=35, signalID=1)>000: 2447 4c47 5356 2c32 2c31 2c30 372c 3730  | b'$GLGSV,2,1,07,70' |
016: 2c34 362c 3038 352c 3137 2c37 312c 3631  | b',46,085,17,71,61' |
032: 2c33 3434 2c33 352c 3732 2c32 302c 3330  | b',344,35,72,20,30' |
048: 342c 3136 2c37 332c 3534 2c31 3435 2c33  | b'4,16,73,54,145,3' |
064: 352c 312a 3732 0d0a                      | b'5,1*72\r\n' |
<NMEA(GLGSV, numMsg=2, msgNum=2, numSV=7, svid_01=74, elv_01=17.0, az_01=181, cno_01=13, svid_02=80, elv_02=44.0, az_02=48, cno_02=28, svid_03=87, elv_03=23.0, az_03=304, cno_03=21, signalID=1)>000: 2447 4c47 5356 2c32 2c32 2c30 372c 3734  | b'$GLGSV,2,2,07,74' |
016: 2c31 372c 3138 312c 3133 2c38 302c 3434  | b',17,181,13,80,44' |
032: 2c30 3438 2c32 382c 3837 2c32 332c 3330  | b',048,28,87,23,30' |
048: 342c 3231 2c31 2a34 340d 0a              | b'4,21,1*44\r\n' |
<NMEA(GLGSV, numMsg=1, msgNum=1, numSV=3, svid_01=79, elv_01=0.0, az_01=21, cno_01=, svid_02=86, elv_02=17.0, az_02=248, cno_02=, svid_03=88, elv_03=4.0, az_03=351, cno_03=, signalID=0)>000: 2447 4c47 5356 2c31 2c31 2c30 332c 3739  | b'$GLGSV,1,1,03,79' |
016: 2c30 302c 3032 312c 2c38 362c 3137 2c32  | b',00,021,,86,17,2' |
032: 3438 2c2c 3838 2c30 342c 3335 312c 2c30  | b'48,,88,04,351,,0' |
048: 2a34 320d 0a                             | b'*42\r\n' |
<NMEA(GNTXT, numMsg=1, msgNum=1, msgType=0, text=txbuf alloc)>000: 2447 4e54 5854 2c30 312c 3031 2c30 302c  | b'$GNTXT,01,01,00,' |
016: 7478 6275 6620 616c 6c6f 632a 3631 0d0a  | b'txbuf alloc*61\r\n' |
<NMEA(GNRMC, time=20:28:29.250000, status=A, lat=43.8825098233, NS=N, lon=-72.15751303, EW=W, spd=0.541, cog=, date=2023-09-05, mv=, mvEW=, posMode=F, navStatus=V)>000: 2447 4e52 4d43 2c32 3032 3832 392e 3235  | b'$GNRMC,202829.25' |
016: 2c41 2c34 3335 322e 3935 3035 3839 342c  | b',A,4352.9505894,' |
032: 4e2c 3037 3230 392e 3435 3037 3831 382c  | b'N,07209.4507818,' |
048: 572c 302e 3534 312c 2c30 3530 3932 332c  | b'W,0.541,,050923,' |
064: 2c2c 462c 562a 3046 0d0a                 | b',,F,V*0F\r\n' |
<NMEA(GNVTG, cogt=, cogtUnit=T, cogm=, cogmUnit=M, sogn=0.541, sognUnit=N, sogk=1.001, sogkUnit=K, posMode=D)>000: 2447 4e56 5447 2c2c 542c 2c4d 2c30 2e35  | b'$GNVTG,,T,,M,0.5' |
016: 3431 2c4e 2c31 2e30 3031 2c4b 2c44 2a33  | b'41,N,1.001,K,D*3' |
032: 380d 0a                                  | b'8\r\n' |
<NMEA(GNGGA, time=20:28:29.250000, lat=43.8825098233, NS=N, lon=-72.15751303, EW=W, quality=5, numSV=12, HDOP=0.57, alt=139.79, altUnit=M, sep=-32.546, sepUnit=M, diffAge=, diffStation=0)>000: 2447 4e47 4741 2c32 3032 3832 392e 3235  | b'$GNGGA,202829.25' |
016: 2c34 3335 322e 3935 3035 3839 342c 4e2c  | b',4352.9505894,N,' |
032: 3037 3230 392e 3435 3037 3831 382c 572c  | b'07209.4507818,W,' |
048: 352c 3132 2c30 2e35 372c 3133 392e 3739  | b'5,12,0.57,139.79' |
064: 302c 4d2c 2d33 322e 3534 362c 4d2c 2c30  | b'0,M,-32.546,M,,0' |
080: 3030 302a 3738 0d0a                      | b'000*78\r\n' |
<NMEA(GNGSA, opMode=A, navMode=3, svid_01=25, svid_02=2, svid_03=21, svid_04=28, svid_05=12, svid_06=10, svid_07=32, svid_08=23, svid_09=, svid_10=, svid_11=, svid_12=, PDOP=1.12, HDOP=0.57, VDOP=0.97, systemId=1)>000: 2447 4e47 5341 2c41 2c33 2c32 352c 3032  | b'$GNGSA,A,3,25,02' |
016: 2c32 312c 3238 2c31 322c 3130 2c33 322c  | b',21,28,12,10,32,' |
032: 3233 2c2c 2c2c 2c31 2e31 322c 302e 3537  | b'23,,,,,1.12,0.57' |
048: 2c30 2e39 372c 312a 3031 0d0a            | b',0.97,1*01\r\n' |
<NMEA(GNGSA, opMode=A, navMode=3, svid_01=73, svid_02=71, svid_03=80, svid_04=70, svid_05=87, svid_06=72, svid_07=74, svid_08=, svid_09=, svid_10=, svid_11=, svid_12=, PDOP=1.12, HDOP=0.57, VDOP=0.97, systemId=2)>000: 2447 4e47 5341 2c41 2c33 2c37 332c 3731  | b'$GNGSA,A,3,73,71' |
016: 2c38 302c 3730 2c38 372c 3732 2c37 342c  | b',80,70,87,72,74,' |
032: 2c2c 2c2c 2c31 2e31 322c 302e 3537 2c30  | b',,,,,1.12,0.57,0' |
048: 2e39 372c 322a 3038 0d0a                 | b'.97,2*08\r\n' |
<NMEA(GNGSA, opMode=A, navMode=3, svid_01=15, svid_02=31, svid_03=34, svid_04=36, svid_05=9, svid_06=24, svid_07=5, svid_08=, svid_09=, svid_10=, svid_11=, svid_12=, PDOP=1.12, HDOP=0.57, VDOP=0.97, systemId=3)>000: 2447 4e47 5341 2c41 2c33 2c31 352c 3331  | b'$GNGSA,A,3,15,31' |
016: 2c33 342c 3336 2c30 392c 3234 2c30 352c  | b',34,36,09,24,05,' |
032: 2c2c 2c2c 2c31 2e31 322c 302e 3537 2c30  | b',,,,,1.12,0.57,0' |
048: 2e39 372c 332a 3033 0d0a                 | b'.97,3*03\r\n' |
<NMEA(GNGSA, opMode=A, navMode=3, svid_01=37, svid_02=23, svid_03=32, svid_04=19, svid_05=20, svid_06=, svid_07=, svid_08=, svid_09=, svid_10=, svid_11=, svid_12=, PDOP=1.12, HDOP=0.57, VDOP=0.97, systemId=4)>000: 2447 4e47 5341 2c41 2c33 2c33 372c 3233  | b'$GNGSA,A,3,37,23' |
016: 2c33 322c 3139 2c32 302c 2c2c 2c2c 2c2c  | b',32,19,20,,,,,,,' |
032: 2c31 2e31 322c 302e 3537 2c30 2e39 372c  | b',1.12,0.57,0.97,' |
048: 342a 3034 0d0a                           | b'4*04\r\n' |
<NMEA(GPGSV, numMsg=3, msgNum=1, numSV=12, svid_01=2, elv_01=18.0, az_01=314, cno_01=20, svid_02=10, elv_02=83.0, az_02=201, cno_02=40, svid_03=12, elv_03=31.0, az_03=91, cno_03=30, svid_04=15, elv_04=1.0, az_04=94, cno_04=10, signalID=1)>000: 2447 5047 5356 2c33 2c31 2c31 322c 3032  | b'$GPGSV,3,1,12,02' |
016: 2c31 382c 3331 342c 3230 2c31 302c 3833  | b',18,314,20,10,83' |
032: 2c32 3031 2c34 302c 3132 2c33 312c 3039  | b',201,40,12,31,09' |
048: 312c 3330 2c31 352c 3031 2c30 3934 2c31  | b'1,30,15,01,094,1' |
064: 302c 312a 3634 0d0a                      | b'0,1*64\r\n' |
<NMEA(GPGSV, numMsg=3, msgNum=2, numSV=12, svid_01=21, elv_01=22.0, az_01=305, cno_01=23, svid_02=23, elv_02=45.0, az_02=145, cno_02=28, svid_03=24, elv_03=27.0, az_03=52, cno_03=23, svid_04=25, elv_04=27.0, az_04=139, cno_04=24, signalID=1)>000: 2447 5047 5356 2c33 2c32 2c31 322c 3231  | b'$GPGSV,3,2,12,21' |
016: 2c32 322c 3330 352c 3233 2c32 332c 3435  | b',22,305,23,23,45' |
032: 2c31 3435 2c32 382c 3234 2c32 372c 3035  | b',145,28,24,27,05' |
048: 322c 3233 2c32 352c 3237 2c31 3339 2c32  | b'2,23,25,27,139,2' |
064: 342c 312a 3632 0d0a                      | b'4,1*62\r\n' |
<NMEA(GPGSV, numMsg=3, msgNum=3, numSV=12, svid_01=28, elv_01=30.0, az_01=221, cno_01=29, svid_02=32, elv_02=55.0, az_02=292, cno_02=29, svid_03=44, elv_03=23.0, az_03=235, cno_03=28, svid_04=46, elv_04=15.0, az_04=246, cno_04=27, signalID=1)>000: 2447 5047 5356 2c33 2c33 2c31 322c 3238  | b'$GPGSV,3,3,12,28' |
016: 2c33 302c 3232 312c 3239 2c33 322c 3535  | b',30,221,29,32,55' |
032: 2c32 3932 2c32 392c 3434 2c32 332c 3233  | b',292,29,44,23,23' |
048: 352c 3238 2c34 362c 3135 2c32 3436 2c32  | b'5,28,46,15,246,2' |
064: 372c 312a 3642 0d0a                      | b'7,1*6B\r\n' |
<NMEA(GPGSV, numMsg=1, msgNum=1, numSV=1, svid_01=10, elv_01=83.0, az_01=201, cno_01=13, signalID=6)>000: 2447 5047 5356 2c31 2c31 2c30 312c 3130  | b'$GPGSV,1,1,01,10' |
016: 2c38 332c 3230 312c 3133 2c36 2a35 390d  | b',83,201,13,6*59\r' |
032: 0a                                       | b'\n' |
<NMEA(GPGSV, numMsg=1, msgNum=1, numSV=1, svid_01=31, elv_01=1.0, az_01=222, cno_01=, signalID=0)>000: 2447 5047 5356 2c31 2c31 2c30 312c 3331  | b'$GPGSV,1,1,01,31' |
016: 2c30 312c 3232 322c 2c30 2a35 350d 0a    | b',01,222,,0*55\r\n' |
<NMEA(GLGSV, numMsg=2, msgNum=1, numSV=7, svid_01=70, elv_01=46.0, az_01=85, cno_01=16, svid_02=71, elv_02=61.0, az_02=344, cno_02=35, svid_03=72, elv_03=20.0, az_03=304, cno_03=18, svid_04=73, elv_04=54.0, az_04=145, cno_04=35, signalID=1)>000: 2447 4c47 5356 2c32 2c31 2c30 372c 3730  | b'$GLGSV,2,1,07,70' |
016: 2c34 362c 3038 352c 3136 2c37 312c 3631  | b',46,085,16,71,61' |
032: 2c33 3434 2c33 352c 3732 2c32 302c 3330  | b',344,35,72,20,30' |
048: 342c 3138 2c37 332c 3534 2c31 3435 2c33  | b'4,18,73,54,145,3' |
064: 352c 312a 3744 0d0a                      | b'5,1*7D\r\n' |
<NMEA(GLGSV, numMsg=2, msgNum=2, numSV=7, svid_01=74, elv_01=17.0, az_01=181, cno_01=14, svid_02=80, elv_02=44.0, az_02=48, cno_02=28, svid_03=87, elv_03=23.0, az_03=304, cno_03=20, signalID=1)>000: 2447 4c47 5356 2c32 2c32 2c30 372c 3734  | b'$GLGSV,2,2,07,74' |
016: 2c31 372c 3138 312c 3134 2c38 302c 3434  | b',17,181,14,80,44' |
032: 2c30 3438 2c32 382c 3837 2c32 332c 3330  | b',048,28,87,23,30' |
048: 342c 3230 2c31 2a34 320d 0a              | b'4,20,1*42\r\n' |
<NMEA(GLGSV, numMsg=1, msgNum=1, numSV=3, svid_01=79, elv_01=0.0, az_01=21, cno_01=, svid_02=86, elv_02=17.0, az_02=248, cno_02=, svid_03=88, elv_03=4.0, az_03=351, cno_03=, signalID=0)>000: 2447 4c47 5356 2c31 2c31 2c30 332c 3739  | b'$GLGSV,1,1,03,79' |
016: 2c30 302c 3032 312c 2c38 362c 3137 2c32  | b',00,021,,86,17,2' |
032: 3438 2c2c 3838 2c30 342c 3335 312c 2c30  | b'48,,88,04,351,,0' |
048: 2a34 320d 0a                             | b'*42\r\n' |
<NMEA(GAGSV, numMsg=1, msgNum=1, numSV=1, svid_01=9, elv_01=55.0, az_01=68, cno_01=14, signalID=2)>000: 2447 4147 5356 2c31 2c31 2c30 312c 3039  | b'$GAGSV,1,1,01,09' |
016: 2c35 352c 3036 382c 3134 2c32 2a34 350d  | b',55,068,14,2*45\r' |
032: 0a                                       | b'\n' |
<NMEA(GAGSV, numMsg=3, msgNum=1, numSV=9, svid_01=3, elv_01=12.0, az_01=275, cno_01=16, svid_02=4, elv_02=7.0, az_02=86, cno_02=8, svid_03=5, elv_03=61.0, az_03=297, cno_03=23, svid_04=9, elv_04=55.0, az_04=68, cno_04=28, signalID=7)>000: 2447 4147 5356 2c33 2c31 2c30 392c 3033  | b'$GAGSV,3,1,09,03' |
016: 2c31 322c 3237 352c 3136 2c30 342c 3037  | b',12,275,16,04,07' |
032: 2c30 3836 2c30 382c 3035 2c36 312c 3239  | b',086,08,05,61,29' |
048: 372c 3233 2c30 392c 3535 2c30 3638 2c32  | b'7,23,09,55,068,2' |
064: 382c 372a 3738 0d0a                      | b'8,7*78\r\n' |
<NMEA(GAGSV, numMsg=3, msgNum=2, numSV=9, svid_01=15, elv_01=19.0, az_01=320, cno_01=21, svid_02=24, elv_02=26.0, az_02=143, cno_02=24, svid_03=31, elv_03=35.0, az_03=85, cno_03=26, svid_04=34, elv_04=37.0, az_04=265, cno_04=30, signalID=7)>000: 2447 4147 5356 2c33 2c32 2c30 392c 3135  | b'$GAGSV,3,2,09,15' |
016: 2c31 392c 3332 302c 3231 2c32 342c 3236  | b',19,320,21,24,26' |
032: 2c31 3433 2c32 342c 3331 2c33 352c 3038  | b',143,24,31,35,08' |
048: 352c 3236 2c33 342c 3337 2c32 3635 2c33  | b'5,26,34,37,265,3' |
064: 302c 372a 3742 0d0a                      | b'0,7*7B\r\n' |
<NMEA(GAGSV, numMsg=3, msgNum=3, numSV=9, svid_01=36, elv_01=21.0, az_01=208, cno_01=22, signalID=7)>000: 2447 4147 5356 2c33 2c33 2c30 392c 3336  | b'$GAGSV,3,3,09,36' |
016: 2c32 312c 3230 382c 3232 2c37 2a34 360d  | b',21,208,22,7*46\r' |
032: 0a                                       | b'\n' |
<NMEA(GBGSV, numMsg=2, msgNum=1, numSV=7, svid_01=19, elv_01=31.0, az_01=303, cno_01=25, svid_02=20, elv_02=80.0, az_02=352, cno_02=33, svid_03=23, elv_03=28.0, az_03=49, cno_03=19, svid_04=29, elv_04=4.0, az_04=245, cno_04=14, signalID=1)>000: 2447 4247 5356 2c32 2c31 2c30 372c 3139  | b'$GBGSV,2,1,07,19' |
016: 2c33 312c 3330 332c 3235 2c32 302c 3830  | b',31,303,25,20,80' |
032: 2c33 3532 2c33 332c 3233 2c32 382c 3034  | b',352,33,23,28,04' |
048: 392c 3139 2c32 392c 3034 2c32 3435 2c31  | b'9,19,29,04,245,1' |
064: 342c 312a 3736 0d0a                      | b'4,1*76\r\n' |
<NMEA(GBGSV, numMsg=2, msgNum=2, numSV=7, svid_01=32, elv_01=36.0, az_01=110, cno_01=26, svid_02=35, elv_02=8.0, az_02=297, cno_02=8, svid_03=37, elv_03=62.0, az_03=115, cno_03=32, signalID=1)>000: 2447 4247 5356 2c32 2c32 2c30 372c 3332  | b'$GBGSV,2,2,07,32' |
016: 2c33 362c 3131 302c 3236 2c33 352c 3038  | b',36,110,26,35,08' |
032: 2c32 3937 2c30 382c 3337 2c36 322c 3131  | b',297,08,37,62,11' |
048: 352c 3332 2c31 2a34 460d 0a              | b'5,32,1*4F\r\n' |
<NMEA(GNGLL, lat=43.8825098233, NS=N, lon=-72.15751303, EW=W, time=20:28:29.250000, status=A, posMode=D)>000: 2447 4e47 4c4c 2c34 3335 322e 3935 3035  | b'$GNGLL,4352.9505' |
016: 3839 342c 4e2c 3037 3230 392e 3435 3037  | b'894,N,07209.4507' |
032: 3831 382c 572c 3230 3238 3239 2e32 352c  | b'818,W,202829.25,' |
048: 412c 442a 3633 0d0a                      | b'A,D*63\r\n' |
<NMEA(GNRMC, time=20:28:29.500000, status=A, lat=43.8825096367, NS=N, lon=-72.1575124883, EW=W, spd=0.366, cog=, date=2023-09-05, mv=, mvEW=, posMode=F, navStatus=V)>000: 2447 4e52 4d43 2c32 3032 3832 392e 3530  | b'$GNRMC,202829.50' |
016: 2c41 2c34 3335 322e 3935 3035 3738 322c  | b',A,4352.9505782,' |
032: 4e2c 3037 3230 392e 3435 3037 3439 332c  | b'N,07209.4507493,' |
048: 572c 302e 3336 362c 2c30 3530 3932 332c  | b'W,0.366,,050923,' |
064: 2c2c 462c 562a 3039 0d0a                 | b',,F,V*09\r\n' |
<NMEA(GNVTG, cogt=, cogtUnit=T, cogm=, cogmUnit=M, sogn=0.366, sognUnit=N, sogk=0.678, sogkUnit=K, posMode=D)>000: 2447 4e56 5447 2c2c 542c 2c4d 2c30 2e33  | b'$GNVTG,,T,,M,0.3' |
016: 3636 2c4e 2c30 2e36 3738 2c4b 2c44 2a33  | b'66,N,0.678,K,D*3' |
032: 320d 0a                                  | b'2\r\n' |
<NMEA(GNGGA, time=20:28:29.500000, lat=43.8825096367, NS=N, lon=-72.1575124883, EW=W, quality=5, numSV=12, HDOP=0.57, alt=139.791, altUnit=M, sep=-32.546, sepUnit=M, diffAge=, diffStation=0)>000: 2447 4e47 4741 2c32 3032 3832 392e 3530  | b'$GNGGA,202829.50' |
016: 2c34 3335 322e 3935 3035 3738 322c 4e2c  | b',4352.9505782,N,' |
032: 3037 3230 392e 3435 3037 3439 332c 572c  | b'07209.4507493,W,' |
048: 352c 3132 2c30 2e35 372c 3133 392e 3739  | b'5,12,0.57,139.79' |
064: 312c 4d2c 2d33 322e 3534 362c 4d2c 2c30  | b'1,M,-32.546,M,,0' |
080: 3030 302a 3743 0d0a                      | b'000*7C\r\n' |
<NMEA(GNGSA, opMode=A, navMode=3, svid_01=25, svid_02=2, svid_03=21, svid_04=28, svid_05=12, svid_06=10, svid_07=32, svid_08=23, svid_09=, svid_10=, svid_11=, svid_12=, PDOP=1.12, HDOP=0.57, VDOP=0.97, systemId=1)>000: 2447 4e47 5341 2c41 2c33 2c32 352c 3032  | b'$GNGSA,A,3,25,02' |
016: 2c32 312c 3238 2c31 322c 3130 2c33 322c  | b',21,28,12,10,32,' |
032: 3233 2c2c 2c2c 2c31 2e31 322c 302e 3537  | b'23,,,,,1.12,0.57' |
048: 2c30 2e39 372c 312a 3031 0d0a            | b',0.97,1*01\r\n' |
<NMEA(GNGSA, opMode=A, navMode=3, svid_01=73, svid_02=71, svid_03=80, svid_04=70, svid_05=87, svid_06=72, svid_07=74, svid_08=, svid_09=, svid_10=, svid_11=, svid_12=, PDOP=1.12, HDOP=0.57, VDOP=0.97, systemId=2)>000: 2447 4e47 5341 2c41 2c33 2c37 332c 3731  | b'$GNGSA,A,3,73,71' |
016: 2c38 302c 3730 2c38 372c 3732 2c37 342c  | b',80,70,87,72,74,' |
032: 2c2c 2c2c 2c31 2e31 322c 302e 3537 2c30  | b',,,,,1.12,0.57,0' |
048: 2e39 372c 322a 3038 0d0a                 | b'.97,2*08\r\n' |
<NMEA(GNGSA, opMode=A, navMode=3, svid_01=15, svid_02=31, svid_03=34, svid_04=36, svid_05=9, svid_06=24, svid_07=5, svid_08=, svid_09=, svid_10=, svid_11=, svid_12=, PDOP=1.12, HDOP=0.57, VDOP=0.97, systemId=3)>000: 2447 4e47 5341 2c41 2c33 2c31 352c 3331  | b'$GNGSA,A,3,15,31' |
016: 2c33 342c 3336 2c30 392c 3234 2c30 352c  | b',34,36,09,24,05,' |
032: 2c2c 2c2c 2c31 2e31 322c 302e 3537 2c30  | b',,,,,1.12,0.57,0' |
048: 2e39 372c 332a 3033 0d0a                 | b'.97,3*03\r\n' |
<NMEA(GNGSA, opMode=A, navMode=3, svid_01=37, svid_02=23, svid_03=32, svid_04=19, svid_05=20, svid_06=, svid_07=, svid_08=, svid_09=, svid_10=, svid_11=, svid_12=, PDOP=1.12, HDOP=0.57, VDOP=0.97, systemId=4)>000: 2447 4e47 5341 2c41 2c33 2c33 372c 3233  | b'$GNGSA,A,3,37,23' |
016: 2c33 322c 3139 2c32 302c 2c2c 2c2c 2c2c  | b',32,19,20,,,,,,,' |
032: 2c31 2e31 322c 302e 3537 2c30 2e39 372c  | b',1.12,0.57,0.97,' |
048: 342a 3034 0d0a                           | b'4*04\r\n' |
<NMEA(GPGSV, numMsg=3, msgNum=1, numSV=12, svid_01=2, elv_01=18.0, az_01=314, cno_01=19, svid_02=10, elv_02=83.0, az_02=201, cno_02=39, svid_03=12, elv_03=31.0, az_03=91, cno_03=23, svid_04=15, elv_04=1.0, az_04=94, cno_04=12, signalID=1)>000: 2447 5047 5356 2c33 2c31 2c31 322c 3032  | b'$GPGSV,3,1,12,02' |
016: 2c31 382c 3331 342c 3139 2c31 302c 3833  | b',18,314,19,10,83' |
032: 2c32 3031 2c33 392c 3132 2c33 312c 3039  | b',201,39,12,31,09' |
048: 312c 3233 2c31 352c 3031 2c30 3934 2c31  | b'1,23,15,01,094,1' |
064: 322c 312a 3630 0d0a                      | b'2,1*60\r\n' |
<NMEA(GPGSV, numMsg=3, msgNum=2, numSV=12, svid_01=21, elv_01=22.0, az_01=305, cno_01=23, svid_02=23, elv_02=45.0, az_02=145, cno_02=28, svid_03=24, elv_03=27.0, az_03=52, cno_03=22, svid_04=25, elv_04=27.0, az_04=139, cno_04=24, signalID=1)>000: 2447 5047 5356 2c33 2c32 2c31 322c 3231  | b'$GPGSV,3,2,12,21' |
016: 2c32 322c 3330 352c 3233 2c32 332c 3435  | b',22,305,23,23,45' |
032: 2c31 3435 2c32 382c 3234 2c32 372c 3035  | b',145,28,24,27,05' |
048: 322c 3232 2c32 352c 3237 2c31 3339 2c32  | b'2,22,25,27,139,2' |
064: 342c 312a 3633 0d0a                      | b'4,1*63\r\n' |
<NMEA(GPGSV, numMsg=3, msgNum=3, numSV=12, svid_01=28, elv_01=30.0, az_01=221, cno_01=29, svid_02=32, elv_02=55.0, az_02=292, cno_02=28, svid_03=44, elv_03=23.0, az_03=235, cno_03=28, svid_04=46, elv_04=15.0, az_04=246, cno_04=26, signalID=1)>000: 2447 5047 5356 2c33 2c33 2c31 322c 3238  | b'$GPGSV,3,3,12,28' |
016: 2c33 302c 3232 312c 3239 2c33 322c 3535  | b',30,221,29,32,55' |
032: 2c32 3932 2c32 382c 3434 2c32 332c 3233  | b',292,28,44,23,23' |
048: 352c 3238 2c34 362c 3135 2c32 3436 2c32  | b'5,28,46,15,246,2' |
064: 362c 312a 3642 0d0a                      | b'6,1*6B\r\n' |
<NMEA(GPGSV, numMsg=1, msgNum=1, numSV=1, svid_01=10, elv_01=83.0, az_01=201, cno_01=12, signalID=6)>000: 2447 5047 5356 2c31 2c31 2c30 312c 3130  | b'$GPGSV,1,1,01,10' |
016: 2c38 332c 3230 312c 3132 2c36 2a35 380d  | b',83,201,12,6*58\r' |
032: 0a                                       | b'\n' |
<NMEA(GPGSV, numMsg=1, msgNum=1, numSV=1, svid_01=31, elv_01=1.0, az_01=222, cno_01=, signalID=0)>000: 2447 5047 5356 2c31 2c31 2c30 312c 3331  | b'$GPGSV,1,1,01,31' |
016: 2c30 312c 3232 322c 2c30 2a35 350d 0a    | b',01,222,,0*55\r\n' |
<NMEA(GLGSV, numMsg=2, msgNum=1, numSV=7, svid_01=70, elv_01=46.0, az_01=85, cno_01=17, svid_02=71, elv_02=61.0, az_02=344, cno_02=37, svid_03=72, elv_03=20.0, az_03=304, cno_03=18, svid_04=73, elv_04=54.0, az_04=145, cno_04=34, signalID=1)>000: 2447 4c47 5356 2c32 2c31 2c30 372c 3730  | b'$GLGSV,2,1,07,70' |
016: 2c34 362c 3038 352c 3137 2c37 312c 3631  | b',46,085,17,71,61' |
032: 2c33 3434 2c33 372c 3732 2c32 302c 3330  | b',344,37,72,20,30' |
048: 342c 3138 2c37 332c 3534 2c31 3435 2c33  | b'4,18,73,54,145,3' |
064: 342c 312a 3746 0d0a                      | b'4,1*7F\r\n' |
<NMEA(GLGSV, numMsg=2, msgNum=2, numSV=7, svid_01=74, elv_01=17.0, az_01=181, cno_01=15, svid_02=80, elv_02=44.0, az_02=48, cno_02=28, svid_03=87, elv_03=23.0, az_03=304, cno_03=20, signalID=1)>000: 2447 4c47 5356 2c32 2c32 2c30 372c 3734  | b'$GLGSV,2,2,07,74' |
016: 2c31 372c 3138 312c 3135 2c38 302c 3434  | b',17,181,15,80,44' |
032: 2c30 3438 2c32 382c 3837 2c32 332c 3330  | b',048,28,87,23,30' |
048: 342c 3230 2c31 2a34 330d 0a              | b'4,20,1*43\r\n' |
<NMEA(GLGSV, numMsg=1, msgNum=1, numSV=3, svid_01=79, elv_01=0.0, az_01=21, cno_01=, svid_02=86, elv_02=17.0, az_02=248, cno_02=, svid_03=88, elv_03=4.0, az_03=351, cno_03=, signalID=0)>000: 2447 4c47 5356 2c31 2c31 2c30 332c 3739  | b'$GLGSV,1,1,03,79' |
016: 2c30 302c 3032 312c 2c38 362c 3137 2c32  | b',00,021,,86,17,2' |
032: 3438 2c2c 3838 2c30 342c 3335 312c 2c30  | b'48,,88,04,351,,0' |
048: 2a34 320d 0a                             | b'*42\r\n' |
<NMEA(GAGSV, numMsg=1, msgNum=1, numSV=1, svid_01=9, elv_01=55.0, az_01=68, cno_01=14, signalID=2)>000: 2447 4147 5356 2c31 2c31 2c30 312c 3039  | b'$GAGSV,1,1,01,09' |
016: 2c35 352c 3036 382c 3134 2c32 2a34 350d  | b',55,068,14,2*45\r' |
032: 0a                                       | b'\n' |
<NMEA(GAGSV, numMsg=3, msgNum=1, numSV=9, svid_01=3, elv_01=12.0, az_01=275, cno_01=16, svid_02=4, elv_02=7.0, az_02=86, cno_02=10, svid_03=5, elv_03=61.0, az_03=297, cno_03=23, svid_04=9, elv_04=55.0, az_04=68, cno_04=27, signalID=7)>000: 2447 4147 5356 2c33 2c31 2c30 392c 3033  | b'$GAGSV,3,1,09,03' |
016: 2c31 322c 3237 352c 3136 2c30 342c 3037  | b',12,275,16,04,07' |
032: 2c30 3836 2c31 302c 3035 2c36 312c 3239  | b',086,10,05,61,29' |
048: 372c 3233 2c30 392c 3535 2c30 3638 2c32  | b'7,23,09,55,068,2' |
064: 372c 372a 3745 0d0a                      | b'7,7*7E\r\n' |
<NMEA(GAGSV, numMsg=3, msgNum=2, numSV=9, svid_01=15, elv_01=19.0, az_01=320, cno_01=22, svid_02=24, elv_02=26.0, az_02=143, cno_02=24, svid_03=31, elv_03=35.0, az_03=85, cno_03=26, svid_04=34, elv_04=37.0, az_04=265, cno_04=34, signalID=7)>000: 2447 4147 5356 2c33 2c32 2c30 392c 3135  | b'$GAGSV,3,2,09,15' |
016: 2c31 392c 3332 302c 3232 2c32 342c 3236  | b',19,320,22,24,26' |
032: 2c31 3433 2c32 342c 3331 2c33 352c 3038  | b',143,24,31,35,08' |
048: 352c 3236 2c33 342c 3337 2c32 3635 2c33  | b'5,26,34,37,265,3' |
064: 342c 372a 3743 0d0a                      | b'4,7*7C\r\n' |
<NMEA(GAGSV, numMsg=3, msgNum=3, numSV=9, svid_01=36, elv_01=21.0, az_01=208, cno_01=21, signalID=7)>000: 2447 4147 5356 2c33 2c33 2c30 392c 3336  | b'$GAGSV,3,3,09,36' |
016: 2c32 312c 3230 382c 3231 2c37 2a34 350d  | b',21,208,21,7*45\r' |
032: 0a                                       | b'\n' |
<NMEA(GBGSV, numMsg=2, msgNum=1, numSV=7, svid_01=19, elv_01=31.0, az_01=303, cno_01=26, svid_02=20, elv_02=80.0, az_02=352, cno_02=33, svid_03=23, elv_03=28.0, az_03=49, cno_03=19, svid_04=29, elv_04=4.0, az_04=245, cno_04=14, signalID=1)>000: 2447 4247 5356 2c32 2c31 2c30 372c 3139  | b'$GBGSV,2,1,07,19' |
016: 2c33 312c 3330 332c 3236 2c32 302c 3830  | b',31,303,26,20,80' |
032: 2c33 3532 2c33 332c 3233 2c32 382c 3034  | b',352,33,23,28,04' |
048: 392c 3139 2c32 392c 3034 2c32 3435 2c31  | b'9,19,29,04,245,1' |
064: 342c 312a 3735 0d0a                      | b'4,1*75\r\n' |
<NMEA(GBGSV, numMsg=2, msgNum=2, numSV=7, svid_01=32, elv_01=36.0, az_01=110, cno_01=25, svid_02=35, elv_02=8.0, az_02=297, cno_02=8, svid_03=37, elv_03=62.0, az_03=115, cno_03=33, signalID=1)>000: 2447 4247 5356 2c32 2c32 2c30 372c 3332  | b'$GBGSV,2,2,07,32' |
016: 2c33 362c 3131 302c 3235 2c33 352c 3038  | b',36,110,25,35,08' |
032: 2c32 3937 2c30 382c 3337 2c36 322c 3131  | b',297,08,37,62,11' |
048: 352c 3333 2c31 2a34 440d 0a              | b'5,33,1*4D\r\n' |
<NMEA(GNGLL, lat=43.8825096367, NS=N, lon=-72.1575124883, EW=W, time=20:28:29.500000, status=A, posMode=D)>000: 2447 4e47 4c4c 2c34 3335 322e 3935 3035  | b'$GNGLL,4352.9505' |
016: 3738 322c 4e2c 3037 3230 392e 3435 3037  | b'782,N,07209.4507' |
032: 3439 332c 572c 3230 3238 3239 2e35 302c  | b'493,W,202829.50,' |
048: 412c 442a 3636 0d0a                      | b'A,D*66\r\n' |
<NMEA(GNRMC, time=20:28:29.750000, status=A, lat=43.8825097067, NS=N, lon=-72.1575116633, EW=W, spd=0.458, cog=, date=2023-09-05, mv=, mvEW=, posMode=F, navStatus=V)>000: 2447 4e52 4d43 2c32 3032 3832 392e 3735  | b'$GNRMC,202829.75' |
016: 2c41 2c34 3335 322e 3935 3035 3832 342c  | b',A,4352.9505824,' |
032: 4e2c 3037 3230 392e 3435 3036 3939 382c  | b'N,07209.4506998,' |
048: 572c 302e 3435 382c 2c30 3530 3932 332c  | b'W,0.458,,050923,' |
064: 2c2c 462c 562a 3030 0d0a                 | b',,F,V*00\r\n' |
<NMEA(GNVTG, cogt=, cogtUnit=T, cogm=, cogmUnit=M, sogn=0.458, sognUnit=N, sogk=0.849, sogkUnit=K, posMode=D)>000: 2447 4e56 5447 2c2c 542c 2c4d 2c30 2e34  | b'$GNVTG,,T,,M,0.4' |
016: 3538 2c4e 2c30 2e38 3439 2c4b 2c44 2a33  | b'58,N,0.849,K,D*3' |
032: 340d 0a                                  | b'4\r\n' |
<NMEA(GNGGA, time=20:28:29.750000, lat=43.8825097067, NS=N, lon=-72.1575116633, EW=W, quality=5, numSV=12, HDOP=0.57, alt=139.768, altUnit=M, sep=-32.546, sepUnit=M, diffAge=, diffStation=0)>000: 2447 4e47 4741 2c32 3032 3832 392e 3735  | b'$GNGGA,202829.75' |
016: 2c34 3335 322e 3935 3035 3832 342c 4e2c  | b',4352.9505824,N,' |
032: 3037 3230 392e 3435 3036 3939 382c 572c  | b'07209.4506998,W,' |
048: 352c 3132 2c30 2e35 372c 3133 392e 3736  | b'5,12,0.57,139.76' |
064: 382c 4d2c 2d33 322e 3534 362c 4d2c 2c30  | b'8,M,-32.546,M,,0' |
080: 3030 302a 3739 0d0a                      | b'000*79\r\n' |
<NMEA(GNGSA, opMode=A, navMode=3, svid_01=25, svid_02=2, svid_03=21, svid_04=28, svid_05=12, svid_06=10, svid_07=32, svid_08=23, svid_09=, svid_10=, svid_11=, svid_12=, PDOP=1.12, HDOP=0.57, VDOP=0.97, systemId=1)>000: 2447 4e47 5341 2c41 2c33 2c32 352c 3032  | b'$GNGSA,A,3,25,02' |
016: 2c32 312c 3238 2c31 322c 3130 2c33 322c  | b',21,28,12,10,32,' |
032: 3233 2c2c 2c2c 2c31 2e31 322c 302e 3537  | b'23,,,,,1.12,0.57' |
048: 2c30 2e39 372c 312a 3031 0d0a            | b',0.97,1*01\r\n' |
<NMEA(GNGSA, opMode=A, navMode=3, svid_01=73, svid_02=71, svid_03=80, svid_04=70, svid_05=87, svid_06=72, svid_07=74, svid_08=, svid_09=, svid_10=, svid_11=, svid_12=, PDOP=1.12, HDOP=0.57, VDOP=0.97, systemId=2)>000: 2447 4e47 5341 2c41 2c33 2c37 332c 3731  | b'$GNGSA,A,3,73,71' |
016: 2c38 302c 3730 2c38 372c 3732 2c37 342c  | b',80,70,87,72,74,' |
032: 2c2c 2c2c 2c31 2e31 322c 302e 3537 2c30  | b',,,,,1.12,0.57,0' |
048: 2e39 372c 322a 3038 0d0a                 | b'.97,2*08\r\n' |
<NMEA(GNGSA, opMode=A, navMode=3, svid_01=15, svid_02=31, svid_03=34, svid_04=36, svid_05=9, svid_06=24, svid_07=5, svid_08=, svid_09=, svid_10=, svid_11=, svid_12=, PDOP=1.12, HDOP=0.57, VDOP=0.97, systemId=3)>000: 2447 4e47 5341 2c41 2c33 2c31 352c 3331  | b'$GNGSA,A,3,15,31' |
016: 2c33 342c 3336 2c30 392c 3234 2c30 352c  | b',34,36,09,24,05,' |
032: 2c2c 2c2c 2c31 2e31 322c 302e 3537 2c30  | b',,,,,1.12,0.57,0' |
048: 2e39 372c 332a 3033 0d0a                 | b'.97,3*03\r\n' |
<NMEA(GNGSA, opMode=A, navMode=3, svid_01=37, svid_02=23, svid_03=32, svid_04=19, svid_05=20, svid_06=, svid_07=, svid_08=, svid_09=, svid_10=, svid_11=, svid_12=, PDOP=1.12, HDOP=0.57, VDOP=0.97, systemId=4)>000: 2447 4e47 5341 2c41 2c33 2c33 372c 3233  | b'$GNGSA,A,3,37,23' |
016: 2c33 322c 3139 2c32 302c 2c2c 2c2c 2c2c  | b',32,19,20,,,,,,,' |
032: 2c31 2e31 322c 302e 3537 2c30 2e39 372c  | b',1.12,0.57,0.97,' |
048: 342a 3034 0d0a                           | b'4*04\r\n' |
<NMEA(GPGSV, numMsg=3, msgNum=1, numSV=11, svid_01=2, elv_01=18.0, az_01=314, cno_01=19, svid_02=10, elv_02=83.0, az_02=201, cno_02=38, svid_03=12, elv_03=31.0, az_03=91, cno_03=24, svid_04=15, elv_04=1.0, az_04=94, cno_04=12, signalID=1)>000: 2447 5047 5356 2c33 2c31 2c31 312c 3032  | b'$GPGSV,3,1,11,02' |
016: 2c31 382c 3331 342c 3139 2c31 302c 3833  | b',18,314,19,10,83' |
032: 2c32 3031 2c33 382c 3132 2c33 312c 3039  | b',201,38,12,31,09' |
048: 312c 3234 2c31 352c 3031 2c30 3934 2c31  | b'1,24,15,01,094,1' |
064: 322c 312a 3635 0d0a                      | b'2,1*65\r\n' |
<NMEA(GPGSV, numMsg=3, msgNum=2, numSV=11, svid_01=21, elv_01=22.0, az_01=305, cno_01=22, svid_02=23, elv_02=45.0, az_02=145, cno_02=28, svid_03=24, elv_03=27.0, az_03=52, cno_03=21, svid_04=25, elv_04=27.0, az_04=139, cno_04=24, signalID=1)>000: 2447 5047 5356 2c33 2c32 2c31 312c 3231  | b'$GPGSV,3,2,11,21' |
016: 2c32 322c 3330 352c 3232 2c32 332c 3435  | b',22,305,22,23,45' |
032: 2c31 3435 2c32 382c 3234 2c32 372c 3035  | b',145,28,24,27,05' |
048: 322c 3231 2c32 352c 3237 2c31 3339 2c32  | b'2,21,25,27,139,2' |
064: 342c 312a 3632 0d0a                      | b'4,1*62\r\n' |
<NMEA(GPGSV, numMsg=3, msgNum=3, numSV=11, svid_01=28, elv_01=30.0, az_01=221, cno_01=21, svid_02=32, elv_02=55.0, az_02=292, cno_02=28, svid_03=44, elv_03=23.0, az_03=235, cno_03=28, signalID=1)>000: 2447 5047 5356 2c33 2c33 2c31 312c 3238  | b'$GPGSV,3,3,11,28' |
016: 2c33 302c 3232 312c 3231 2c33 322c 3535  | b',30,221,21,32,55' |
032: 2c32 3932 2c32 382c 3434 2c32 332c 3233  | b',292,28,44,23,23' |
048: 352c 3238 2c31 2a35 320d 0a              | b'5,28,1*52\r\n' |
<NMEA(GPGSV, numMsg=1, msgNum=1, numSV=1, svid_01=10, elv_01=83.0, az_01=201, cno_01=11, signalID=6)>000: 2447 5047 5356 2c31 2c31 2c30 312c 3130  | b'$GPGSV,1,1,01,10' |
016: 2c38 332c 3230 312c 3131 2c36 2a35 420d  | b',83,201,11,6*5B\r' |
032: 0a                                       | b'\n' |
<NMEA(GPGSV, numMsg=1, msgNum=1, numSV=2, svid_01=31, elv_01=1.0, az_01=222, cno_01=, svid_02=46, elv_02=15.0, az_02=246, cno_02=, signalID=0)>000: 2447 5047 5356 2c31 2c31 2c30 322c 3331  | b'$GPGSV,1,1,02,31' |
016: 2c30 312c 3232 322c 2c34 362c 3135 2c32  | b',01,222,,46,15,2' |
032: 3436 2c2c 302a 3630 0d0a                 | b'46,,0*60\r\n' |
<NMEA(GLGSV, numMsg=2, msgNum=1, numSV=7, svid_01=70, elv_01=46.0, az_01=85, cno_01=17, svid_02=71, elv_02=61.0, az_02=344, cno_02=37, svid_03=72, elv_03=20.0, az_03=304, cno_03=19, svid_04=73, elv_04=54.0, az_04=145, cno_04=34, signalID=1)>000: 2447 4c47 5356 2c32 2c31 2c30 372c 3730  | b'$GLGSV,2,1,07,70' |
016: 2c34 362c 3038 352c 3137 2c37 312c 3631  | b',46,085,17,71,61' |
032: 2c33 3434 2c33 372c 3732 2c32 302c 3330  | b',344,37,72,20,30' |
048: 342c 3139 2c37 332c 3534 2c31 3435 2c33  | b'4,19,73,54,145,3' |
064: 342c 312a 3745 0d0a                      | b'4,1*7E\r\n' |
<NMEA(GLGSV, numMsg=2, msgNum=2, numSV=7, svid_01=74, elv_01=17.0, az_01=181, cno_01=15, svid_02=80, elv_02=44.0, az_02=48, cno_02=27, svid_03=87, elv_03=23.0, az_03=304, cno_03=20, signalID=1)>000: 2447 4c47 5356 2c32 2c32 2c30 372c 3734  | b'$GLGSV,2,2,07,74' |
016: 2c31 372c 3138 312c 3135 2c38 302c 3434  | b',17,181,15,80,44' |
032: 2c30 3438 2c32 372c 3837 2c32 332c 3330  | b',048,27,87,23,30' |
048: 342c 3230 2c31 2a34 430d 0a              | b'4,20,1*4C\r\n' |
<NMEA(GLGSV, numMsg=1, msgNum=1, numSV=3, svid_01=79, elv_01=0.0, az_01=21, cno_01=, svid_02=86, elv_02=17.0, az_02=248, cno_02=, svid_03=88, elv_03=4.0, az_03=351, cno_03=, signalID=0)>000: 2447 4c47 5356 2c31 2c31 2c30 332c 3739  | b'$GLGSV,1,1,03,79' |
016: 2c30 302c 3032 312c 2c38 362c 3137 2c32  | b',00,021,,86,17,2' |
032: 3438 2c2c 3838 2c30 342c 3335 312c 2c30  | b'48,,88,04,351,,0' |
048: 2a34 320d 0a                             | b'*42\r\n' |
<NMEA(GAGSV, numMsg=1, msgNum=1, numSV=1, svid_01=9, elv_01=55.0, az_01=68, cno_01=14, signalID=2)>000: 2447 4147 5356 2c31 2c31 2c30 312c 3039  | b'$GAGSV,1,1,01,09' |
016: 2c35 352c 3036 382c 3134 2c32 2a34 350d  | b',55,068,14,2*45\r' |
032: 0a                                       | b'\n' |
<NMEA(GAGSV, numMsg=3, msgNum=1, numSV=9, svid_01=3, elv_01=12.0, az_01=275, cno_01=16, svid_02=4, elv_02=7.0, az_02=86, cno_02=10, svid_03=5, elv_03=61.0, az_03=297, cno_03=23, svid_04=9, elv_04=55.0, az_04=68, cno_04=26, signalID=7)>000: 2447 4147 5356 2c33 2c31 2c30 392c 3033  | b'$GAGSV,3,1,09,03' |
016: 2c31 322c 3237 352c 3136 2c30 342c 3037  | b',12,275,16,04,07' |
032: 2c30 3836 2c31 302c 3035 2c36 312c 3239  | b',086,10,05,61,29' |
048: 372c 3233 2c30 392c 3535 2c30 3638 2c32  | b'7,23,09,55,068,2' |
064: 362c 372a 3746 0d0a                      | b'6,7*7F\r\n' |
<NMEA(GAGSV, numMsg=3, msgNum=2, numSV=9, svid_01=15, elv_01=19.0, az_01=320, cno_01=22, svid_02=24, elv_02=26.0, az_02=143, cno_02=24, svid_03=31, elv_03=35.0, az_03=85, cno_03=26, svid_04=34, elv_04=37.0, az_04=265, cno_04=34, signalID=7)>000: 2447 4147 5356 2c33 2c32 2c30 392c 3135  | b'$GAGSV,3,2,09,15' |
016: 2c31 392c 3332 302c 3232 2c32 342c 3236  | b',19,320,22,24,26' |
032: 2c31 3433 2c32 342c 3331 2c33 352c 3038  | b',143,24,31,35,08' |
048: 352c 3236 2c33 342c 3337 2c32 3635 2c33  | b'5,26,34,37,265,3' |
064: 342c 372a 3743 0d0a                      | b'4,7*7C\r\n' |
<NMEA(GAGSV, numMsg=3, msgNum=3, numSV=9, svid_01=36, elv_01=21.0, az_01=208, cno_01=22, signalID=7)>000: 2447 4147 5356 2c33 2c33 2c30 392c 3336  | b'$GAGSV,3,3,09,36' |
016: 2c32 312c 3230 382c 3232 2c37 2a34 360d  | b',21,208,22,7*46\r' |
032: 0a                                       | b'\n' |
<NMEA(GBGSV, numMsg=2, msgNum=1, numSV=7, svid_01=19, elv_01=31.0, az_01=303, cno_01=26, svid_02=20, elv_02=80.0, az_02=352, cno_02=33, svid_03=23, elv_03=28.0, az_03=49, cno_03=20, svid_04=29, elv_04=4.0, az_04=245, cno_04=13, signalID=1)>000: 2447 4247 5356 2c32 2c31 2c30 372c 3139  | b'$GBGSV,2,1,07,19' |
016: 2c33 312c 3330 332c 3236 2c32 302c 3830  | b',31,303,26,20,80' |
032: 2c33 3532 2c33 332c 3233 2c32 382c 3034  | b',352,33,23,28,04' |
048: 392c 3230 2c32 392c 3034 2c32 3435 2c31  | b'9,20,29,04,245,1' |
064: 332c 312a 3738 0d0a                      | b'3,1*78\r\n' |
<NMEA(GBGSV, numMsg=2, msgNum=2, numSV=7, svid_01=32, elv_01=36.0, az_01=110, cno_01=25, svid_02=35, elv_02=8.0, az_02=297, cno_02=8, svid_03=37, elv_03=62.0, az_03=115, cno_03=33, signalID=1)>000: 2447 4247 5356 2c32 2c32 2c30 372c 3332  | b'$GBGSV,2,2,07,32' |
016: 2c33 362c 3131 302c 3235 2c33 352c 3038  | b',36,110,25,35,08' |
032: 2c32 3937 2c30 382c 3337 2c36 322c 3131  | b',297,08,37,62,11' |
048: 352c 3333 2c31 2a34 440d 0a              | b'5,33,1*4D\r\n' |
<NMEA(GNGLL, lat=43.8825097067, NS=N, lon=-72.1575116633, EW=W, time=20:28:29.750000, status=A, posMode=D)>000: 2447 4e47 4c4c 2c34 3335 322e 3935 3035  | b'$GNGLL,4352.9505' |
016: 3832 342c 4e2c 3037 3230 392e 3435 3036  | b'824,N,07209.4506' |
032: 3939 382c 572c 3230 3238 3239 2e37 352c  | b'998,W,202829.75,' |
048: 412c 442a 3635 0d0a                      | b'A,D*65\r\n' |
<NMEA(GNRMC, time=20:28:30, status=A, lat=43.8825093667, NS=N, lon=-72.157511225, EW=W, spd=0.353, cog=, date=2023-09-05, mv=, mvEW=, posMode=F, navStatus=V)>000: 2447 4e52 4d43 2c32 3032 3833 302e 3030  | b'$GNRMC,202830.00' |
016: 2c41 2c34 3335 322e 3935 3035 3632 302c  | b',A,4352.9505620,' |
032: 4e2c 3037 3230 392e 3435 3036 3733 352c  | b'N,07209.4506735,' |
048: 572c 302e 3335 332c 2c30 3530 3932 332c  | b'W,0.353,,050923,' |
064: 2c2c 462c 562a 3035 0d0a                 | b',,F,V*05\r\n' |
<NMEA(GNVTG, cogt=, cogtUnit=T, cogm=, cogmUnit=M, sogn=0.353, sognUnit=N, sogk=0.654, sogkUnit=K, posMode=D)>000: 2447 4e56 5447 2c2c 542c 2c4d 2c30 2e33  | b'$GNVTG,,T,,M,0.3' |
016: 3533 2c4e 2c30 2e36 3534 2c4b 2c44 2a33  | b'53,N,0.654,K,D*3' |
032: 410d 0a                                  | b'A\r\n' |
<NMEA(GNGGA, time=20:28:30, lat=43.8825093667, NS=N, lon=-72.157511225, EW=W, quality=5, numSV=12, HDOP=0.57, alt=139.775, altUnit=M, sep=-32.546, sepUnit=M, diffAge=, diffStation=0)>000: 2447 4e47 4741 2c32 3032 3833 302e 3030  | b'$GNGGA,202830.00' |
016: 2c34 3335 322e 3935 3035 3632 302c 4e2c  | b',4352.9505620,N,' |
032: 3037 3230 392e 3435 3036 3733 352c 572c  | b'07209.4506735,W,' |
048: 352c 3132 2c30 2e35 372c 3133 392e 3737  | b'5,12,0.57,139.77' |
064: 352c 4d2c 2d33 322e 3534 362c 4d2c 2c30  | b'5,M,-32.546,M,,0' |
080: 3030 302a 3743 0d0a                      | b'000*7C\r\n' |
<NMEA(GNGSA, opMode=A, navMode=3, svid_01=25, svid_02=2, svid_03=21, svid_04=28, svid_05=12, svid_06=10, svid_07=32, svid_08=23, svid_09=, svid_10=, svid_11=, svid_12=, PDOP=1.12, HDOP=0.57, VDOP=0.97, systemId=1)>000: 2447 4e47 5341 2c41 2c33 2c32 352c 3032  | b'$GNGSA,A,3,25,02' |
016: 2c32 312c 3238 2c31 322c 3130 2c33 322c  | b',21,28,12,10,32,' |
032: 3233 2c2c 2c2c 2c31 2e31 322c 302e 3537  | b'23,,,,,1.12,0.57' |
048: 2c30 2e39 372c 312a 3031 0d0a            | b',0.97,1*01\r\n' |
<NMEA(GNGSA, opMode=A, navMode=3, svid_01=73, svid_02=71, svid_03=80, svid_04=70, svid_05=87, svid_06=72, svid_07=74, svid_08=, svid_09=, svid_10=, svid_11=, svid_12=, PDOP=1.12, HDOP=0.57, VDOP=0.97, systemId=2)>000: 2447 4e47 5341 2c41 2c33 2c37 332c 3731  | b'$GNGSA,A,3,73,71' |
016: 2c38 302c 3730 2c38 372c 3732 2c37 342c  | b',80,70,87,72,74,' |
032: 2c2c 2c2c 2c31 2e31 322c 302e 3537 2c30  | b',,,,,1.12,0.57,0' |
048: 2e39 372c 322a 3038 0d0a                 | b'.97,2*08\r\n' |
<NMEA(GNGSA, opMode=A, navMode=3, svid_01=15, svid_02=31, svid_03=34, svid_04=36, svid_05=9, svid_06=24, svid_07=5, svid_08=, svid_09=, svid_10=, svid_11=, svid_12=, PDOP=1.12, HDOP=0.57, VDOP=0.97, systemId=3)>000: 2447 4e47 5341 2c41 2c33 2c31 352c 3331  | b'$GNGSA,A,3,15,31' |
016: 2c33 342c 3336 2c30 392c 3234 2c30 352c  | b',34,36,09,24,05,' |
032: 2c2c 2c2c 2c31 2e31 322c 302e 3537 2c30  | b',,,,,1.12,0.57,0' |
048: 2e39 372c 332a 3033 0d0a                 | b'.97,3*03\r\n' |
<NMEA(GNGSA, opMode=A, navMode=3, svid_01=37, svid_02=23, svid_03=32, svid_04=19, svid_05=20, svid_06=, svid_07=, svid_08=, svid_09=, svid_10=, svid_11=, svid_12=, PDOP=1.12, HDOP=0.57, VDOP=0.97, systemId=4)>000: 2447 4e47 5341 2c41 2c33 2c33 372c 3233  | b'$GNGSA,A,3,37,23' |
016: 2c33 322c 3139 2c32 302c 2c2c 2c2c 2c2c  | b',32,19,20,,,,,,,' |
032: 2c31 2e31 322c 302e 3537 2c30 2e39 372c  | b',1.12,0.57,0.97,' |
048: 342a 3034 0d0a                           | b'4*04\r\n' |
<NMEA(GPGSV, numMsg=3, msgNum=1, numSV=11, svid_01=2, elv_01=18.0, az_01=314, cno_01=19, svid_02=10, elv_02=83.0, az_02=201, cno_02=38, svid_03=12, elv_03=31.0, az_03=91, cno_03=24, svid_04=15, elv_04=1.0, az_04=94, cno_04=7, signalID=1)>000: 2447 5047 5356 2c33 2c31 2c31 312c 3032  | b'$GPGSV,3,1,11,02' |
016: 2c31 382c 3331 342c 3139 2c31 302c 3833  | b',18,314,19,10,83' |
032: 2c32 3031 2c33 382c 3132 2c33 312c 3039  | b',201,38,12,31,09' |
048: 312c 3234 2c31 352c 3031 2c30 3934 2c30  | b'1,24,15,01,094,0' |
064: 372c 312a 3631 0d0a                      | b'7,1*61\r\n' |
<NMEA(GPGSV, numMsg=3, msgNum=2, numSV=11, svid_01=21, elv_01=22.0, az_01=305, cno_01=23, svid_02=23, elv_02=45.0, az_02=145, cno_02=20, svid_03=24, elv_03=27.0, az_03=52, cno_03=20, svid_04=25, elv_04=27.0, az_04=139, cno_04=24, signalID=1)>000: 2447 5047 5356 2c33 2c32 2c31 312c 3231  | b'$GPGSV,3,2,11,21' |
016: 2c32 322c 3330 352c 3233 2c32 332c 3435  | b',22,305,23,23,45' |
032: 2c31 3435 2c32 302c 3234 2c32 372c 3035  | b',145,20,24,27,05' |
048: 322c 3230 2c32 352c 3237 2c31 3339 2c32  | b'2,20,25,27,139,2' |
064: 342c 312a 3641 0d0a                      | b'4,1*6A\r\n' |
<NMEA(GPGSV, numMsg=3, msgNum=3, numSV=11, svid_01=28, elv_01=30.0, az_01=221, cno_01=20, svid_02=32, elv_02=55.0, az_02=292, cno_02=28, svid_03=44, elv_03=23.0, az_03=235, cno_03=27, signalID=1)>000: 2447 5047 5356 2c33 2c33 2c31 312c 3238  | b'$GPGSV,3,3,11,28' |
016: 2c33 302c 3232 312c 3230 2c33 322c 3535  | b',30,221,20,32,55' |
032: 2c32 3932 2c32 382c 3434 2c32 332c 3233  | b',292,28,44,23,23' |
048: 352c 3237 2c31 2a35 430d 0a              | b'5,27,1*5C\r\n' |
<NMEA(GPGSV, numMsg=1, msgNum=1, numSV=1, svid_01=10, elv_01=83.0, az_01=201, cno_01=11, signalID=6)>000: 2447 5047 5356 2c31 2c31 2c30 312c 3130  | b'$GPGSV,1,1,01,10' |
016: 2c38 332c 3230 312c 3131 2c36 2a35 420d  | b',83,201,11,6*5B\r' |
032: 0a                                       | b'\n' |
<NMEA(GPGSV, numMsg=1, msgNum=1, numSV=2, svid_01=31, elv_01=1.0, az_01=222, cno_01=, svid_02=46, elv_02=15.0, az_02=246, cno_02=, signalID=0)>000: 2447 5047 5356 2c31 2c31 2c30 322c 3331  | b'$GPGSV,1,1,02,31' |
016: 2c30 312c 3232 322c 2c34 362c 3135 2c32  | b',01,222,,46,15,2' |
032: 3436 2c2c 302a 3630 0d0a                 | b'46,,0*60\r\n' |
