<NMEA(GPGSV, numMsg=3, msgNum=2, numSV=11, svid_01=18, elv_01=0.0, az_01=182, cno_01=14, svid_02=21, elv_02=22.0, az_02=306, cno_02=22, svid_03=23, elv_03=46.0, az_03=144, cno_03=21, svid_04=24, elv_04=28.0, az_04=52, cno_04=22, signalID=1)>000: 2447 5047 5356 2c33 2c32 2c31 312c 3138  | b'$GPGSV,3,2,11,18' |
016: 2c30 302c 3138 322c 3134 2c32 312c 3232  | b',00,182,14,21,22' |
032: 2c33 3036 2c32 322c 3233 2c34 362c 3134  | b',306,22,23,46,14' |
048: 342c 3231 2c32 342c 3238 2c30 3532 2c32  | b'4,21,24,28,052,2' |
064: 322c 312a 3645 0d0a                      | b'2,1*6E\r\n' |
<NMEA(GPGSV, numMsg=3, msgNum=3, numSV=11, svid_01=25, elv_01=26.0, az_01=139, cno_01=22, svid_02=28, elv_02=29.0, az_02=220, cno_02=25, svid_03=32, elv_03=55.0, az_03=292, cno_03=32, signalID=1)>000: 2447 5047 5356 2c33 2c33 2c31 312c 3235  | b'$GPGSV,3,3,11,25' |
016: 2c32 362c 3133 392c 3232 2c32 382c 3239  | b',26,139,22,28,29' |
032: 2c32 3230 2c32 352c 3332 2c35 352c 3239  | b',220,25,32,55,29' |
048: 322c 3332 2c31 2a35 330d 0a              | b'2,32,1*53\r\n' |
<NMEA(GPGSV, numMsg=1, msgNum=1, numSV=2, svid_01=10, elv_01=84.0, az_01=208, cno_01=18, svid_02=23, elv_02=46.0, az_02=144, cno_02=12, signalID=6)>000: 2447 5047 5356 2c31 2c31 2c30 322c 3130  | b'$GPGSV,1,1,02,10' |
016: 2c38 342c 3230 382c 3138 2c32 332c 3436  | b',84,208,18,23,46' |
032: 2c31 3434 2c31 322c 362a 3645 0d0a       | b',144,12,6*6E\r\n' |
<NMEA(GPGSV, numMsg=1, msgNum=1, numSV=3, svid_01=31, elv_01=0.0, az_01=221, cno_01=, svid_02=44, elv_02=23.0, az_02=235, cno_02=, svid_03=46, elv_03=15.0, az_03=246, cno_03=, signalID=0)>000: 2447 5047 5356 2c31 2c31 2c30 332c 3331  | b'$GPGSV,1,1,03,31' |
016: 2c30 302c 3232 312c 2c34 342c 3233 2c32  | b',00,221,,44,23,2' |
032: 3335 2c2c 3436 2c31 352c 3234 362c 2c30  | b'35,,46,15,246,,0' |
048: 2a35 360d 0a                             | b'*56\r\n' |
<NMEA(GLGSV, numMsg=2, msgNum=1, numSV=8, svid_01=70, elv_01=47.0, az_01=83, cno_01=19, svid_02=71, elv_02=60.0, az_02=343, cno_02=38, svid_03=72, elv_03=20.0, az_03=303, cno_03=16, svid_04=73, elv_04=53.0, az_04=146, cno_04=36, signalID=1)>000: 2447 4c47 5356 2c32 2c31 2c30 382c 3730  | b'$GLGSV,2,1,08,70' |
016: 2c34 372c 3038 332c 3139 2c37 312c 3630  | b',47,083,19,71,60' |
032: 2c33 3433 2c33 382c 3732 2c32 302c 3330  | b',343,38,72,20,30' |
048: 332c 3136 2c37 332c 3533 2c31 3436 2c33  | b'3,16,73,53,146,3' |
064: 362c 312a 3746 0d0a                      | b'6,1*7F\r\n' |
<NMEA(GLGSV, numMsg=2, msgNum=2, numSV=8, svid_01=74, elv_01=16.0, az_01=181, cno_01=17, svid_02=80, elv_02=44.0, az_02=50, cno_02=30, svid_03=86, elv_03=18.0, az_03=248, cno_03=26, svid_04=87, elv_04=23.0, az_04=305, cno_04=22, signalID=1)>000: 2447 4c47 5356 2c32 2c32 2c30 382c 3734  | b'$GLGSV,2,2,08,74' |
016: 2c31 362c 3138 312c 3137 2c38 302c 3434  | b',16,181,17,80,44' |
032: 2c30 3530 2c33 302c 3836 2c31 382c 3234  | b',050,30,86,18,24' |
048: 382c 3236 2c38 372c 3233 2c33 3035 2c32  | b'8,26,87,23,305,2' |
064: 322c 312a 3731 0d0a                      | b'2,1*71\r\n' |
<NMEA(GLGSV, numMsg=1, msgNum=1, numSV=2, svid_01=79, elv_01=1.0, az_01=21, cno_01=, svid_02=88, elv_02=4.0, az_02=352, cno_02=, signalID=0)>000: 2447 4c47 5356 2c31 2c31 2c30 322c 3739  | b'$GLGSV,1,1,02,79' |
016: 2c30 312c 3032 312c 2c38 382c 3034 2c33  | b',01,021,,88,04,3' |
032: 3532 2c2c 302a 3737 0d0a                 | b'52,,0*77\r\n' |
<NMEA(GAGSV, numMsg=3, msgNum=1, numSV=9, svid_01=3, elv_01=12.0, az_01=275, cno_01=14, svid_02=4, elv_02=7.0, az_02=86, cno_02=7, svid_03=5, elv_03=61.0, az_03=297, cno_03=33, svid_04=9, elv_04=55.0, az_04=68, cno_04=33, signalID=7)>000: 2447 4147 5356 2c33 2c31 2c30 392c 3033  | b'$GAGSV,3,1,09,03' |
016: 2c31 322c 3237 352c 3134 2c30 342c 3037  | b',12,275,14,04,07' |
032: 2c30 3836 2c30 372c 3035 2c36 312c 3239  | b',086,07,05,61,29' |
048: 372c 3333 2c30 392c 3535 2c30 3638 2c33  | b'7,33,09,55,068,3' |
064: 332c 372a 3745 0d0a                      | b'3,7*7E\r\n' |
<NMEA(GAGSV, numMsg=3, msgNum=2, numSV=9, svid_01=15, elv_01=19.0, az_01=320, cno_01=22, svid_02=24, elv_02=26.0, az_02=143, cno_02=22, svid_03=31, elv_03=35.0, az_03=85, cno_03=18, svid_04=34, elv_04=37.0, az_04=265, cno_04=32, signalID=7)>000: 2447 4147 5356 2c33 2c32 2c30 392c 3135  | b'$GAGSV,3,2,09,15' |
016: 2c31 392c 3332 302c 3232 2c32 342c 3236  | b',19,320,22,24,26' |
032: 2c31 3433 2c32 322c 3331 2c33 352c 3038  | b',143,22,31,35,08' |
048: 352c 3138 2c33 342c 3337 2c32 3635 2c33  | b'5,18,34,37,265,3' |
064: 322c 372a 3731 0d0a                      | b'2,7*71\r\n' |
<NMEA(GAGSV, numMsg=3, msgNum=3, numSV=9, svid_01=36, elv_01=21.0, az_01=208, cno_01=21, signalID=7)>000: 2447 4147 5356 2c33 2c33 2c30 392c 3336  | b'$GAGSV,3,3,09,36' |
016: 2c32 312c 3230 382c 3231 2c37 2a34 350d  | b',21,208,21,7*45\r' |
032: 0a                                       | b'\n' |
<NMEA(GBGSV, numMsg=2, msgNum=1, numSV=6, svid_01=19, elv_01=31.0, az_01=303, cno_01=25, svid_02=20, elv_02=80.0, az_02=352, cno_02=37, svid_03=23, elv_03=28.0, az_03=49, cno_03=21, svid_04=32, elv_04=37.0, az_04=109, cno_04=23, signalID=1)>000: 2447 4247 5356 2c32 2c31 2c30 362c 3139  | b'$GBGSV,2,1,06,19' |
016: 2c33 312c 3330 332c 3235 2c32 302c 3830  | b',31,303,25,20,80' |
032: 2c33 3532 2c33 372c 3233 2c32 382c 3034  | b',352,37,23,28,04' |
048: 392c 3231 2c33 322c 3337 2c31 3039 2c32  | b'9,21,32,37,109,2' |
064: 332c 312a 3744 0d0a                      | b'3,1*7D\r\n' |
<NMEA(GBGSV, numMsg=2, msgNum=2, numSV=6, svid_01=35, elv_01=9.0, az_01=297, cno_01=14, svid_02=37, elv_02=61.0, az_02=117, cno_02=34, signalID=1)>000: 2447 4247 5356 2c32 2c32 2c30 362c 3335  | b'$GBGSV,2,2,06,35' |
016: 2c30 392c 3239 372c 3134 2c33 372c 3631  | b',09,297,14,37,61' |
032: 2c31 3137 2c33 342c 312a 3735 0d0a       | b',117,34,1*75\r\n' |
<NMEA(GBGSV, numMsg=1, msgNum=1, numSV=1, svid_01=29, elv_01=4.0, az_01=245, cno_01=, signalID=0)>000: 2447 4247 5356 2c31 2c31 2c30 312c 3239  | b'$GBGSV,1,1,01,29' |
016: 2c30 342c 3234 352c 2c30 2a34 410d 0a    | b',04,245,,0*4A\r\n' |
<NMEA(GNGLL, lat=43.88260248, NS=N, lon=-72.1576768567, EW=W, time=20:27:30.250000, status=A, posMode=D)>000: 2447 4e47 4c4c 2c34 3335 322e 3935 3631  | b'$GNGLL,4352.9561' |
016: 3438 382c 4e2c 3037 3230 392e 3436 3036  | b'488,N,07209.4606' |
032: 3131 342c 572c 3230 3237 3330 2e32 352c  | b'114,W,202730.25,' |
048: 412c 442a 3630 0d0a                      | b'A,D*60\r\n' |
<NMEA(GNRMC, time=20:27:30.500000, status=A, lat=43.8826026033, NS=N, lon=-72.157675125, EW=W, spd=0.743, cog=, date=2023-09-05, mv=, mvEW=, posMode=F, navStatus=V)>000: 2447 4e52 4d43 2c32 3032 3733 302e 3530  | b'$GNRMC,202730.50' |
016: 2c41 2c34 3335 322e 3935 3631 3536 322c  | b',A,4352.9561562,' |
032: 4e2c 3037 3230 392e 3436 3035 3037 352c  | b'N,07209.4605075,' |
048: 572c 302e 3734 332c 2c30 3530 3932 332c  | b'W,0.743,,050923,' |
064: 2c2c 462c 562a 3045 0d0a                 | b',,F,V*0E\r\n' |
<NMEA(GNVTG, cogt=, cogtUnit=T, cogm=, cogmUnit=M, sogn=0.743, sognUnit=N, sogk=1.376, sogkUnit=K, posMode=D)>000: 2447 4e56 5447 2c2c 542c 2c4d 2c30 2e37  | b'$GNVTG,,T,,M,0.7' |
016: 3433 2c4e 2c31 2e33 3736 2c4b 2c44 2a33  | b'43,N,1.376,K,D*3' |
032: 420d 0a                                  | b'B\r\n' |
<NMEA(GNGGA, time=20:27:30.500000, lat=43.8826026033, NS=N, lon=-72.157675125, EW=W, quality=5, numSV=12, HDOP=0.58, alt=140.481, altUnit=M, sep=-32.546, sepUnit=M, diffAge=, diffStation=0)>000: 2447 4e47 4741 2c32 3032 3733 302e 3530  | b'$GNGGA,202730.50' |
016: 2c34 3335 322e 3935 3631 3536 322c 4e2c  | b',4352.9561562,N,' |
032: 3037 3230 392e 3436 3035 3037 352c 572c  | b'07209.4605075,W,' |
048: 352c 3132 2c30 2e35 382c 3134 302e 3438  | b'5,12,0.58,140.48' |
064: 312c 4d2c 2d33 322e 3534 362c 4d2c 2c30  | b'1,M,-32.546,M,,0' |
080: 3030 302a 3742 0d0a                      | b'000*7B\r\n' |
<NMEA(GNGSA, opMode=A, navMode=3, svid_01=25, svid_02=2, svid_03=21, svid_04=28, svid_05=12, svid_06=10, svid_07=32, svid_08=24, svid_09=23, svid_10=, svid_11=, svid_12=, PDOP=1.1, HDOP=0.58, VDOP=0.93, systemId=1)>000: 2447 4e47 5341 2c41 2c33 2c32 352c 3032  | b'$GNGSA,A,3,25,02' |
016: 2c32 312c 3238 2c31 322c 3130 2c33 322c  | b',21,28,12,10,32,' |
032: 3234 2c32 332c 2c2c 2c31 2e31 302c 302e  | b'24,23,,,,1.10,0.' |
048: 3538 2c30 2e39 332c 312a 3045 0d0a       | b'58,0.93,1*0E\r\n' |
<NMEA(GNGSA, opMode=A, navMode=3, svid_01=87, svid_02=73, svid_03=71, svid_04=80, svid_05=70, svid_06=72, svid_07=74, svid_08=, svid_09=, svid_10=, svid_11=, svid_12=, PDOP=1.1, HDOP=0.58, VDOP=0.93, systemId=2)>000: 2447 4e47 5341 2c41 2c33 2c38 372c 3733  | b'$GNGSA,A,3,87,73' |
016: 2c37 312c 3830 2c37 302c 3732 2c37 342c  | b',71,80,70,72,74,' |
032: 2c2c 2c2c 2c31 2e31 302c 302e 3538 2c30  | b',,,,,1.10,0.58,0' |
048: 2e39 332c 322a 3031 0d0a                 | b'.93,2*01\r\n' |
<NMEA(GNGSA, opMode=A, navMode=3, svid_01=15, svid_02=31, svid_03=34, svid_04=3, svid_05=9, svid_06=24, svid_07=5, svid_08=, svid_09=, svid_10=, svid_11=, svid_12=, PDOP=1.1, HDOP=0.58, VDOP=0.93, systemId=3)>000: 2447 4e47 5341 2c41 2c33 2c31 352c 3331  | b'$GNGSA,A,3,15,31' |
016: 2c33 342c 3033 2c30 392c 3234 2c30 352c  | b',34,03,09,24,05,' |
032: 2c2c 2c2c 2c31 2e31 302c 302e 3538 2c30  | b',,,,,1.10,0.58,0' |
048: 2e39 332c 332a 3043 0d0a                 | b'.93,3*0C\r\n' |
<NMEA(GNGSA, opMode=A, navMode=3, svid_01=37, svid_02=23, svid_03=32, svid_04=19, svid_05=20, svid_06=, svid_07=, svid_08=, svid_09=, svid_10=, svid_11=, svid_12=, PDOP=1.1, HDOP=0.58, VDOP=0.93, systemId=4)>000: 2447 4e47 5341 2c41 2c33 2c33 372c 3233  | b'$GNGSA,A,3,37,23' |
016: 2c33 322c 3139 2c32 302c 2c2c 2c2c 2c2c  | b',32,19,20,,,,,,,' |
032: 2c31 2e31 302c 302e 3538 2c30 2e39 332c  | b',1.10,0.58,0.93,' |
048: 342a 3044 0d0a                           | b'4*0D\r\n' |
<NMEA(GPGSV, numMsg=3, msgNum=1, numSV=11, svid_01=2, elv_01=18.0, az_01=314, cno_01=23, svid_02=10, elv_02=84.0, az_02=208, cno_02=41, svid_03=12, elv_03=30.0, az_03=92, cno_03=24, svid_04=15, elv_04=2.0, az_04=93, cno_04=9, signalID=1)>000: 2447 5047 5356 2c33 2c31 2c31 312c 3032  | b'$GPGSV,3,1,11,02' |
016: 2c31 382c 3331 342c 3233 2c31 302c 3834  | b',18,314,23,10,84' |
032: 2c32 3038 2c34 312c 3132 2c33 302c 3039  | b',208,41,12,30,09' |
048: 322c 3234 2c31 352c 3032 2c30 3933 2c30  | b'2,24,15,02,093,0' |
064: 392c 312a 3630 0d0a                      | b'9,1*60\r\n' |
<NMEA(GPGSV, numMsg=3, msgNum=2, numSV=11, svid_01=18, elv_01=0.0, az_01=182, cno_01=14, svid_02=21, elv_02=22.0, az_02=306, cno_02=22, svid_03=23, elv_03=46.0, az_03=144, cno_03=28, svid_04=24, elv_04=28.0, az_04=52, cno_04=22, signalID=1)>000: 2447 5047 5356 2c33 2c32 2c31 312c 3138  | b'$GPGSV,3,2,11,18' |
016: 2c30 302c 3138 322c 3134 2c32 312c 3232  | b',00,182,14,21,22' |
032: 2c33 3036 2c32 322c 3233 2c34 362c 3134  | b',306,22,23,46,14' |
048: 342c 3238 2c32 342c 3238 2c30 3532 2c32  | b'4,28,24,28,052,2' |
064: 322c 312a 3637 0d0a                      | b'2,1*67\r\n' |
<NMEA(GPGSV, numMsg=3, msgNum=3, numSV=11, svid_01=25, elv_01=26.0, az_01=139, cno_01=22, svid_02=28, elv_02=29.0, az_02=220, cno_02=24, svid_03=32, elv_03=55.0, az_03=292, cno_03=32, signalID=1)>000: 2447 5047 5356 2c33 2c33 2c31 312c 3235  | b'$GPGSV,3,3,11,25' |
016: 2c32 362c 3133 392c 3232 2c32 382c 3239  | b',26,139,22,28,29' |
032: 2c32 3230 2c32 342c 3332 2c35 352c 3239  | b',220,24,32,55,29' |
048: 322c 3332 2c31 2a35 320d 0a              | b'2,32,1*52\r\n' |
<NMEA(GPGSV, numMsg=1, msgNum=1, numSV=2, svid_01=10, elv_01=84.0, az_01=208, cno_01=17, svid_02=23, elv_02=46.0, az_02=144, cno_02=11, signalID=6)>000: 2447 5047 5356 2c31 2c31 2c30 322c 3130  | b'$GPGSV,1,1,02,10' |
016: 2c38 342c 3230 382c 3137 2c32 332c 3436  | b',84,208,17,23,46' |
032: 2c31 3434 2c31 312c 362a 3632 0d0a       | b',144,11,6*62\r\n' |
<NMEA(GPGSV, numMsg=1, msgNum=1, numSV=3, svid_01=31, elv_01=0.0, az_01=221, cno_01=, svid_02=44, elv_02=23.0, az_02=235, cno_02=, svid_03=46, elv_03=15.0, az_03=246, cno_03=, signalID=0)>000: 2447 5047 5356 2c31 2c31 2c30 332c 3331  | b'$GPGSV,1,1,03,31' |
016: 2c30 302c 3232 312c 2c34 342c 3233 2c32  | b',00,221,,44,23,2' |
032: 3335 2c2c 3436 2c31 352c 3234 362c 2c30  | b'35,,46,15,246,,0' |
048: 2a35 360d 0a                             | b'*56\r\n' |
<NMEA(GLGSV, numMsg=2, msgNum=1, numSV=8, svid_01=70, elv_01=47.0, az_01=83, cno_01=19, svid_02=71, elv_02=60.0, az_02=343, cno_02=40, svid_03=72, elv_03=20.0, az_03=303, cno_03=17, svid_04=73, elv_04=53.0, az_04=146, cno_04=35, signalID=1)>000: 2447 4c47 5356 2c32 2c31 2c30 382c 3730  | b'$GLGSV,2,1,08,70' |
016: 2c34 372c 3038 332c 3139 2c37 312c 3630  | b',47,083,19,71,60' |
032: 2c33 3433 2c34 302c 3732 2c32 302c 3330  | b',343,40,72,20,30' |
048: 332c 3137 2c37 332c 3533 2c31 3436 2c33  | b'3,17,73,53,146,3' |
064: 352c 312a 3732 0d0a                      | b'5,1*72\r\n' |
<NMEA(GLGSV, numMsg=2, msgNum=2, numSV=8, svid_01=74, elv_01=16.0, az_01=181, cno_01=19, svid_02=80, elv_02=44.0, az_02=50, cno_02=29, svid_03=86, elv_03=18.0, az_03=248, cno_03=26, svid_04=87, elv_04=23.0, az_04=305, cno_04=22, signalID=1)>000: 2447 4c47 5356 2c32 2c32 2c30 382c 3734  | b'$GLGSV,2,2,08,74' |
016: 2c31 362c 3138 312c 3139 2c38 302c 3434  | b',16,181,19,80,44' |
032: 2c30 3530 2c32 392c 3836 2c31 382c 3234  | b',050,29,86,18,24' |
048: 382c 3236 2c38 372c 3233 2c33 3035 2c32  | b'8,26,87,23,305,2' |
064: 322c 312a 3737 0d0a                      | b'2,1*77\r\n' |
<NMEA(GLGSV, numMsg=1, msgNum=1, numSV=2, svid_01=79, elv_01=1.0, az_01=21, cno_01=, svid_02=88, elv_02=4.0, az_02=352, cno_02=, signalID=0)>000: 2447 4c47 5356 2c31 2c31 2c30 322c 3739  | b'$GLGSV,1,1,02,79' |
016: 2c30 312c 3032 312c 2c38 382c 3034 2c33  | b',01,021,,88,04,3' |
032: 3532 2c2c 302a 3737 0d0a                 | b'52,,0*77\r\n' |
<NMEA(GAGSV, numMsg=3, msgNum=1, numSV=9, svid_01=3, elv_01=12.0, az_01=275, cno_01=15, svid_02=4, elv_02=7.0, az_02=86, cno_02=11, svid_03=5, elv_03=61.0, az_03=297, cno_03=36, svid_04=9, elv_04=55.0, az_04=68, cno_04=33, signalID=7)>000: 2447 4147 5356 2c33 2c31 2c30 392c 3033  | b'$GAGSV,3,1,09,03' |
016: 2c31 322c 3237 352c 3135 2c30 342c 3037  | b',12,275,15,04,07' |
032: 2c30 3836 2c31 312c 3035 2c36 312c 3239  | b',086,11,05,61,29' |
048: 372c 3336 2c30 392c 3535 2c30 3638 2c33  | b'7,36,09,55,068,3' |
064: 332c 372a 3744 0d0a                      | b'3,7*7D\r\n' |
<NMEA(GAGSV, numMsg=3, msgNum=2, numSV=9, svid_01=15, elv_01=19.0, az_01=320, cno_01=21, svid_02=24, elv_02=26.0, az_02=143, cno_02=21, svid_03=31, elv_03=35.0, az_03=85, cno_03=27, svid_04=34, elv_04=37.0, az_04=265, cno_04=31, signalID=7)>000: 2447 4147 5356 2c33 2c32 2c30 392c 3135  | b'$GAGSV,3,2,09,15' |
016: 2c31 392c 3332 302c 3231 2c32 342c 3236  | b',19,320,21,24,26' |
032: 2c31 3433 2c32 312c 3331 2c33 352c 3038  | b',143,21,31,35,08' |
048: 352c 3237 2c33 342c 3337 2c32 3635 2c33  | b'5,27,34,37,265,3' |
064: 312c 372a 3745 0d0a                      | b'1,7*7E\r\n' |
<NMEA(GAGSV, numMsg=3, msgNum=3, numSV=9, svid_01=36, elv_01=21.0, az_01=208, cno_01=20, signalID=7)>000: 2447 4147 5356 2c33 2c33 2c30 392c 3336  | b'$GAGSV,3,3,09,36' |
016: 2c32 312c 3230 382c 3230 2c37 2a34 340d  | b',21,208,20,7*44\r' |
032: 0a                                       | b'\n' |
<NMEA(GBGSV, numMsg=2, msgNum=1, numSV=6, svid_01=19, elv_01=31.0, az_01=303, cno_01=24, svid_02=20, elv_02=80.0, az_02=352, cno_02=37, svid_03=23, elv_03=28.0, az_03=49, cno_03=21, svid_04=32, elv_04=37.0, az_04=109, cno_04=23, signalID=1)>000: 2447 4247 5356 2c32 2c31 2c30 362c 3139  | b'$GBGSV,2,1,06,19' |
016: 2c33 312c 3330 332c 3234 2c32 302c 3830  | b',31,303,24,20,80' |
032: 2c33 3532 2c33 372c 3233 2c32 382c 3034  | b',352,37,23,28,04' |
048: 392c 3231 2c33 322c 3337 2c31 3039 2c32  | b'9,21,32,37,109,2' |
064: 332c 312a 3743 0d0a                      | b'3,1*7C\r\n' |
<NMEA(GBGSV, numMsg=2, msgNum=2, numSV=6, svid_01=35, elv_01=9.0, az_01=297, cno_01=14, svid_02=37, elv_02=61.0, az_02=117, cno_02=34, signalID=1)>000: 2447 4247 5356 2c32 2c32 2c30 362c 3335  | b'$GBGSV,2,2,06,35' |
016: 2c30 392c 3239 372c 3134 2c33 372c 3631  | b',09,297,14,37,61' |
032: 2c31 3137 2c33 342c 312a 3735 0d0a       | b',117,34,1*75\r\n' |
<NMEA(GBGSV, numMsg=1, msgNum=1, numSV=1, svid_01=29, elv_01=4.0, az_01=245, cno_01=, signalID=0)>000: 2447 4247 5356 2c31 2c31 2c30 312c 3239  | b'$GBGSV,1,1,01,29' |
016: 2c30 342c 3234 352c 2c30 2a34 410d 0a    | b',04,245,,0*4A\r\n' |
<NMEA(GNGLL, lat=43.8826026033, NS=N, lon=-72.157675125, EW=W, time=20:27:30.500000, status=A, posMode=D)>000: 2447 4e47 4c4c 2c34 3335 322e 3935 3631  | b'$GNGLL,4352.9561' |
016: 3536 322c 4e2c 3037 3230 392e 3436 3035  | b'562,N,07209.4605' |
032: 3037 352c 572c 3230 3237 3330 2e35 302c  | b'075,W,202730.50,' |
048: 412c 442a 3632 0d0a                      | b'A,D*62\r\n' |
<NMEA(GNRMC, time=20:27:30.750000, status=A, lat=43.8826026333, NS=N, lon=-72.1576738617, EW=W, spd=0.585, cog=, date=2023-09-05, mv=, mvEW=, posMode=F, navStatus=V)>000: 2447 4e52 4d43 2c32 3032 3733 302e 3735  | b'$GNRMC,202730.75' |
016: 2c41 2c34 3335 322e 3935 3631 3538 302c  | b',A,4352.9561580,' |
032: 4e2c 3037 3230 392e 3436 3034 3331 372c  | b'N,07209.4604317,' |
048: 572c 302e 3538 352c 2c30 3530 3932 332c  | b'W,0.585,,050923,' |
064: 2c2c 462c 562a 3042 0d0a                 | b',,F,V*0B\r\n' |
<NMEA(GNVTG, cogt=, cogtUnit=T, cogm=, cogmUnit=M, sogn=0.585, sognUnit=N, sogk=1.084, sogkUnit=K, posMode=D)>000: 2447 4e56 5447 2c2c 542c 2c4d 2c30 2e35  | b'$GNVTG,,T,,M,0.5' |
016: 3835 2c4e 2c31 2e30 3834 2c4b 2c44 2a33  | b'85,N,1.084,K,D*3' |
032: 440d 0a                                  | b'D\r\n' |
<NMEA(GNGGA, time=20:27:30.750000, lat=43.8826026333, NS=N, lon=-72.1576738617, EW=W, quality=5, numSV=12, HDOP=0.58, alt=140.492, altUnit=M, sep=-32.546, sepUnit=M, diffAge=, diffStation=0)>000: 2447 4e47 4741 2c32 3032 3733 302e 3735  | b'$GNGGA,202730.75' |
016: 2c34 3335 322e 3935 3631 3538 302c 4e2c  | b',4352.9561580,N,' |
032: 3037 3230 392e 3436 3034 3331 372c 572c  | b'07209.4604317,W,' |
048: 352c 3132 2c30 2e35 382c 3134 302e 3439  | b'5,12,0.58,140.49' |
064: 322c 4d2c 2d33 322e 3534 362c 4d2c 2c30  | b'2,M,-32.546,M,,0' |
080: 3030 302a 3734 0d0a                      | b'000*74\r\n' |
<NMEA(GNGSA, opMode=A, navMode=3, svid_01=25, svid_02=2, svid_03=21, svid_04=28, svid_05=12, svid_06=10, svid_07=32, svid_08=24, svid_09=23, svid_10=, svid_11=, svid_12=, PDOP=1.1, HDOP=0.58, VDOP=0.93, systemId=1)>000: 2447 4e47 5341 2c41 2c33 2c32 352c 3032  | b'$GNGSA,A,3,25,02' |
016: 2c32 312c 3238 2c31 322c 3130 2c33 322c  | b',21,28,12,10,32,' |
032: 3234 2c32 332c 2c2c 2c31 2e31 302c 302e  | b'24,23,,,,1.10,0.' |
048: 3538 2c30 2e39 332c 312a 3045 0d0a       | b'58,0.93,1*0E\r\n' |
<NMEA(GNGSA, opMode=A, navMode=3, svid_01=87, svid_02=73, svid_03=71, svid_04=80, svid_05=70, svid_06=72, svid_07=74, svid_08=, svid_09=, svid_10=, svid_11=, svid_12=, PDOP=1.1, HDOP=0.58, VDOP=0.93, systemId=2)>000: 2447 4e47 5341 2c41 2c33 2c38 372c 3733  | b'$GNGSA,A,3,87,73' |
016: 2c37 312c 3830 2c37 302c 3732 2c37 342c  | b',71,80,70,72,74,' |
032: 2c2c 2c2c 2c31 2e31 302c 302e 3538 2c30  | b',,,,,1.10,0.58,0' |
048: 2e39 332c 322a 3031 0d0a                 | b'.93,2*01\r\n' |
<NMEA(GNGSA, opMode=A, navMode=3, svid_01=15, svid_02=31, svid_03=34, svid_04=3, svid_05=9, svid_06=24, svid_07=5, svid_08=, svid_09=, svid_10=, svid_11=, svid_12=, PDOP=1.1, HDOP=0.58, VDOP=0.93, systemId=3)>000: 2447 4e47 5341 2c41 2c33 2c31 352c 3331  | b'$GNGSA,A,3,15,31' |
016: 2c33 342c 3033 2c30 392c 3234 2c30 352c  | b',34,03,09,24,05,' |
032: 2c2c 2c2c 2c31 2e31 302c 302e 3538 2c30  | b',,,,,1.10,0.58,0' |
048: 2e39 332c 332a 3043 0d0a                 | b'.93,3*0C\r\n' |
<NMEA(GNGSA, opMode=A, navMode=3, svid_01=37, svid_02=23, svid_03=32, svid_04=19, svid_05=20, svid_06=, svid_07=, svid_08=, svid_09=, svid_10=, svid_11=, svid_12=, PDOP=1.1, HDOP=0.58, VDOP=0.93, systemId=4)>000: 2447 4e47 5341 2c41 2c33 2c33 372c 3233  | b'$GNGSA,A,3,37,23' |
016: 2c33 322c 3139 2c32 302c 2c2c 2c2c 2c2c  | b',32,19,20,,,,,,,' |
032: 2c31 2e31 302c 302e 3538 2c30 2e39 332c  | b',1.10,0.58,0.93,' |
048: 342a 3044 0d0a                           | b'4*0D\r\n' |
<NMEA(GPGSV, numMsg=3, msgNum=1, numSV=11, svid_01=2, elv_01=18.0, az_01=314, cno_01=22, svid_02=10, elv_02=84.0, az_02=208, cno_02=39, svid_03=12, elv_03=30.0, az_03=92, cno_03=24, svid_04=15, elv_04=2.0, az_04=93, cno_04=9, signalID=1)>000: 2447 5047 5356 2c33 2c31 2c31 312c 3032  | b'$GPGSV,3,1,11,02' |
016: 2c31 382c 3331 342c 3232 2c31 302c 3834  | b',18,314,22,10,84' |
032: 2c32 3038 2c33 392c 3132 2c33 302c 3039  | b',208,39,12,30,09' |
048: 322c 3234 2c31 352c 3032 2c30 3933 2c30  | b'2,24,15,02,093,0' |
064: 392c 312a 3645 0d0a                      | b'9,1*6E\r\n' |
<NMEA(GPGSV, numMsg=3, msgNum=2, numSV=11, svid_01=18, elv_01=0.0, az_01=182, cno_01=15, svid_02=21, elv_02=22.0, az_02=306, cno_02=22, svid_03=23, elv_03=46.0, az_03=144, cno_03=28, svid_04=24, elv_04=28.0, az_04=52, cno_04=21, signalID=1)>000: 2447 5047 5356 2c33 2c32 2c31 312c 3138  | b'$GPGSV,3,2,11,18' |
016: 2c30 302c 3138 322c 3135 2c32 312c 3232  | b',00,182,15,21,22' |
032: 2c33 3036 2c32 322c 3233 2c34 362c 3134  | b',306,22,23,46,14' |
048: 342c 3238 2c32 342c 3238 2c30 3532 2c32  | b'4,28,24,28,052,2' |
064: 312c 312a 3635 0d0a                      | b'1,1*65\r\n' |
<NMEA(GPGSV, numMsg=3, msgNum=3, numSV=11, svid_01=25, elv_01=26.0, az_01=139, cno_01=23, svid_02=28, elv_02=29.0, az_02=220, cno_02=23, svid_03=32, elv_03=55.0, az_03=292, cno_03=35, signalID=1)>000: 2447 5047 5356 2c33 2c33 2c31 312c 3235  | b'$GPGSV,3,3,11,25' |
016: 2c32 362c 3133 392c 3233 2c32 382c 3239  | b',26,139,23,28,29' |
032: 2c32 3230 2c32 332c 3332 2c35 352c 3239  | b',220,23,32,55,29' |
048: 322c 3335 2c31 2a35 330d 0a              | b'2,35,1*53\r\n' |
<NMEA(GPGSV, numMsg=1, msgNum=1, numSV=2, svid_01=10, elv_01=84.0, az_01=208, cno_01=18, svid_02=23, elv_02=46.0, az_02=144, cno_02=11, signalID=6)>000: 2447 5047 5356 2c31 2c31 2c30 322c 3130  | b'$GPGSV,1,1,02,10' |
016: 2c38 342c 3230 382c 3138 2c32 332c 3436  | b',84,208,18,23,46' |
032: 2c31 3434 2c31 312c 362a 3644 0d0a       | b',144,11,6*6D\r\n' |
<NMEA(GPGSV, numMsg=1, msgNum=1, numSV=3, svid_01=31, elv_01=0.0, az_01=221, cno_01=, svid_02=44, elv_02=23.0, az_02=235, cno_02=, svid_03=46, elv_03=15.0, az_03=246, cno_03=, signalID=0)>000: 2447 5047 5356 2c31 2c31 2c30 332c 3331  | b'$GPGSV,1,1,03,31' |
016: 2c30 302c 3232 312c 2c34 342c 3233 2c32  | b',00,221,,44,23,2' |
032: 3335 2c2c 3436 2c31 352c 3234 362c 2c30  | b'35,,46,15,246,,0' |
048: 2a35 360d 0a                             | b'*56\r\n' |
<NMEA(GLGSV, numMsg=2, msgNum=1, numSV=8, svid_01=70, elv_01=47.0, az_01=83, cno_01=19, svid_02=71, elv_02=60.0, az_02=343, cno_02=40, svid_03=72, elv_03=20.0, az_03=303, cno_03=17, svid_04=73, elv_04=53.0, az_04=146, cno_04=36, signalID=1)>000: 2447 4c47 5356 2c32 2c31 2c30 382c 3730  | b'$GLGSV,2,1,08,70' |
016: 2c34 372c 3038 332c 3139 2c37 312c 3630  | b',47,083,19,71,60' |
032: 2c33 3433 2c34 302c 3732 2c32 302c 3330  | b',343,40,72,20,30' |
048: 332c 3137 2c37 332c 3533 2c31 3436 2c33  | b'3,17,73,53,146,3' |
064: 362c 312a 3731 0d0a                      | b'6,1*71\r\n' |
<NMEA(GLGSV, numMsg=2, msgNum=2, numSV=8, svid_01=74, elv_01=16.0, az_01=181, cno_01=12, svid_02=80, elv_02=44.0, az_02=50, cno_02=34, svid_03=86, elv_03=18.0, az_03=248, cno_03=26, svid_04=87, elv_04=23.0, az_04=305, cno_04=22, signalID=1)>000: 2447 4c47 5356 2c32 2c32 2c30 382c 3734  | b'$GLGSV,2,2,08,74' |
016: 2c31 362c 3138 312c 3132 2c38 302c 3434  | b',16,181,12,80,44' |
032: 2c30 3530 2c33 342c 3836 2c31 382c 3234  | b',050,34,86,18,24' |
048: 382c 3236 2c38 372c 3233 2c33 3035 2c32  | b'8,26,87,23,305,2' |
064: 322c 312a 3730 0d0a                      | b'2,1*70\r\n' |
<NMEA(GLGSV, numMsg=1, msgNum=1, numSV=2, svid_01=79, elv_01=1.0, az_01=21, cno_01=, svid_02=88, elv_02=4.0, az_02=352, cno_02=, signalID=0)>000: 2447 4c47 5356 2c31 2c31 2c30 322c 3739  | b'$GLGSV,1,1,02,79' |
016: 2c30 312c 3032 312c 2c38 382c 3034 2c33  | b',01,021,,88,04,3' |
032: 3532 2c2c 302a 3737 0d0a                 | b'52,,0*77\r\n' |
<NMEA(GAGSV, numMsg=3, msgNum=1, numSV=9, svid_01=3, elv_01=12.0, az_01=275, cno_01=17, svid_02=4, elv_02=7.0, az_02=86, cno_02=11, svid_03=5, elv_03=61.0, az_03=297, cno_03=36, svid_04=9, elv_04=55.0, az_04=68, cno_04=33, signalID=7)>000: 2447 4147 5356 2c33 2c31 2c30 392c 3033  | b'$GAGSV,3,1,09,03' |
016: 2c31 322c 3237 352c 3137 2c30 342c 3037  | b',12,275,17,04,07' |
032: 2c30 3836 2c31 312c 3035 2c36 312c 3239  | b',086,11,05,61,29' |
048: 372c 3336 2c30 392c 3535 2c30 3638 2c33  | b'7,36,09,55,068,3' |
064: 332c 372a 3746 0d0a                      | b'3,7*7F\r\n' |
<NMEA(GAGSV, numMsg=3, msgNum=2, numSV=9, svid_01=15, elv_01=19.0, az_01=320, cno_01=21, svid_02=24, elv_02=26.0, az_02=143, cno_02=21, svid_03=31, elv_03=35.0, az_03=85, cno_03=29, svid_04=34, elv_04=37.0, az_04=265, cno_04=32, signalID=7)>000: 2447 4147 5356 2c33 2c32 2c30 392c 3135  | b'$GAGSV,3,2,09,15' |
016: 2c31 392c 3332 302c 3231 2c32 342c 3236  | b',19,320,21,24,26' |
032: 2c31 3433 2c32 312c 3331 2c33 352c 3038  | b',143,21,31,35,08' |
048: 352c 3239 2c33 342c 3337 2c32 3635 2c33  | b'5,29,34,37,265,3' |
064: 322c 372a 3733 0d0a                      | b'2,7*73\r\n' |
<NMEA(GAGSV, numMsg=3, msgNum=3, numSV=9, svid_01=36, elv_01=21.0, az_01=208, cno_01=20, signalID=7)>000: 2447 4147 5356 2c33 2c33 2c30 392c 3336  | b'$GAGSV,3,3,09,36' |
016: 2c32 312c 3230 382c 3230 2c37 2a34 340d  | b',21,208,20,7*44\r' |
032: 0a                                       | b'\n' |
<NMEA(GBGSV, numMsg=2, msgNum=1, numSV=7, svid_01=19, elv_01=31.0, az_01=303, cno_01=25, svid_02=20, elv_02=80.0, az_02=352, cno_02=37, svid_03=23, elv_03=28.0, az_03=49, cno_03=23, svid_04=31, elv_04=, az_04=, cno_04=24, signalID=1)>000: 2447 4247 5356 2c32 2c31 2c30 372c 3139  | b'$GBGSV,2,1,07,19' |
016: 2c33 312c 3330 332c 3235 2c32 302c 3830  | b',31,303,25,20,80' |
032: 2c33 3532 2c33 372c 3233 2c32 382c 3034  | b',352,37,23,28,04' |
048: 392c 3233 2c33 312c 2c2c 3234 2c31 2a34  | b'9,23,31,,,24,1*4' |
064: 360d 0a                                  | b'6\r\n' |
<NMEA(GBGSV, numMsg=2, msgNum=2, numSV=7, svid_01=32, elv_01=37.0, az_01=109, cno_01=24, svid_02=35, elv_02=9.0, az_02=297, cno_02=15, svid_03=37, elv_03=61.0, az_03=117, cno_03=35, signalID=1)>000: 2447 4247 5356 2c32 2c32 2c30 372c 3332  | b'$GBGSV,2,2,07,32' |
016: 2c33 372c 3130 392c 3234 2c33 352c 3039  | b',37,109,24,35,09' |
032: 2c32 3937 2c31 352c 3337 2c36 312c 3131  | b',297,15,37,61,11' |
048: 372c 3335 2c31 2a34 460d 0a              | b'7,35,1*4F\r\n' |
<NMEA(GBGSV, numMsg=1, msgNum=1, numSV=1, svid_01=29, elv_01=4.0, az_01=245, cno_01=, signalID=0)>000: 2447 4247 5356 2c31 2c31 2c30 312c 3239  | b'$GBGSV,1,1,01,29' |
016: 2c30 342c 3234 352c 2c30 2a34 410d 0a    | b',04,245,,0*4A\r\n' |
<NMEA(GNGLL, lat=43.8826026333, NS=N, lon=-72.1576738617, EW=W, time=20:27:30.750000, status=A, posMode=D)>000: 2447 4e47 4c4c 2c34 3335 322e 3935 3631  | b'$GNGLL,4352.9561' |
016: 3538 302c 4e2c 3037 3230 392e 3436 3034  | b'580,N,07209.4604' |
032: 3331 372c 572c 3230 3237 3330 2e37 352c  | b'317,W,202730.75,' |
048: 412c 442a 3646 0d0a                      | b'A,D*6F\r\n' |
<NMEA(GNRMC, time=20:27:31, status=A, lat=43.8826028233, NS=N, lon=-72.1576727767, EW=W, spd=0.44, cog=, date=2023-09-05, mv=, mvEW=, posMode=F, navStatus=V)>000: 2447 4e52 4d43 2c32 3032 3733 312e 3030  | b'$GNRMC,202731.00' |
016: 2c41 2c34 3335 322e 3935 3631 3639 342c  | b',A,4352.9561694,' |
032: 4e2c 3037 3230 392e 3436 3033 3636 362c  | b'N,07209.4603666,' |
048: 572c 302e 3434 302c 2c30 3530 3932 332c  | b'W,0.440,,050923,' |
064: 2c2c 462c 562a 3032 0d0a                 | b',,F,V*02\r\n' |
<NMEA(GNVTG, cogt=, cogtUnit=T, cogm=, cogmUnit=M, sogn=0.44, sognUnit=N, sogk=0.815, sogkUnit=K, posMode=D)>000: 2447 4e56 5447 2c2c 542c 2c4d 2c30 2e34  | b'$GNVTG,,T,,M,0.4' |
016: 3430 2c4e 2c30 2e38 3135 2c4b 2c44 2a33  | b'40,N,0.815,K,D*3' |
032: 340d 0a                                  | b'4\r\n' |
<NMEA(GNGGA, time=20:27:31, lat=43.8826028233, NS=N, lon=-72.1576727767, EW=W, quality=5, numSV=12, HDOP=0.58, alt=140.491, altUnit=M, sep=-32.546, sepUnit=M, diffAge=, diffStation=0)>000: 2447 4e47 4741 2c32 3032 3733 312e 3030  | b'$GNGGA,202731.00' |
016: 2c34 3335 322e 3935 3631 3639 342c 4e2c  | b',4352.9561694,N,' |
032: 3037 3230 392e 3436 3033 3636 362c 572c  | b'07209.4603666,W,' |
048: 352c 3132 2c30 2e35 382c 3134 302e 3439  | b'5,12,0.58,140.49' |
064: 312c 4d2c 2d33 322e 3534 362c 4d2c 2c30  | b'1,M,-32.546,M,,0' |
080: 3030 302a 3736 0d0a                      | b'000*76\r\n' |
<NMEA(GNGSA, opMode=A, navMode=3, svid_01=25, svid_02=2, svid_03=21, svid_04=28, svid_05=12, svid_06=10, svid_07=32, svid_08=24, svid_09=23, svid_10=, svid_11=, svid_12=, PDOP=1.1, HDOP=0.58, VDOP=0.93, systemId=1)>000: 2447 4e47 5341 2c41 2c33 2c32 352c 3032  | b'$GNGSA,A,3,25,02' |
016: 2c32 312c 3238 2c31 322c 3130 2c33 322c  | b',21,28,12,10,32,' |
032: 3234 2c32 332c 2c2c 2c31 2e31 302c 302e  | b'24,23,,,,1.10,0.' |
048: 3538 2c30 2e39 332c 312a 3045 0d0a       | b'58,0.93,1*0E\r\n' |
<NMEA(GNGSA, opMode=A, navMode=3, svid_01=87, svid_02=73, svid_03=71, svid_04=80, svid_05=70, svid_06=72, svid_07=74, svid_08=, svid_09=, svid_10=, svid_11=, svid_12=, PDOP=1.1, HDOP=0.58, VDOP=0.93, systemId=2)>000: 2447 4e47 5341 2c41 2c33 2c38 372c 3733  | b'$GNGSA,A,3,87,73' |
016: 2c37 312c 3830 2c37 302c 3732 2c37 342c  | b',71,80,70,72,74,' |
032: 2c2c 2c2c 2c31 2e31 302c 302e 3538 2c30  | b',,,,,1.10,0.58,0' |
048: 2e39 332c 322a 3031 0d0a                 | b'.93,2*01\r\n' |
<NMEA(GNGSA, opMode=A, navMode=3, svid_01=15, svid_02=31, svid_03=34, svid_04=3, svid_05=9, svid_06=24, svid_07=5, svid_08=, svid_09=, svid_10=, svid_11=, svid_12=, PDOP=1.1, HDOP=0.58, VDOP=0.93, systemId=3)>000: 2447 4e47 5341 2c41 2c33 2c31 352c 3331  | b'$GNGSA,A,3,15,31' |
016: 2c33 342c 3033 2c30 392c 3234 2c30 352c  | b',34,03,09,24,05,' |
032: 2c2c 2c2c 2c31 2e31 302c 302e 3538 2c30  | b',,,,,1.10,0.58,0' |
048: 2e39 332c 332a 3043 0d0a                 | b'.93,3*0C\r\n' |
<NMEA(GNGSA, opMode=A, navMode=3, svid_01=37, svid_02=23, svid_03=32, svid_04=19, svid_05=20, svid_06=, svid_07=, svid_08=, svid_09=, svid_10=, svid_11=, svid_12=, PDOP=1.1, HDOP=0.58, VDOP=0.93, systemId=4)>000: 2447 4e47 5341 2c41 2c33 2c33 372c 3233  | b'$GNGSA,A,3,37,23' |
016: 2c33 322c 3139 2c32 302c 2c2c 2c2c 2c2c  | b',32,19,20,,,,,,,' |
032: 2c31 2e31 302c 302e 3538 2c30 2e39 332c  | b',1.10,0.58,0.93,' |
048: 342a 3044 0d0a                           | b'4*0D\r\n' |
<NMEA(GPGSV, numMsg=3, msgNum=1, numSV=11, svid_01=2, elv_01=18.0, az_01=314, cno_01=21, svid_02=10, elv_02=84.0, az_02=208, cno_02=38, svid_03=12, elv_03=30.0, az_03=92, cno_03=24, svid_04=15, elv_04=2.0, az_04=93, cno_04=6, signalID=1)>000: 2447 5047 5356 2c33 2c31 2c31 312c 3032  | b'$GPGSV,3,1,11,02' |
016: 2c31 382c 3331 342c 3231 2c31 302c 3834  | b',18,314,21,10,84' |
032: 2c32 3038 2c33 382c 3132 2c33 302c 3039  | b',208,38,12,30,09' |
048: 322c 3234 2c31 352c 3032 2c30 3933 2c30  | b'2,24,15,02,093,0' |
064: 362c 312a 3633 0d0a                      | b'6,1*63\r\n' |
<NMEA(GPGSV, numMsg=3, msgNum=2, numSV=11, svid_01=18, elv_01=0.0, az_01=182, cno_01=15, svid_02=21, elv_02=22.0, az_02=306, cno_02=22, svid_03=23, elv_03=46.0, az_03=144, cno_03=33, svid_04=24, elv_04=28.0, az_04=52, cno_04=21, signalID=1)>000: 2447 5047 5356 2c33 2c32 2c31 312c 3138  | b'$GPGSV,3,2,11,18' |
016: 2c30 302c 3138 322c 3135 2c32 312c 3232  | b',00,182,15,21,22' |
032: 2c33 3036 2c32 322c 3233 2c34 362c 3134  | b',306,22,23,46,14' |
048: 342c 3333 2c32 342c 3238 2c30 3532 2c32  | b'4,33,24,28,052,2' |
064: 312c 312a 3646 0d0a                      | b'1,1*6F\r\n' |
<NMEA(GPGSV, numMsg=3, msgNum=3, numSV=11, svid_01=25, elv_01=26.0, az_01=139, cno_01=23, svid_02=28, elv_02=29.0, az_02=220, cno_02=22, svid_03=32, elv_03=55.0, az_03=292, cno_03=36, signalID=1)>000: 2447 5047 5356 2c33 2c33 2c31 312c 3235  | b'$GPGSV,3,3,11,25' |
016: 2c32 362c 3133 392c 3233 2c32 382c 3239  | b',26,139,23,28,29' |
032: 2c32 3230 2c32 322c 3332 2c35 352c 3239  | b',220,22,32,55,29' |
048: 322c 3336 2c31 2a35 310d 0a              | b'2,36,1*51\r\n' |
<NMEA(GPGSV, numMsg=1, msgNum=1, numSV=2, svid_01=10, elv_01=84.0, az_01=208, cno_01=18, svid_02=23, elv_02=46.0, az_02=144, cno_02=10, signalID=6)>000: 2447 5047 5356 2c31 2c31 2c30 322c 3130  | b'$GPGSV,1,1,02,10' |
016: 2c38 342c 3230 382c 3138 2c32 332c 3436  | b',84,208,18,23,46' |
032: 2c31 3434 2c31 302c 362a 3643 0d0a       | b',144,10,6*6C\r\n' |
<NMEA(GPGSV, numMsg=1, msgNum=1, numSV=3, svid_01=31, elv_01=0.0, az_01=221, cno_01=, svid_02=44, elv_02=23.0, az_02=235, cno_02=, svid_03=46, elv_03=15.0, az_03=246, cno_03=, signalID=0)>000: 2447 5047 5356 2c31 2c31 2c30 332c 3331  | b'$GPGSV,1,1,03,31' |
016: 2c30 302c 3232 312c 2c34 342c 3233 2c32  | b',00,221,,44,23,2' |
032: 3335 2c2c 3436 2c31 352c 3234 362c 2c30  | b'35,,46,15,246,,0' |
048: 2a35 360d 0a                             | b'*56\r\n' |
<NMEA(GLGSV, numMsg=2, msgNum=1, numSV=8, svid_01=70, elv_01=47.0, az_01=83, cno_01=19, svid_02=71, elv_02=60.0, az_02=343, cno_02=38, svid_03=72, elv_03=20.0, az_03=303, cno_03=17, svid_04=73, elv_04=53.0, az_04=146, cno_04=35, signalID=1)>000: 2447 4c47 5356 2c32 2c31 2c30 382c 3730  | b'$GLGSV,2,1,08,70' |
016: 2c34 372c 3038 332c 3139 2c37 312c 3630  | b',47,083,19,71,60' |
032: 2c33 3433 2c33 382c 3732 2c32 302c 3330  | b',343,38,72,20,30' |
048: 332c 3137 2c37 332c 3533 2c31 3436 2c33  | b'3,17,73,53,146,3' |
064: 352c 312a 3744 0d0a                      | b'5,1*7D\r\n' |
<NMEA(GLGSV, numMsg=2, msgNum=2, numSV=8, svid_01=74, elv_01=16.0, az_01=181, cno_01=13, svid_02=80, elv_02=44.0, az_02=50, cno_02=34, svid_03=86, elv_03=18.0, az_03=248, cno_03=26, svid_04=87, elv_04=23.0, az_04=305, cno_04=22, signalID=1)>000: 2447 4c47 5356 2c32 2c32 2c30 382c 3734  | b'$GLGSV,2,2,08,74' |
016: 2c31 362c 3138 312c 3133 2c38 302c 3434  | b',16,181,13,80,44' |
032: 2c30 3530 2c33 342c 3836 2c31 382c 3234  | b',050,34,86,18,24' |
048: 382c 3236 2c38 372c 3233 2c33 3035 2c32  | b'8,26,87,23,305,2' |
064: 322c 312a 3731 0d0a                      | b'2,1*71\r\n' |
<NMEA(GLGSV, numMsg=1, msgNum=1, numSV=2, svid_01=79, elv_01=1.0, az_01=21, cno_01=, svid_02=88, elv_02=4.0, az_02=352, cno_02=, signalID=0)>000: 2447 4c47 5356 2c31 2c31 2c30 322c 3739  | b'$GLGSV,1,1,02,79' |
016: 2c30 312c 3032 312c 2c38 382c 3034 2c33  | b',01,021,,88,04,3' |
032: 3532 2c2c 302a 3737 0d0a                 | b'52,,0*77\r\n' |
<NMEA(GAGSV, numMsg=3, msgNum=1, numSV=9, svid_01=3, elv_01=12.0, az_01=275, cno_01=16, svid_02=4, elv_02=7.0, az_02=86, cno_02=10, svid_03=5, elv_03=61.0, az_03=297, cno_03=35, svid_04=9, elv_04=55.0, az_04=68, cno_04=33, signalID=7)>000: 2447 4147 5356 2c33 2c31 2c30 392c 3033  | b'$GAGSV,3,1,09,03' |
016: 2c31 322c 3237 352c 3136 2c30 342c 3037  | b',12,275,16,04,07' |
032: 2c30 3836 2c31 302c 3035 2c36 312c 3239  | b',086,10,05,61,29' |
048: 372c 3335 2c30 392c 3535 2c30 3638 2c33  | b'7,35,09,55,068,3' |
064: 332c 372a 3743 0d0a                      | b'3,7*7C\r\n' |
<NMEA(GNTXT, numMsg=1, msgNum=1, msgType=0, text=txbuf alloc)>000: 2447 4e54 5854 2c30 312c 3031 2c30 302c  | b'$GNTXT,01,01,00,' |
016: 7478 6275 6620 616c 6c6f 632a 3631 0d0a  | b'txbuf alloc*61\r\n' |
<NMEA(GNRMC, time=20:27:31.250000, status=A, lat=43.8826024167, NS=N, lon=-72.1576718817, EW=W, spd=0.506, cog=, date=2023-09-05, mv=, mvEW=, posMode=F, navStatus=V)>000: 2447 4e52 4d43 2c32 3032 3733 312e 3235  | b'$GNRMC,202731.25' |
016: 2c41 2c34 3335 322e 3935 3631 3435 302c  | b',A,4352.9561450,' |
032: 4e2c 3037 3230 392e 3436 3033 3132 392c  | b'N,07209.4603129,' |
048: 572c 302e 3530 362c 2c30 3530 3932 332c  | b'W,0.506,,050923,' |
064: 2c2c 462c 562a 3030 0d0a                 | b',,F,V*00\r\n' |
<NMEA(GNVTG, cogt=, cogtUnit=T, cogm=, cogmUnit=M, sogn=0.506, sognUnit=N, sogk=0.937, sogkUnit=K, posMode=D)>000: 2447 4e56 5447 2c2c 542c 2c4d 2c30 2e35  | b'$GNVTG,,T,,M,0.5' |
016: 3036 2c4e 2c30 2e39 3337 2c4b 2c44 2a33  | b'06,N,0.937,K,D*3' |
032: 360d 0a                                  | b'6\r\n' |
<NMEA(GNGGA, time=20:27:31.250000, lat=43.8826024167, NS=N, lon=-72.1576718817, EW=W, quality=5, numSV=12, HDOP=0.58, alt=140.461, altUnit=M, sep=-32.546, sepUnit=M, diffAge=, diffStation=0)>000: 2447 4e47 4741 2c32 3032 3733 312e 3235  | b'$GNGGA,202731.25' |
016: 2c34 3335 322e 3935 3631 3435 302c 4e2c  | b',4352.9561450,N,' |
032: 3037 3230 392e 3436 3033 3132 392c 572c  | b'07209.4603129,W,' |
048: 352c 3132 2c30 2e35 382c 3134 302e 3436  | b'5,12,0.58,140.46' |
064: 312c 4d2c 2d33 322e 3534 362c 4d2c 2c30  | b'1,M,-32.546,M,,0' |
080: 3030 302a 3738 0d0a                      | b'000*78\r\n' |
<NMEA(GNGSA, opMode=A, navMode=3, svid_01=25, svid_02=2, svid_03=21, svid_04=28, svid_05=12, svid_06=10, svid_07=32, svid_08=24, svid_09=23, svid_10=, svid_11=, svid_12=, PDOP=1.1, HDOP=0.58, VDOP=0.93, systemId=1)>000: 2447 4e47 5341 2c41 2c33 2c32 352c 3032  | b'$GNGSA,A,3,25,02' |
016: 2c32 312c 3238 2c31 322c 3130 2c33 322c  | b',21,28,12,10,32,' |
032: 3234 2c32 332c 2c2c 2c31 2e31 302c 302e  | b'24,23,,,,1.10,0.' |
048: 3538 2c30 2e39 332c 312a 3045 0d0a       | b'58,0.93,1*0E\r\n' |
<NMEA(GNGSA, opMode=A, navMode=3, svid_01=87, svid_02=73, svid_03=71, svid_04=80, svid_05=70, svid_06=72, svid_07=74, svid_08=, svid_09=, svid_10=, svid_11=, svid_12=, PDOP=1.1, HDOP=0.58, VDOP=0.93, systemId=2)>000: 2447 4e47 5341 2c41 2c33 2c38 372c 3733  | b'$GNGSA,A,3,87,73' |
016: 2c37 312c 3830 2c37 302c 3732 2c37 342c  | b',71,80,70,72,74,' |
032: 2c2c 2c2c 2c31 2e31 302c 302e 3538 2c30  | b',,,,,1.10,0.58,0' |
048: 2e39 332c 322a 3031 0d0a                 | b'.93,2*01\r\n' |
<NMEA(GNGSA, opMode=A, navMode=3, svid_01=15, svid_02=31, svid_03=34, svid_04=3, svid_05=9, svid_06=24, svid_07=5, svid_08=, svid_09=, svid_10=, svid_11=, svid_12=, PDOP=1.1, HDOP=0.58, VDOP=0.93, systemId=3)>000: 2447 4e47 5341 2c41 2c33 2c31 352c 3331  | b'$GNGSA,A,3,15,31' |
016: 2c33 342c 3033 2c30 392c 3234 2c30 352c  | b',34,03,09,24,05,' |
032: 2c2c 2c2c 2c31 2e31 302c 302e 3538 2c30  | b',,,,,1.10,0.58,0' |
048: 2e39 332c 332a 3043 0d0a                 | b'.93,3*0C\r\n' |
<NMEA(GNGSA, opMode=A, navMode=3, svid_01=37, svid_02=23, svid_03=32, svid_04=19, svid_05=20, svid_06=, svid_07=, svid_08=, svid_09=, svid_10=, svid_11=, svid_12=, PDOP=1.1, HDOP=0.58, VDOP=0.93, systemId=4)>000: 2447 4e47 5341 2c41 2c33 2c33 372c 3233  | b'$GNGSA,A,3,37,23' |
016: 2c33 322c 3139 2c32 302c 2c2c 2c2c 2c2c  | b',32,19,20,,,,,,,' |
032: 2c31 2e31 302c 302e 3538 2c30 2e39 332c  | b',1.10,0.58,0.93,' |
048: 342a 3044 0d0a                           | b'4*0D\r\n' |
<NMEA(GPGSV, numMsg=3, msgNum=1, numSV=10, svid_01=2, elv_01=18.0, az_01=314, cno_01=20, svid_02=10, elv_02=84.0, az_02=208, cno_02=38, svid_03=12, elv_03=30.0, az_03=92, cno_03=25, svid_04=15, elv_04=2.0, az_04=93, cno_04=9, signalID=1)>000: 2447 5047 5356 2c33 2c31 2c31 302c 3032  | b'$GPGSV,3,1,10,02' |
016: 2c31 382c 3331 342c 3230 2c31 302c 3834  | b',18,314,20,10,84' |
032: 2c32 3038 2c33 382c 3132 2c33 302c 3039  | b',208,38,12,30,09' |
048: 322c 3235 2c31 352c 3032 2c30 3933 2c30  | b'2,25,15,02,093,0' |
064: 392c 312a 3644 0d0a                      | b'9,1*6D\r\n' |
<NMEA(GPGSV, numMsg=3, msgNum=2, numSV=10, svid_01=21, elv_01=22.0, az_01=306, cno_01=21, svid_02=23, elv_02=46.0, az_02=144, cno_02=33, svid_03=24, elv_03=28.0, az_03=52, cno_03=20, svid_04=25, elv_04=26.0, az_04=139, cno_04=22, signalID=1)>000: 2447 5047 5356 2c33 2c32 2c31 302c 3231  | b'$GPGSV,3,2,10,21' |
016: 2c32 322c 3330 362c 3231 2c32 332c 3436  | b',22,306,21,23,46' |
032: 2c31 3434 2c33 332c 3234 2c32 382c 3035  | b',144,33,24,28,05' |
048: 322c 3230 2c32 352c 3236 2c31 3339 2c32  | b'2,20,25,26,139,2' |
064: 322c 312a 3632 0d0a                      | b'2,1*62\r\n' |
<NMEA(GPGSV, numMsg=3, msgNum=3, numSV=10, svid_01=28, elv_01=29.0, az_01=220, cno_01=22, svid_02=32, elv_02=55.0, az_02=292, cno_02=36, signalID=1)>000: 2447 5047 5356 2c33 2c33 2c31 302c 3238  | b'$GPGSV,3,3,10,28' |
016: 2c32 392c 3232 302c 3232 2c33 322c 3535  | b',29,220,22,32,55' |
032: 2c32 3932 2c33 362c 312a 3639 0d0a       | b',292,36,1*69\r\n' |
<NMEA(GPGSV, numMsg=1, msgNum=1, numSV=2, svid_01=10, elv_01=84.0, az_01=208, cno_01=18, svid_02=23, elv_02=46.0, az_02=144, cno_02=9, signalID=6)>000: 2447 5047 5356 2c31 2c31 2c30 322c 3130  | b'$GPGSV,1,1,02,10' |
016: 2c38 342c 3230 382c 3138 2c32 332c 3436  | b',84,208,18,23,46' |
032: 2c31 3434 2c30 392c 362a 3634 0d0a       | b',144,09,6*64\r\n' |
<NMEA(GPGSV, numMsg=1, msgNum=1, numSV=4, svid_01=18, elv_01=0.0, az_01=182, cno_01=, svid_02=31, elv_02=0.0, az_02=221, cno_02=, svid_03=44, elv_03=23.0, az_03=235, cno_03=, svid_04=46, elv_04=15.0, az_04=246, cno_04=, signalID=0)>000: 2447 5047 5356 2c31 2c31 2c30 342c 3138  | b'$GPGSV,1,1,04,18' |
016: 2c30 302c 3138 322c 2c33 312c 3030 2c32  | b',00,182,,31,00,2' |
032: 3231 2c2c 3434 2c32 332c 3233 352c 2c34  | b'21,,44,23,235,,4' |
048: 362c 3135 2c32 3436 2c2c 302a 3633 0d0a  | b'6,15,246,,0*63\r\n' |
<NMEA(GLGSV, numMsg=2, msgNum=1, numSV=8, svid_01=70, elv_01=47.0, az_01=83, cno_01=18, svid_02=71, elv_02=60.0, az_02=343, cno_02=38, svid_03=72, elv_03=20.0, az_03=303, cno_03=17, svid_04=73, elv_04=53.0, az_04=146, cno_04=35, signalID=1)>000: 2447 4c47 5356 2c32 2c31 2c30 382c 3730  | b'$GLGSV,2,1,08,70' |
016: 2c34 372c 3038 332c 3138 2c37 312c 3630  | b',47,083,18,71,60' |
032: 2c33 3433 2c33 382c 3732 2c32 302c 3330  | b',343,38,72,20,30' |
048: 332c 3137 2c37 332c 3533 2c31 3436 2c33  | b'3,17,73,53,146,3' |
064: 352c 312a 3743 0d0a                      | b'5,1*7C\r\n' |
<NMEA(GLGSV, numMsg=2, msgNum=2, numSV=8, svid_01=74, elv_01=16.0, az_01=181, cno_01=14, svid_02=80, elv_02=44.0, az_02=50, cno_02=34, svid_03=86, elv_03=18.0, az_03=248, cno_03=27, svid_04=87, elv_04=23.0, az_04=305, cno_04=22, signalID=1)>000: 2447 4c47 5356 2c32 2c32 2c30 382c 3734  | b'$GLGSV,2,2,08,74' |
016: 2c31 362c 3138 312c 3134 2c38 302c 3434  | b',16,181,14,80,44' |
032: 2c30 3530 2c33 342c 3836 2c31 382c 3234  | b',050,34,86,18,24' |
048: 382c 3237 2c38 372c 3233 2c33 3035 2c32  | b'8,27,87,23,305,2' |
064: 322c 312a 3737 0d0a                      | b'2,1*77\r\n' |
<NMEA(GLGSV, numMsg=1, msgNum=1, numSV=2, svid_01=79, elv_01=1.0, az_01=21, cno_01=, svid_02=88, elv_02=4.0, az_02=352, cno_02=, signalID=0)>000: 2447 4c47 5356 2c31 2c31 2c30 322c 3739  | b'$GLGSV,1,1,02,79' |
016: 2c30 312c 3032 312c 2c38 382c 3034 2c33  | b',01,021,,88,04,3' |
032: 3532 2c2c 302a 3737 0d0a                 | b'52,,0*77\r\n' |
<NMEA(GAGSV, numMsg=3, msgNum=1, numSV=9, svid_01=3, elv_01=12.0, az_01=275, cno_01=17, svid_02=4, elv_02=7.0, az_02=86, cno_02=13, svid_03=5, elv_03=61.0, az_03=297, cno_03=35, svid_04=9, elv_04=55.0, az_04=68, cno_04=33, signalID=7)>000: 2447 4147 5356 2c33 2c31 2c30 392c 3033  | b'$GAGSV,3,1,09,03' |
016: 2c31 322c 3237 352c 3137 2c30 342c 3037  | b',12,275,17,04,07' |
032: 2c30 3836 2c31 332c 3035 2c36 312c 3239  | b',086,13,05,61,29' |
048: 372c 3335 2c30 392c 3535 2c30 3638 2c33  | b'7,35,09,55,068,3' |
064: 332c 372a 3745 0d0a                      | b'3,7*7E\r\n' |
<NMEA(GAGSV, numMsg=3, msgNum=2, numSV=9, svid_01=15, elv_01=19.0, az_01=320, cno_01=19, svid_02=24, elv_02=26.0, az_02=143, cno_02=22, svid_03=31, elv_03=35.0, az_03=85, cno_03=28, svid_04=34, elv_04=37.0, az_04=265, cno_04=31, signalID=7)>000: 2447 4147 5356 2c33 2c32 2c30 392c 3135  | b'$GAGSV,3,2,09,15' |
016: 2c31 392c 3332 302c 3139 2c32 342c 3236  | b',19,320,19,24,26' |
032: 2c31 3433 2c32 322c 3331 2c33 352c 3038  | b',143,22,31,35,08' |
048: 352c 3238 2c33 342c 3337 2c32 3635 2c33  | b'5,28,34,37,265,3' |
064: 312c 372a 3739 0d0a                      | b'1,7*79\r\n' |
<NMEA(GAGSV, numMsg=3, msgNum=3, numSV=9, svid_01=36, elv_01=21.0, az_01=208, cno_01=18, signalID=7)>000: 2447 4147 5356 2c33 2c33 2c30 392c 3336  | b'$GAGSV,3,3,09,36' |
016: 2c32 312c 3230 382c 3138 2c37 2a34 460d  | b',21,208,18,7*4F\r' |
032: 0a                                       | b'\n' |
<NMEA(GBGSV, numMsg=2, msgNum=1, numSV=7, svid_01=19, elv_01=31.0, az_01=303, cno_01=24, svid_02=20, elv_02=80.0, az_02=352, cno_02=37, svid_03=23, elv_03=28.0, az_03=49, cno_03=22, svid_04=31, elv_04=, az_04=, cno_04=24, signalID=1)>000: 2447 4247 5356 2c32 2c31 2c30 372c 3139  | b'$GBGSV,2,1,07,19' |
016: 2c33 312c 3330 332c 3234 2c32 302c 3830  | b',31,303,24,20,80' |
032: 2c33 3532 2c33 372c 3233 2c32 382c 3034  | b',352,37,23,28,04' |
048: 392c 3232 2c33 312c 2c2c 3234 2c31 2a34  | b'9,22,31,,,24,1*4' |
064: 360d 0a                                  | b'6\r\n' |
<NMEA(GBGSV, numMsg=2, msgNum=2, numSV=7, svid_01=32, elv_01=36.0, az_01=110, cno_01=26, svid_02=35, elv_02=9.0, az_02=297, cno_02=15, svid_03=37, elv_03=61.0, az_03=117, cno_03=25, signalID=1)>000: 2447 4247 5356 2c32 2c32 2c30 372c 3332  | b'$GBGSV,2,2,07,32' |
016: 2c33 362c 3131 302c 3236 2c33 352c 3039  | b',36,110,26,35,09' |
032: 2c32 3937 2c31 352c 3337 2c36 312c 3131  | b',297,15,37,61,11' |
048: 372c 3235 2c31 2a34 350d 0a              | b'7,25,1*45\r\n' |
<NMEA(GBGSV, numMsg=1, msgNum=1, numSV=1, svid_01=29, elv_01=4.0, az_01=245, cno_01=, signalID=0)>000: 2447 4247 5356 2c31 2c31 2c30 312c 3239  | b'$GBGSV,1,1,01,29' |
016: 2c30 342c 3234 352c 2c30 2a34 410d 0a    | b',04,245,,0*4A\r\n' |
<NMEA(GNGLL, lat=43.8826024167, NS=N, lon=-72.1576718817, EW=W, time=20:27:31.250000, status=A, posMode=D)>000: 2447 4e47 4c4c 2c34 3335 322e 3935 3631  | b'$GNGLL,4352.9561' |
016: 3435 302c 4e2c 3037 3230 392e 3436 3033  | b'450,N,07209.4603' |
032: 3132 392c 572c 3230 3237 3331 2e32 352c  | b'129,W,202731.25,' |
048: 412c 442a 3646 0d0a                      | b'A,D*6F\r\n' |
<NMEA(GNRMC, time=20:27:31.500000, status=A, lat=43.8826019217, NS=N, lon=-72.1576712017, EW=W, spd=0.433, cog=, date=2023-09-05, mv=, mvEW=, posMode=F, navStatus=V)>000: 2447 4e52 4d43 2c32 3032 3733 312e 3530  | b'$GNRMC,202731.50' |
016: 2c41 2c34 3335 322e 3935 3631 3135 332c  | b',A,4352.9561153,' |
032: 4e2c 3037 3230 392e 3436 3032 3732 312c  | b'N,07209.4602721,' |
048: 572c 302e 3433 332c 2c30 3530 3932 332c  | b'W,0.433,,050923,' |
064: 2c2c 462c 562a 3043 0d0a                 | b',,F,V*0C\r\n' |
<NMEA(GNVTG, cogt=, cogtUnit=T, cogm=, cogmUnit=M, sogn=0.433, sognUnit=N, sogk=0.803, sogkUnit=K, posMode=D)>000: 2447 4e56 5447 2c2c 542c 2c4d 2c30 2e34  | b'$GNVTG,,T,,M,0.4' |
016: 3333 2c4e 2c30 2e38 3033 2c4b 2c44 2a33  | b'33,N,0.803,K,D*3' |
032: 370d 0a                                  | b'7\r\n' |
<NMEA(GNGGA, time=20:27:31.500000, lat=43.8826019217, NS=N, lon=-72.1576712017, EW=W, quality=5, numSV=12, HDOP=0.58, alt=140.401, altUnit=M, sep=-32.546, sepUnit=M, diffAge=, diffStation=0)>000: 2447 4e47 4741 2c32 3032 3733 312e 3530  | b'$GNGGA,202731.50' |
016: 2c34 3335 322e 3935 3631 3135 332c 4e2c  | b',4352.9561153,N,' |
032: 3037 3230 392e 3436 3032 3732 312c 572c  | b'07209.4602721,W,' |
048: 352c 3132 2c30 2e35 382c 3134 302e 3430  | b'5,12,0.58,140.40' |
064: 312c 4d2c 2d33 322e 3534 362c 4d2c 2c30  | b'1,M,-32.546,M,,0' |
080: 3030 302a 3735 0d0a                      | b'000*75\r\n' |
<NMEA(GNGSA, opMode=A, navMode=3, svid_01=25, svid_02=2, svid_03=21, svid_04=28, svid_05=12, svid_06=10, svid_07=32, svid_08=24, svid_09=23, svid_10=, svid_11=, svid_12=, PDOP=1.1, HDOP=0.58, VDOP=0.93, systemId=1)>000: 2447 4e47 5341 2c41 2c33 2c32 352c 3032  | b'$GNGSA,A,3,25,02' |
016: 2c32 312c 3238 2c31 322c 3130 2c33 322c  | b',21,28,12,10,32,' |
032: 3234 2c32 332c 2c2c 2c31 2e31 302c 302e  | b'24,23,,,,1.10,0.' |
048: 3538 2c30 2e39 332c 312a 3045 0d0a       | b'58,0.93,1*0E\r\n' |
<NMEA(GNGSA, opMode=A, navMode=3, svid_01=87, svid_02=73, svid_03=71, svid_04=80, svid_05=70, svid_06=72, svid_07=74, svid_08=, svid_09=, svid_10=, svid_11=, svid_12=, PDOP=1.1, HDOP=0.58, VDOP=0.93, systemId=2)>000: 2447 4e47 5341 2c41 2c33 2c38 372c 3733  | b'$GNGSA,A,3,87,73' |
016: 2c37 312c 3830 2c37 302c 3732 2c37 342c  | b',71,80,70,72,74,' |
032: 2c2c 2c2c 2c31 2e31 302c 302e 3538 2c30  | b',,,,,1.10,0.58,0' |
048: 2e39 332c 322a 3031 0d0a                 | b'.93,2*01\r\n' |
<NMEA(GNGSA, opMode=A, navMode=3, svid_01=15, svid_02=31, svid_03=34, svid_04=3, svid_05=9, svid_06=24, svid_07=5, svid_08=, svid_09=, svid_10=, svid_11=, svid_12=, PDOP=1.1, HDOP=0.58, VDOP=0.93, systemId=3)>000: 2447 4e47 5341 2c41 2c33 2c31 352c 3331  | b'$GNGSA,A,3,15,31' |
016: 2c33 342c 3033 2c30 392c 3234 2c30 352c  | b',34,03,09,24,05,' |
032: 2c2c 2c2c 2c31 2e31 302c 302e 3538 2c30  | b',,,,,1.10,0.58,0' |
048: 2e39 332c 332a 3043 0d0a                 | b'.93,3*0C\r\n' |
<NMEA(GNGSA, opMode=A, navMode=3, svid_01=37, svid_02=23, svid_03=32, svid_04=19, svid_05=20, svid_06=, svid_07=, svid_08=, svid_09=, svid_10=, svid_11=, svid_12=, PDOP=1.1, HDOP=0.58, VDOP=0.93, systemId=4)>000: 2447 4e47 5341 2c41 2c33 2c33 372c 3233  | b'$GNGSA,A,3,37,23' |
016: 2c33 322c 3139 2c32 302c 2c2c 2c2c 2c2c  | b',32,19,20,,,,,,,' |
032: 2c31 2e31 302c 302e 3538 2c30 2e39 332c  | b',1.10,0.58,0.93,' |
048: 342a 3044 0d0a                           | b'4*0D\r\n' |
<NMEA(GPGSV, numMsg=3, msgNum=1, numSV=10, svid_01=2, elv_01=18.0, az_01=314, cno_01=20, svid_02=10, elv_02=84.0, az_02=208, cno_02=38, svid_03=12, elv_03=30.0, az_03=92, cno_03=24, svid_04=15, elv_04=2.0, az_04=93, cno_04=9, signalID=1)>000: 2447 5047 5356 2c33 2c31 2c31 302c 3032  | b'$GPGSV,3,1,10,02' |
016: 2c31 382c 3331 342c 3230 2c31 302c 3834  | b',18,314,20,10,84' |
032: 2c32 3038 2c33 382c 3132 2c33 302c 3039  | b',208,38,12,30,09' |
048: 322c 3234 2c31 352c 3032 2c30 3933 2c30  | b'2,24,15,02,093,0' |
064: 392c 312a 3643 0d0a                      | b'9,1*6C\r\n' |
<NMEA(GPGSV, numMsg=3, msgNum=2, numSV=10, svid_01=21, elv_01=22.0, az_01=306, cno_01=20, svid_02=23, elv_02=46.0, az_02=144, cno_02=33, svid_03=24, elv_03=28.0, az_03=52, cno_03=19, svid_04=25, elv_04=26.0, az_04=139, cno_04=22, signalID=1)>000: 2447 5047 5356 2c33 2c32 2c31 302c 3231  | b'$GPGSV,3,2,10,21' |
016: 2c32 322c 3330 362c 3230 2c32 332c 3436  | b',22,306,20,23,46' |
032: 2c31 3434 2c33 332c 3234 2c32 382c 3035  | b',144,33,24,28,05' |
048: 322c 3139 2c32 352c 3236 2c31 3339 2c32  | b'2,19,25,26,139,2' |
064: 322c 312a 3639 0d0a                      | b'2,1*69\r\n' |
<NMEA(GPGSV, numMsg=3, msgNum=3, numSV=10, svid_01=28, elv_01=29.0, az_01=220, cno_01=21, svid_02=32, elv_02=55.0, az_02=292, cno_02=37, signalID=1)>000: 2447 5047 5356 2c33 2c33 2c31 302c 3238  | b'$GPGSV,3,3,10,28' |
016: 2c32 392c 3232 302c 3231 2c33 322c 3535  | b',29,220,21,32,55' |
032: 2c32 3932 2c33 372c 312a 3642 0d0a       | b',292,37,1*6B\r\n' |
<NMEA(GPGSV, numMsg=1, msgNum=1, numSV=2, svid_01=10, elv_01=84.0, az_01=208, cno_01=18, svid_02=23, elv_02=46.0, az_02=144, cno_02=9, signalID=6)>000: 2447 5047 5356 2c31 2c31 2c30 322c 3130  | b'$GPGSV,1,1,02,10' |
016: 2c38 342c 3230 382c 3138 2c32 332c 3436  | b',84,208,18,23,46' |
032: 2c31 3434 2c30 392c 362a 3634 0d0a       | b',144,09,6*64\r\n' |
<NMEA(GPGSV, numMsg=1, msgNum=1, numSV=4, svid_01=18, elv_01=0.0, az_01=182, cno_01=, svid_02=31, elv_02=0.0, az_02=221, cno_02=, svid_03=44, elv_03=23.0, az_03=235, cno_03=, svid_04=46, elv_04=15.0, az_04=246, cno_04=, signalID=0)>000: 2447 5047 5356 2c31 2c31 2c30 342c 3138  | b'$GPGSV,1,1,04,18' |
016: 2c30 302c 3138 322c 2c33 312c 3030 2c32  | b',00,182,,31,00,2' |
032: 3231 2c2c 3434 2c32 332c 3233 352c 2c34  | b'21,,44,23,235,,4' |
048: 362c 3135 2c32 3436 2c2c 302a 3633 0d0a  | b'6,15,246,,0*63\r\n' |
<NMEA(GLGSV, numMsg=2, msgNum=1, numSV=8, svid_01=70, elv_01=47.0, az_01=83, cno_01=18, svid_02=71, elv_02=60.0, az_02=343, cno_02=39, svid_03=72, elv_03=20.0, az_03=303, cno_03=16, svid_04=73, elv_04=53.0, az_04=146, cno_04=38, signalID=1)>000: 2447 4c47 5356 2c32 2c31 2c30 382c 3730  | b'$GLGSV,2,1,08,70' |
016: 2c34 372c 3038 332c 3138 2c37 312c 3630  | b',47,083,18,71,60' |
032: 2c33 3433 2c33 392c 3732 2c32 302c 3330  | b',343,39,72,20,30' |
048: 332c 3136 2c37 332c 3533 2c31 3436 2c33  | b'3,16,73,53,146,3' |
064: 382c 312a 3731 0d0a                      | b'8,1*71\r\n' |
<NMEA(GLGSV, numMsg=2, msgNum=2, numSV=8, svid_01=74, elv_01=16.0, az_01=181, cno_01=15, svid_02=80, elv_02=44.0, az_02=50, cno_02=34, svid_03=86, elv_03=18.0, az_03=248, cno_03=27, svid_04=87, elv_04=23.0, az_04=305, cno_04=23, signalID=1)>000: 2447 4c47 5356 2c32 2c32 2c30 382c 3734  | b'$GLGSV,2,2,08,74' |
016: 2c31 362c 3138 312c 3135 2c38 302c 3434  | b',16,181,15,80,44' |
032: 2c30 3530 2c33 342c 3836 2c31 382c 3234  | b',050,34,86,18,24' |
048: 382c 3237 2c38 372c 3233 2c33 3035 2c32  | b'8,27,87,23,305,2' |
064: 332c 312a 3737 0d0a                      | b'3,1*77\r\n' |
<NMEA(GLGSV, numMsg=1, msgNum=1, numSV=2, svid_01=79, elv_01=1.0, az_01=21, cno_01=, svid_02=88, elv_02=4.0, az_02=352, cno_02=, signalID=0)>000: 2447 4c47 5356 2c31 2c31 2c30 322c 3739  | b'$GLGSV,1,1,02,79' |
016: 2c30 312c 3032 312c 2c38 382c 3034 2c33  | b',01,021,,88,04,3' |
032: 3532 2c2c 302a 3737 0d0a                 | b'52,,0*77\r\n' |
<NMEA(GAGSV, numMsg=3, msgNum=1, numSV=9, svid_01=3, elv_01=12.0, az_01=275, cno_01=17, svid_02=4, elv_02=7.0, az_02=86, cno_02=13, svid_03=5, elv_03=61.0, az_03=297, cno_03=35, svid_04=9, elv_04=55.0, az_04=68, cno_04=32, signalID=7)>000: 2447 4147 5356 2c33 2c31 2c30 392c 3033  | b'$GAGSV,3,1,09,03' |
016: 2c31 322c 3237 352c 3137 2c30 342c 3037  | b',12,275,17,04,07' |
032: 2c30 3836 2c31 332c 3035 2c36 312c 3239  | b',086,13,05,61,29' |
048: 372c 3335 2c30 392c 3535 2c30 3638 2c33  | b'7,35,09,55,068,3' |
064: 322c 372a 3746 0d0a                      | b'2,7*7F\r\n' |
<NMEA(GAGSV, numMsg=3, msgNum=2, numSV=9, svid_01=15, elv_01=19.0, az_01=320, cno_01=19, svid_02=24, elv_02=26.0, az_02=143, cno_02=23, svid_03=31, elv_03=35.0, az_03=85, cno_03=18, svid_04=34, elv_04=37.0, az_04=265, cno_04=31, signalID=7)>000: 2447 4147 5356 2c33 2c32 2c30 392c 3135  | b'$GAGSV,3,2,09,15' |
016: 2c31 392c 3332 302c 3139 2c32 342c 3236  | b',19,320,19,24,26' |
032: 2c31 3433 2c32 332c 3331 2c33 352c 3038  | b',143,23,31,35,08' |
048: 352c 3138 2c33 342c 3337 2c32 3635 2c33  | b'5,18,34,37,265,3' |
064: 312c 372a 3742 0d0a                      | b'1,7*7B\r\n' |
<NMEA(GAGSV, numMsg=3, msgNum=3, numSV=9, svid_01=36, elv_01=21.0, az_01=208, cno_01=16, signalID=7)>000: 2447 4147 5356 2c33 2c33 2c30 392c 3336  | b'$GAGSV,3,3,09,36' |
016: 2c32 312c 3230 382c 3136 2c37 2a34 310d  | b',21,208,16,7*41\r' |
032: 0a                                       | b'\n' |
<NMEA(GBGSV, numMsg=2, msgNum=1, numSV=7, svid_01=19, elv_01=31.0, az_01=303, cno_01=24, svid_02=20, elv_02=80.0, az_02=352, cno_02=37, svid_03=23, elv_03=28.0, az_03=49, cno_03=23, svid_04=31, elv_04=, az_04=, cno_04=31, signalID=1)>000: 2447 4247 5356 2c32 2c31 2c30 372c 3139  | b'$GBGSV,2,1,07,19' |
016: 2c33 312c 3330 332c 3234 2c32 302c 3830  | b',31,303,24,20,80' |
032: 2c33 3532 2c33 372c 3233 2c32 382c 3034  | b',352,37,23,28,04' |
048: 392c 3233 2c33 312c 2c2c 3331 2c31 2a34  | b'9,23,31,,,31,1*4' |
064: 330d 0a                                  | b'3\r\n' |
<NMEA(GBGSV, numMsg=2, msgNum=2, numSV=7, svid_01=32, elv_01=36.0, az_01=110, cno_01=26, svid_02=35, elv_02=9.0, az_02=297, cno_02=15, svid_03=37, elv_03=61.0, az_03=117, cno_03=26, signalID=1)>000: 2447 4247 5356 2c32 2c32 2c30 372c 3332  | b'$GBGSV,2,2,07,32' |
016: 2c33 362c 3131 302c 3236 2c33 352c 3039  | b',36,110,26,35,09' |
032: 2c32 3937 2c31 352c 3337 2c36 312c 3131  | b',297,15,37,61,11' |
048: 372c 3236 2c31 2a34 360d 0a              | b'7,26,1*46\r\n' |
<NMEA(GBGSV, numMsg=1, msgNum=1, numSV=1, svid_01=29, elv_01=4.0, az_01=245, cno_01=, signalID=0)>000: 2447 4247 5356 2c31 2c31 2c30 312c 3239  | b'$GBGSV,1,1,01,29' |
016: 2c30 342c 3234 352c 2c30 2a34 410d 0a    | b',04,245,,0*4A\r\n' |
<NMEA(GNGLL, lat=43.8826019217, NS=N, lon=-72.1576712017, EW=W, time=20:27:31.500000, status=A, posMode=D)>000: 2447 4e47 4c4c 2c34 3335 322e 3935 3631  | b'$GNGLL,4352.9561' |
016: 3135 332c 4e2c 3037 3230 392e 3436 3032  | b'153,N,07209.4602' |
032: 3732 312c 572c 3230 3237 3331 2e35 302c  | b'721,W,202731.50,' |
048: 412c 442a 3634 0d0a                      | b'A,D*64\r\n' |
<NMEA(GNRMC, time=20:27:31.750000, status=A, lat=43.8826013067, NS=N, lon=-72.1576704417, EW=W, spd=0.507, cog=, date=2023-09-05, mv=, mvEW=, posMode=F, navStatus=V)>000: 2447 4e52 4d43 2c32 3032 3733 312e 3735  | b'$GNRMC,202731.75' |
016: 2c41 2c34 3335 322e 3935 3630 3738 342c  | b',A,4352.9560784,' |
032: 4e2c 3037 3230 392e 3436 3032 3236 352c  | b'N,07209.4602265,' |
048: 572c 302e 3530 372c 2c30 3530 3932 332c  | b'W,0.507,,050923,' |
064: 2c2c 462c 562a 3035 0d0a                 | b',,F,V*05\r\n' |
<NMEA(GNVTG, cogt=, cogtUnit=T, cogm=, cogmUnit=M, sogn=0.507, sognUnit=N, sogk=0.94, sogkUnit=K, posMode=D)>000: 2447 4e56 5447 2c2c 542c 2c4d 2c30 2e35  | b'$GNVTG,,T,,M,0.5' |
016: 3037 2c4e 2c30 2e39 3430 2c4b 2c44 2a33  | b'07,N,0.940,K,D*3' |
032: 370d 0a                                  | b'7\r\n' |
<NMEA(GNGGA, time=20:27:31.750000, lat=43.8826013067, NS=N, lon=-72.1576704417, EW=W, quality=5, numSV=12, HDOP=0.58, alt=140.348, altUnit=M, sep=-32.546, sepUnit=M, diffAge=, diffStation=0)>000: 2447 4e47 4741 2c32 3032 3733 312e 3735  | b'$GNGGA,202731.75' |
016: 2c34 3335 322e 3935 3630 3738 342c 4e2c  | b',4352.9560784,N,' |
032: 3037 3230 392e 3436 3032 3236 352c 572c  | b'07209.4602265,W,' |
048: 352c 3132 2c30 2e35 382c 3134 302e 3334  | b'5,12,0.58,140.34' |
064: 382c 4d2c 2d33 322e 3534 362c 4d2c 2c30  | b'8,M,-32.546,M,,0' |
080: 3030 302a 3730 0d0a                      | b'000*70\r\n' |
<NMEA(GNGSA, opMode=A, navMode=3, svid_01=25, svid_02=2, svid_03=21, svid_04=28, svid_05=12, svid_06=10, svid_07=32, svid_08=24, svid_09=23, svid_10=, svid_11=, svid_12=, PDOP=1.1, HDOP=0.58, VDOP=0.93, systemId=1)>000: 2447 4e47 5341 2c41 2c33 2c32 352c 3032  | b'$GNGSA,A,3,25,02' |
016: 2c32 312c 3238 2c31 322c 3130 2c33 322c  | b',21,28,12,10,32,' |
032: 3234 2c32 332c 2c2c 2c31 2e31 302c 302e  | b'24,23,,,,1.10,0.' |
048: 3538 2c30 2e39 332c 312a 3045 0d0a       | b'58,0.93,1*0E\r\n' |
<NMEA(GNGSA, opMode=A, navMode=3, svid_01=87, svid_02=73, svid_03=71, svid_04=80, svid_05=70, svid_06=72, svid_07=74, svid_08=, svid_09=, svid_10=, svid_11=, svid_12=, PDOP=1.1, HDOP=0.58, VDOP=0.93, systemId=2)>000: 2447 4e47 5341 2c41 2c33 2c38 372c 3733  | b'$GNGSA,A,3,87,73' |
016: 2c37 312c 3830 2c37 302c 3732 2c37 342c  | b',71,80,70,72,74,' |
032: 2c2c 2c2c 2c31 2e31 302c 302e 3538 2c30  | b',,,,,1.10,0.58,0' |
048: 2e39 332c 322a 3031 0d0a                 | b'.93,2*01\r\n' |
<NMEA(GNGSA, opMode=A, navMode=3, svid_01=15, svid_02=31, svid_03=34, svid_04=3, svid_05=9, svid_06=24, svid_07=5, svid_08=, svid_09=, svid_10=, svid_11=, svid_12=, PDOP=1.1, HDOP=0.58, VDOP=0.93, systemId=3)>000: 2447 4e47 5341 2c41 2c33 2c31 352c 3331  | b'$GNGSA,A,3,15,31' |
016: 2c33 342c 3033 2c30 392c 3234 2c30 352c  | b',34,03,09,24,05,' |
032: 2c2c 2c2c 2c31 2e31 302c 302e 3538 2c30  | b',,,,,1.10,0.58,0' |
048: 2e39 332c 332a 3043 0d0a                 | b'.93,3*0C\r\n' |
<NMEA(GNGSA, opMode=A, navMode=3, svid_01=37, svid_02=23, svid_03=32, svid_04=19, svid_05=20, svid_06=, svid_07=, svid_08=, svid_09=, svid_10=, svid_11=, svid_12=, PDOP=1.1, HDOP=0.58, VDOP=0.93, systemId=4)>000: 2447 4e47 5341 2c41 2c33 2c33 372c 3233  | b'$GNGSA,A,3,37,23' |
016: 2c33 322c 3139 2c32 302c 2c2c 2c2c 2c2c  | b',32,19,20,,,,,,,' |
032: 2c31 2e31 302c 302e 3538 2c30 2e39 332c  | b',1.10,0.58,0.93,' |
048: 342a 3044 0d0a                           | b'4*0D\r\n' |
