<NMEA(GPGSV, numMsg=3, msgNum=2, numSV=12, svid_01=21, elv_01=22.0, az_01=305, cno_01=27, svid_02=23, elv_02=45.0, az_02=145, cno_02=32, svid_03=24, elv_03=27.0, az_03=52, cno_03=13, svid_04=25, elv_04=27.0, az_04=139, cno_04=25, signalID=1)>000: 2447 5047 5356 2c33 2c32 2c31 322c 3231  | b'$GPGSV,3,2,12,21' |
016: 2c32 322c 3330 352c 3237 2c32 332c 3435  | b',22,305,27,23,45' |
032: 2c31 3435 2c33 322c 3234 2c32 372c 3035  | b',145,32,24,27,05' |
048: 322c 3133 2c32 352c 3237 2c31 3339 2c32  | b'2,13,25,27,139,2' |
064: 352c 312a 3646 0d0a                      | b'5,1*6F\r\n' |
<NMEA(GPGSV, numMsg=3, msgNum=3, numSV=12, svid_01=28, elv_01=30.0, az_01=221, cno_01=28, svid_02=31, elv_02=1.0, az_02=222, cno_02=15, svid_03=32, elv_03=55.0, az_03=293, cno_03=38, svid_04=46, elv_04=15.0, az_04=246, cno_04=28, signalID=1)>000: 2447 5047 5356 2c33 2c33 2c31 322c 3238  | b'$GPGSV,3,3,12,28' |
016: 2c33 302c 3232 312c 3238 2c33 312c 3031  | b',30,221,28,31,01' |
032: 2c32 3232 2c31 352c 3332 2c35 352c 3239  | b',222,15,32,55,29' |
048: 332c 3338 2c34 362c 3135 2c32 3436 2c32  | b'3,38,46,15,246,2' |
064: 382c 312a 3645 0d0a                      | b'8,1*6E\r\n' |
<NMEA(GPGSV, numMsg=1, msgNum=1, numSV=4, svid_01=10, elv_01=83.0, az_01=201, cno_01=19, svid_02=12, elv_02=31.0, az_02=91, cno_02=15, svid_03=25, elv_03=27.0, az_03=139, cno_03=10, svid_04=32, elv_04=55.0, az_04=293, cno_04=16, signalID=6)>000: 2447 5047 5356 2c31 2c31 2c30 342c 3130  | b'$GPGSV,1,1,04,10' |
016: 2c38 332c 3230 312c 3139 2c31 322c 3331  | b',83,201,19,12,31' |
032: 2c30 3931 2c31 352c 3235 2c32 372c 3133  | b',091,15,25,27,13' |
048: 392c 3130 2c33 322c 3535 2c32 3933 2c31  | b'9,10,32,55,293,1' |
064: 362c 362a 3644 0d0a                      | b'6,6*6D\r\n' |
<NMEA(GPGSV, numMsg=1, msgNum=1, numSV=1, svid_01=44, elv_01=23.0, az_01=235, cno_01=, signalID=0)>000: 2447 5047 5356 2c31 2c31 2c30 312c 3434  | b'$GPGSV,1,1,01,44' |
016: 2c32 332c 3233 352c 2c30 2a35 310d 0a    | b',23,235,,0*51\r\n' |
<NMEA(GLGSV, numMsg=2, msgNum=1, numSV=8, svid_01=70, elv_01=46.0, az_01=85, cno_01=24, svid_02=71, elv_02=61.0, az_02=344, cno_02=36, svid_03=72, elv_03=20.0, az_03=304, cno_03=28, svid_04=73, elv_04=54.0, az_04=145, cno_04=34, signalID=1)>000: 2447 4c47 5356 2c32 2c31 2c30 382c 3730  | b'$GLGSV,2,1,08,70' |
016: 2c34 362c 3038 352c 3234 2c37 312c 3631  | b',46,085,24,71,61' |
032: 2c33 3434 2c33 362c 3732 2c32 302c 3330  | b',344,36,72,20,30' |
048: 342c 3238 2c37 332c 3534 2c31 3435 2c33  | b'4,28,73,54,145,3' |
064: 342c 312a 3732 0d0a                      | b'4,1*72\r\n' |
<NMEA(GLGSV, numMsg=2, msgNum=2, numSV=8, svid_01=74, elv_01=17.0, az_01=181, cno_01=8, svid_02=80, elv_02=44.0, az_02=48, cno_02=34, svid_03=86, elv_03=17.0, az_03=248, cno_03=31, svid_04=87, elv_04=23.0, az_04=304, cno_04=24, signalID=1)>000: 2447 4c47 5356 2c32 2c32 2c30 382c 3734  | b'$GLGSV,2,2,08,74' |
016: 2c31 372c 3138 312c 3038 2c38 302c 3434  | b',17,181,08,80,44' |
032: 2c30 3438 2c33 342c 3836 2c31 372c 3234  | b',048,34,86,17,24' |
048: 382c 3331 2c38 372c 3233 2c33 3034 2c32  | b'8,31,87,23,304,2' |
064: 342c 312a 3744 0d0a                      | b'4,1*7D\r\n' |
<NMEA(GLGSV, numMsg=1, msgNum=1, numSV=2, svid_01=79, elv_01=0.0, az_01=21, cno_01=, svid_02=88, elv_02=4.0, az_02=351, cno_02=, signalID=0)>000: 2447 4c47 5356 2c31 2c31 2c30 322c 3739  | b'$GLGSV,1,1,02,79' |
016: 2c30 302c 3032 312c 2c38 382c 3034 2c33  | b',00,021,,88,04,3' |
032: 3531 2c2c 302a 3735 0d0a                 | b'51,,0*75\r\n' |
<NMEA(GAGSV, numMsg=1, msgNum=1, numSV=1, svid_01=9, elv_01=54.0, az_01=68, cno_01=17, signalID=2)>000: 2447 4147 5356 2c31 2c31 2c30 312c 3039  | b'$GAGSV,1,1,01,09' |
016: 2c35 342c 3036 382c 3137 2c32 2a34 370d  | b',54,068,17,2*47\r' |
032: 0a                                       | b'\n' |
<NMEA(GAGSV, numMsg=2, msgNum=1, numSV=8, svid_01=4, elv_01=7.0, az_01=86, cno_01=9, svid_02=5, elv_02=61.0, az_02=298, cno_02=34, svid_03=9, elv_03=54.0, az_03=68, cno_03=30, svid_04=15, elv_04=19.0, az_04=319, cno_04=12, signalID=7)>000: 2447 4147 5356 2c32 2c31 2c30 382c 3034  | b'$GAGSV,2,1,08,04' |
016: 2c30 372c 3038 362c 3039 2c30 352c 3631  | b',07,086,09,05,61' |
032: 2c32 3938 2c33 342c 3039 2c35 342c 3036  | b',298,34,09,54,06' |
048: 382c 3330 2c31 352c 3139 2c33 3139 2c31  | b'8,30,15,19,319,1' |
064: 322c 372a 3742 0d0a                      | b'2,7*7B\r\n' |
<NMEA(GAGSV, numMsg=2, msgNum=2, numSV=8, svid_01=24, elv_01=26.0, az_01=143, cno_01=16, svid_02=31, elv_02=35.0, az_02=85, cno_02=25, svid_03=34, elv_03=37.0, az_03=264, cno_03=29, svid_04=36, elv_04=20.0, az_04=208, cno_04=16, signalID=7)>000: 2447 4147 5356 2c32 2c32 2c30 382c 3234  | b'$GAGSV,2,2,08,24' |
016: 2c32 362c 3134 332c 3136 2c33 312c 3335  | b',26,143,16,31,35' |
032: 2c30 3835 2c32 352c 3334 2c33 372c 3236  | b',085,25,34,37,26' |
048: 342c 3239 2c33 362c 3230 2c32 3038 2c31  | b'4,29,36,20,208,1' |
064: 362c 372a 3734 0d0a                      | b'6,7*74\r\n' |
<NMEA(GAGSV, numMsg=1, msgNum=1, numSV=1, svid_01=3, elv_01=12.0, az_01=276, cno_01=, signalID=0)>000: 2447 4147 5356 2c31 2c31 2c30 312c 3033  | b'$GAGSV,1,1,01,03' |
016: 2c31 322c 3237 362c 2c30 2a34 360d 0a    | b',12,276,,0*46\r\n' |
<NMEA(GBGSV, numMsg=2, msgNum=1, numSV=8, svid_01=19, elv_01=32.0, az_01=303, cno_01=25, svid_02=20, elv_02=80.0, az_02=355, cno_02=32, svid_03=23, elv_03=27.0, az_03=48, cno_03=13, svid_04=29, elv_04=4.0, az_04=245, cno_04=9, signalID=1)>000: 2447 4247 5356 2c32 2c31 2c30 382c 3139  | b'$GBGSV,2,1,08,19' |
016: 2c33 322c 3330 332c 3235 2c32 302c 3830  | b',32,303,25,20,80' |
032: 2c33 3535 2c33 322c 3233 2c32 372c 3034  | b',355,32,23,27,04' |
048: 382c 3133 2c32 392c 3034 2c32 3435 2c30  | b'8,13,29,04,245,0' |
064: 392c 312a 3734 0d0a                      | b'9,1*74\r\n' |
<NMEA(GBGSV, numMsg=2, msgNum=2, numSV=8, svid_01=31, elv_01=, az_01=, cno_01=9, svid_02=32, elv_02=36.0, az_02=110, cno_02=9, svid_03=35, elv_03=8.0, az_03=297, cno_03=15, svid_04=37, elv_04=62.0, az_04=115, cno_04=29, signalID=1)>000: 2447 4247 5356 2c32 2c32 2c30 382c 3331  | b'$GBGSV,2,2,08,31' |
016: 2c2c 2c30 392c 3332 2c33 362c 3131 302c  | b',,,09,32,36,110,' |
032: 3039 2c33 352c 3038 2c32 3937 2c31 352c  | b'09,35,08,297,15,' |
048: 3337 2c36 322c 3131 352c 3239 2c31 2a34  | b'37,62,115,29,1*4' |
064: 300d 0a                                  | b'0\r\n' |
<NMEA(GNGLL, lat=43.8825048367, NS=N, lon=-72.1574134967, EW=W, time=20:29:26, status=A, posMode=D)>000: 2447 4e47 4c4c 2c34 3335 322e 3935 3032  | b'$GNGLL,4352.9502' |
016: 3930 322c 4e2c 3037 3230 392e 3434 3438  | b'902,N,07209.4448' |
032: 3039 382c 572c 3230 3239 3236 2e30 302c  | b'098,W,202926.00,' |
048: 412c 442a 3639 0d0a                      | b'A,D*69\r\n' |
<NMEA(GNRMC, time=20:29:26.250000, status=A, lat=43.88250494, NS=N, lon=-72.15741348, EW=W, spd=0.04, cog=, date=2023-09-05, mv=, mvEW=, posMode=F, navStatus=V)>000: 2447 4e52 4d43 2c32 3032 3932 362e 3235  | b'$GNRMC,202926.25' |
016: 2c41 2c34 3335 322e 3935 3032 3936 342c  | b',A,4352.9502964,' |
032: 4e2c 3037 3230 392e 3434 3438 3038 382c  | b'N,07209.4448088,' |
048: 572c 302e 3034 302c 2c30 3530 3932 332c  | b'W,0.040,,050923,' |
064: 2c2c 462c 562a 3037 0d0a                 | b',,F,V*07\r\n' |
<NMEA(GNVTG, cogt=, cogtUnit=T, cogm=, cogmUnit=M, sogn=0.04, sognUnit=N, sogk=0.074, sogkUnit=K, posMode=D)>000: 2447 4e56 5447 2c2c 542c 2c4d 2c30 2e30  | b'$GNVTG,,T,,M,0.0' |
016: 3430 2c4e 2c30 2e30 3734 2c4b 2c44 2a33  | b'40,N,0.074,K,D*3' |
032: 460d 0a                                  | b'F\r\n' |
<NMEA(GNGGA, time=20:29:26.250000, lat=43.88250494, NS=N, lon=-72.15741348, EW=W, quality=5, numSV=12, HDOP=0.58, alt=142.183, altUnit=M, sep=-32.546, sepUnit=M, diffAge=, diffStation=0)>000: 2447 4e47 4741 2c32 3032 3932 362e 3235  | b'$GNGGA,202926.25' |
016: 2c34 3335 322e 3935 3032 3936 342c 4e2c  | b',4352.9502964,N,' |
032: 3037 3230 392e 3434 3438 3038 382c 572c  | b'07209.4448088,W,' |
048: 352c 3132 2c30 2e35 382c 3134 322e 3138  | b'5,12,0.58,142.18' |
064: 332c 4d2c 2d33 322e 3534 362c 4d2c 2c30  | b'3,M,-32.546,M,,0' |
080: 3030 302a 3733 0d0a                      | b'000*73\r\n' |
<NMEA(GNGSA, opMode=A, navMode=3, svid_01=28, svid_02=24, svid_03=32, svid_04=2, svid_05=21, svid_06=12, svid_07=10, svid_08=25, svid_09=23, svid_10=, svid_11=, svid_12=, PDOP=1.13, HDOP=0.58, VDOP=0.98, systemId=1)>000: 2447 4e47 5341 2c41 2c33 2c32 382c 3234  | b'$GNGSA,A,3,28,24' |
016: 2c33 322c 3032 2c32 312c 3132 2c31 302c  | b',32,02,21,12,10,' |
032: 3235 2c32 332c 2c2c 2c31 2e31 332c 302e  | b'25,23,,,,1.13,0.' |
048: 3538 2c30 2e39 382c 312a 3036 0d0a       | b'58,0.98,1*06\r\n' |
<NMEA(GNGSA, opMode=A, navMode=3, svid_01=71, svid_02=80, svid_03=70, svid_04=87, svid_05=72, svid_06=74, svid_07=73, svid_08=, svid_09=, svid_10=, svid_11=, svid_12=, PDOP=1.13, HDOP=0.58, VDOP=0.98, systemId=2)>000: 2447 4e47 5341 2c41 2c33 2c37 312c 3830  | b'$GNGSA,A,3,71,80' |
016: 2c37 302c 3837 2c37 322c 3734 2c37 332c  | b',70,87,72,74,73,' |
032: 2c2c 2c2c 2c31 2e31 332c 302e 3538 2c30  | b',,,,,1.13,0.58,0' |
048: 2e39 382c 322a 3039 0d0a                 | b'.98,2*09\r\n' |
<NMEA(GNGSA, opMode=A, navMode=3, svid_01=31, svid_02=34, svid_03=36, svid_04=9, svid_05=24, svid_06=5, svid_07=, svid_08=, svid_09=, svid_10=, svid_11=, svid_12=, PDOP=1.13, HDOP=0.58, VDOP=0.98, systemId=3)>000: 2447 4e47 5341 2c41 2c33 2c33 312c 3334  | b'$GNGSA,A,3,31,34' |
016: 2c33 362c 3039 2c32 342c 3035 2c2c 2c2c  | b',36,09,24,05,,,,' |
032: 2c2c 2c31 2e31 332c 302e 3538 2c30 2e39  | b',,,1.13,0.58,0.9' |
048: 382c 332a 3036 0d0a                      | b'8,3*06\r\n' |
<NMEA(GNGSA, opMode=A, navMode=3, svid_01=37, svid_02=19, svid_03=20, svid_04=, svid_05=, svid_06=, svid_07=, svid_08=, svid_09=, svid_10=, svid_11=, svid_12=, PDOP=1.13, HDOP=0.58, VDOP=0.98, systemId=4)>000: 2447 4e47 5341 2c41 2c33 2c33 372c 3139  | b'$GNGSA,A,3,37,19' |
016: 2c32 302c 2c2c 2c2c 2c2c 2c2c 2c31 2e31  | b',20,,,,,,,,,,1.1' |
032: 332c 302e 3538 2c30 2e39 382c 342a 3035  | b'3,0.58,0.98,4*05' |
048: 0d0a                                     | b'\r\n' |
<NMEA(GPGSV, numMsg=4, msgNum=1, numSV=13, svid_01=2, elv_01=18.0, az_01=314, cno_01=15, svid_02=10, elv_02=83.0, az_02=201, cno_02=39, svid_03=12, elv_03=31.0, az_03=91, cno_03=32, svid_04=15, elv_04=1.0, az_04=94, cno_04=8, signalID=1)>000: 2447 5047 5356 2c34 2c31 2c31 332c 3032  | b'$GPGSV,4,1,13,02' |
016: 2c31 382c 3331 342c 3135 2c31 302c 3833  | b',18,314,15,10,83' |
032: 2c32 3031 2c33 392c 3132 2c33 312c 3039  | b',201,39,12,31,09' |
048: 312c 3332 2c31 352c 3031 2c30 3934 2c30  | b'1,32,15,01,094,0' |
064: 382c 312a 3631 0d0a                      | b'8,1*61\r\n' |
<NMEA(GPGSV, numMsg=4, msgNum=2, numSV=13, svid_01=21, elv_01=22.0, az_01=305, cno_01=27, svid_02=23, elv_02=45.0, az_02=145, cno_02=32, svid_03=24, elv_03=27.0, az_03=52, cno_03=13, svid_04=25, elv_04=27.0, az_04=139, cno_04=25, signalID=1)>000: 2447 5047 5356 2c34 2c32 2c31 332c 3231  | b'$GPGSV,4,2,13,21' |
016: 2c32 322c 3330 352c 3237 2c32 332c 3435  | b',22,305,27,23,45' |
032: 2c31 3435 2c33 322c 3234 2c32 372c 3035  | b',145,32,24,27,05' |
048: 322c 3133 2c32 352c 3237 2c31 3339 2c32  | b'2,13,25,27,139,2' |
064: 352c 312a 3639 0d0a                      | b'5,1*69\r\n' |
<NMEA(GPGSV, numMsg=4, msgNum=3, numSV=13, svid_01=28, elv_01=30.0, az_01=221, cno_01=29, svid_02=31, elv_02=1.0, az_02=222, cno_02=15, svid_03=32, elv_03=55.0, az_03=293, cno_03=38, svid_04=44, elv_04=23.0, az_04=235, cno_04=27, signalID=1)>000: 2447 5047 5356 2c34 2c33 2c31 332c 3238  | b'$GPGSV,4,3,13,28' |
016: 2c33 302c 3232 312c 3239 2c33 312c 3031  | b',30,221,29,31,01' |
032: 2c32 3232 2c31 352c 3332 2c35 352c 3239  | b',222,15,32,55,29' |
048: 332c 3338 2c34 342c 3233 2c32 3335 2c32  | b'3,38,44,23,235,2' |
064: 372c 312a 3635 0d0a                      | b'7,1*65\r\n' |
<NMEA(GPGSV, numMsg=4, msgNum=4, numSV=13, svid_01=46, elv_01=15.0, az_01=246, cno_01=28, signalID=1)>000: 2447 5047 5356 2c34 2c34 2c31 332c 3436  | b'$GPGSV,4,4,13,46' |
016: 2c31 352c 3234 362c 3238 2c31 2a35 410d  | b',15,246,28,1*5A\r' |
032: 0a                                       | b'\n' |
<NMEA(GPGSV, numMsg=1, msgNum=1, numSV=3, svid_01=10, elv_01=83.0, az_01=201, cno_01=18, svid_02=12, elv_02=31.0, az_02=91, cno_02=15, svid_03=32, elv_03=55.0, az_03=293, cno_03=16, signalID=6)>000: 2447 5047 5356 2c31 2c31 2c30 332c 3130  | b'$GPGSV,1,1,03,10' |
016: 2c38 332c 3230 312c 3138 2c31 322c 3331  | b',83,201,18,12,31' |
032: 2c30 3931 2c31 352c 3332 2c35 352c 3239  | b',091,15,32,55,29' |
048: 332c 3136 2c36 2a35 330d 0a              | b'3,16,6*53\r\n' |
<NMEA(GLGSV, numMsg=2, msgNum=1, numSV=8, svid_01=70, elv_01=46.0, az_01=85, cno_01=24, svid_02=71, elv_02=61.0, az_02=344, cno_02=36, svid_03=72, elv_03=20.0, az_03=304, cno_03=28, svid_04=73, elv_04=54.0, az_04=145, cno_04=34, signalID=1)>000: 2447 4c47 5356 2c32 2c31 2c30 382c 3730  | b'$GLGSV,2,1,08,70' |
016: 2c34 362c 3038 352c 3234 2c37 312c 3631  | b',46,085,24,71,61' |
032: 2c33 3434 2c33 362c 3732 2c32 302c 3330  | b',344,36,72,20,30' |
048: 342c 3238 2c37 332c 3534 2c31 3435 2c33  | b'4,28,73,54,145,3' |
064: 342c 312a 3732 0d0a                      | b'4,1*72\r\n' |
<NMEA(GLGSV, numMsg=2, msgNum=2, numSV=8, svid_01=74, elv_01=17.0, az_01=181, cno_01=7, svid_02=80, elv_02=44.0, az_02=48, cno_02=34, svid_03=86, elv_03=17.0, az_03=248, cno_03=31, svid_04=87, elv_04=23.0, az_04=304, cno_04=25, signalID=1)>000: 2447 4c47 5356 2c32 2c32 2c30 382c 3734  | b'$GLGSV,2,2,08,74' |
016: 2c31 372c 3138 312c 3037 2c38 302c 3434  | b',17,181,07,80,44' |
032: 2c30 3438 2c33 342c 3836 2c31 372c 3234  | b',048,34,86,17,24' |
048: 382c 3331 2c38 372c 3233 2c33 3034 2c32  | b'8,31,87,23,304,2' |
064: 352c 312a 3733 0d0a                      | b'5,1*73\r\n' |
<NMEA(GLGSV, numMsg=1, msgNum=1, numSV=2, svid_01=79, elv_01=0.0, az_01=21, cno_01=, svid_02=88, elv_02=4.0, az_02=351, cno_02=, signalID=0)>000: 2447 4c47 5356 2c31 2c31 2c30 322c 3739  | b'$GLGSV,1,1,02,79' |
016: 2c30 302c 3032 312c 2c38 382c 3034 2c33  | b',00,021,,88,04,3' |
032: 3531 2c2c 302a 3735 0d0a                 | b'51,,0*75\r\n' |
<NMEA(GAGSV, numMsg=1, msgNum=1, numSV=1, svid_01=9, elv_01=54.0, az_01=68, cno_01=16, signalID=2)>000: 2447 4147 5356 2c31 2c31 2c30 312c 3039  | b'$GAGSV,1,1,01,09' |
016: 2c35 342c 3036 382c 3136 2c32 2a34 360d  | b',54,068,16,2*46\r' |
032: 0a                                       | b'\n' |
<NMEA(GAGSV, numMsg=1, msgNum=1, numSV=1, svid_01=3, elv_01=12.0, az_01=276, cno_01=, signalID=0)>000: 2447 4147 5356 2c31 2c31 2c30 312c 3033  | b'$GAGSV,1,1,01,03' |
016: 2c31 322c 3237 362c 2c30 2a34 360d 0a    | b',12,276,,0*46\r\n' |
<NMEA(GBGSV, numMsg=2, msgNum=1, numSV=8, svid_01=19, elv_01=32.0, az_01=303, cno_01=26, svid_02=20, elv_02=80.0, az_02=355, cno_02=32, svid_03=23, elv_03=27.0, az_03=48, cno_03=13, svid_04=29, elv_04=4.0, az_04=245, cno_04=9, signalID=1)>000: 2447 4247 5356 2c32 2c31 2c30 382c 3139  | b'$GBGSV,2,1,08,19' |
016: 2c33 322c 3330 332c 3236 2c32 302c 3830  | b',32,303,26,20,80' |
032: 2c33 3535 2c33 322c 3233 2c32 372c 3034  | b',355,32,23,27,04' |
048: 382c 3133 2c32 392c 3034 2c32 3435 2c30  | b'8,13,29,04,245,0' |
064: 392c 312a 3737 0d0a                      | b'9,1*77\r\n' |
<NMEA(GBGSV, numMsg=2, msgNum=2, numSV=8, svid_01=31, elv_01=, az_01=, cno_01=10, svid_02=32, elv_02=36.0, az_02=110, cno_02=9, svid_03=35, elv_03=8.0, az_03=297, cno_03=15, svid_04=37, elv_04=62.0, az_04=115, cno_04=30, signalID=1)>000: 2447 4247 5356 2c32 2c32 2c30 382c 3331  | b'$GBGSV,2,2,08,31' |
016: 2c2c 2c31 302c 3332 2c33 362c 3131 302c  | b',,,10,32,36,110,' |
032: 3039 2c33 352c 3038 2c32 3937 2c31 352c  | b'09,35,08,297,15,' |
048: 3337 2c36 322c 3131 352c 3330 2c31 2a34  | b'37,62,115,30,1*4' |
064: 300d 0a                                  | b'0\r\n' |
<NMEA(GNGLL, lat=43.88250494, NS=N, lon=-72.15741348, EW=W, time=20:29:26.250000, status=A, posMode=D)>000: 2447 4e47 4c4c 2c34 3335 322e 3935 3032  | b'$GNGLL,4352.9502' |
016: 3936 342c 4e2c 3037 3230 392e 3434 3438  | b'964,N,07209.4448' |
032: 3038 382c 572c 3230 3239 3236 2e32 352c  | b'088,W,202926.25,' |
048: 412c 442a 3646 0d0a                      | b'A,D*6F\r\n' |
<NMEA(GNRMC, time=20:29:26.500000, status=A, lat=43.8825049483, NS=N, lon=-72.1574135, EW=W, spd=0.027, cog=, date=2023-09-05, mv=, mvEW=, posMode=F, navStatus=V)>000: 2447 4e52 4d43 2c32 3032 3932 362e 3530  | b'$GNRMC,202926.50' |
016: 2c41 2c34 3335 322e 3935 3032 3936 392c  | b',A,4352.9502969,' |
032: 4e2c 3037 3230 392e 3434 3438 3130 302c  | b'N,07209.4448100,' |
048: 572c 302e 3032 372c 2c30 3530 3932 332c  | b'W,0.027,,050923,' |
064: 2c2c 462c 562a 3038 0d0a                 | b',,F,V*08\r\n' |
<NMEA(GNVTG, cogt=, cogtUnit=T, cogm=, cogmUnit=M, sogn=0.027, sognUnit=N, sogk=0.051, sogkUnit=K, posMode=D)>000: 2447 4e56 5447 2c2c 542c 2c4d 2c30 2e30  | b'$GNVTG,,T,,M,0.0' |
016: 3237 2c4e 2c30 2e30 3531 2c4b 2c44 2a33  | b'27,N,0.051,K,D*3' |
032: 390d 0a                                  | b'9\r\n' |
<NMEA(GNGGA, time=20:29:26.500000, lat=43.8825049483, NS=N, lon=-72.1574135, EW=W, quality=5, numSV=12, HDOP=0.59, alt=142.154, altUnit=M, sep=-32.546, sepUnit=M, diffAge=, diffStation=0)>000: 2447 4e47 4741 2c32 3032 3932 362e 3530  | b'$GNGGA,202926.50' |
016: 2c34 3335 322e 3935 3032 3936 392c 4e2c  | b',4352.9502969,N,' |
032: 3037 3230 392e 3434 3438 3130 302c 572c  | b'07209.4448100,W,' |
048: 352c 3132 2c30 2e35 392c 3134 322e 3135  | b'5,12,0.59,142.15' |
064: 342c 4d2c 2d33 322e 3534 362c 4d2c 2c30  | b'4,M,-32.546,M,,0' |
080: 3030 302a 3736 0d0a                      | b'000*76\r\n' |
<NMEA(GNGSA, opMode=A, navMode=3, svid_01=28, svid_02=24, svid_03=32, svid_04=2, svid_05=21, svid_06=12, svid_07=10, svid_08=25, svid_09=23, svid_10=, svid_11=, svid_12=, PDOP=1.15, HDOP=0.59, VDOP=0.99, systemId=1)>000: 2447 4e47 5341 2c41 2c33 2c32 382c 3234  | b'$GNGSA,A,3,28,24' |
016: 2c33 322c 3032 2c32 312c 3132 2c31 302c  | b',32,02,21,12,10,' |
032: 3235 2c32 332c 2c2c 2c31 2e31 352c 302e  | b'25,23,,,,1.15,0.' |
048: 3539 2c30 2e39 392c 312a 3030 0d0a       | b'59,0.99,1*00\r\n' |
<NMEA(GNGSA, opMode=A, navMode=3, svid_01=71, svid_02=80, svid_03=70, svid_04=72, svid_05=74, svid_06=73, svid_07=, svid_08=, svid_09=, svid_10=, svid_11=, svid_12=, PDOP=1.15, HDOP=0.59, VDOP=0.99, systemId=2)>000: 2447 4e47 5341 2c41 2c33 2c37 312c 3830  | b'$GNGSA,A,3,71,80' |
016: 2c37 302c 3732 2c37 342c 3733 2c2c 2c2c  | b',70,72,74,73,,,,' |
032: 2c2c 2c31 2e31 352c 302e 3539 2c30 2e39  | b',,,1.15,0.59,0.9' |
048: 392c 322a 3030 0d0a                      | b'9,2*00\r\n' |
<NMEA(GNGSA, opMode=A, navMode=3, svid_01=31, svid_02=34, svid_03=36, svid_04=9, svid_05=24, svid_06=5, svid_07=, svid_08=, svid_09=, svid_10=, svid_11=, svid_12=, PDOP=1.15, HDOP=0.59, VDOP=0.99, systemId=3)>000: 2447 4e47 5341 2c41 2c33 2c33 312c 3334  | b'$GNGSA,A,3,31,34' |
016: 2c33 362c 3039 2c32 342c 3035 2c2c 2c2c  | b',36,09,24,05,,,,' |
032: 2c2c 2c31 2e31 352c 302e 3539 2c30 2e39  | b',,,1.15,0.59,0.9' |
048: 392c 332a 3030 0d0a                      | b'9,3*00\r\n' |
<NMEA(GNGSA, opMode=A, navMode=3, svid_01=37, svid_02=19, svid_03=20, svid_04=, svid_05=, svid_06=, svid_07=, svid_08=, svid_09=, svid_10=, svid_11=, svid_12=, PDOP=1.15, HDOP=0.59, VDOP=0.99, systemId=4)>000: 2447 4e47 5341 2c41 2c33 2c33 372c 3139  | b'$GNGSA,A,3,37,19' |
016: 2c32 302c 2c2c 2c2c 2c2c 2c2c 2c31 2e31  | b',20,,,,,,,,,,1.1' |
032: 352c 302e 3539 2c30 2e39 392c 342a 3033  | b'5,0.59,0.99,4*03' |
048: 0d0a                                     | b'\r\n' |
<NMEA(GPGSV, numMsg=4, msgNum=1, numSV=13, svid_01=2, elv_01=18.0, az_01=314, cno_01=11, svid_02=10, elv_02=83.0, az_02=201, cno_02=39, svid_03=12, elv_03=31.0, az_03=91, cno_03=32, svid_04=15, elv_04=1.0, az_04=94, cno_04=8, signalID=1)>000: 2447 5047 5356 2c34 2c31 2c31 332c 3032  | b'$GPGSV,4,1,13,02' |
016: 2c31 382c 3331 342c 3131 2c31 302c 3833  | b',18,314,11,10,83' |
032: 2c32 3031 2c33 392c 3132 2c33 312c 3039  | b',201,39,12,31,09' |
048: 312c 3332 2c31 352c 3031 2c30 3934 2c30  | b'1,32,15,01,094,0' |
064: 382c 312a 3635 0d0a                      | b'8,1*65\r\n' |
<NMEA(GPGSV, numMsg=4, msgNum=2, numSV=13, svid_01=21, elv_01=22.0, az_01=305, cno_01=27, svid_02=23, elv_02=45.0, az_02=145, cno_02=32, svid_03=24, elv_03=27.0, az_03=52, cno_03=13, svid_04=25, elv_04=27.0, az_04=139, cno_04=25, signalID=1)>000: 2447 5047 5356 2c34 2c32 2c31 332c 3231  | b'$GPGSV,4,2,13,21' |
016: 2c32 322c 3330 352c 3237 2c32 332c 3435  | b',22,305,27,23,45' |
032: 2c31 3435 2c33 322c 3234 2c32 372c 3035  | b',145,32,24,27,05' |
048: 322c 3133 2c32 352c 3237 2c31 3339 2c32  | b'2,13,25,27,139,2' |
064: 352c 312a 3639 0d0a                      | b'5,1*69\r\n' |
<NMEA(GPGSV, numMsg=4, msgNum=3, numSV=13, svid_01=28, elv_01=30.0, az_01=221, cno_01=29, svid_02=31, elv_02=1.0, az_02=222, cno_02=16, svid_03=32, elv_03=55.0, az_03=293, cno_03=39, svid_04=44, elv_04=23.0, az_04=235, cno_04=28, signalID=1)>000: 2447 5047 5356 2c34 2c33 2c31 332c 3238  | b'$GPGSV,4,3,13,28' |
016: 2c33 302c 3232 312c 3239 2c33 312c 3031  | b',30,221,29,31,01' |
032: 2c32 3232 2c31 362c 3332 2c35 352c 3239  | b',222,16,32,55,29' |
048: 332c 3339 2c34 342c 3233 2c32 3335 2c32  | b'3,39,44,23,235,2' |
064: 382c 312a 3638 0d0a                      | b'8,1*68\r\n' |
<NMEA(GPGSV, numMsg=4, msgNum=4, numSV=13, svid_01=46, elv_01=15.0, az_01=246, cno_01=27, signalID=1)>000: 2447 5047 5356 2c34 2c34 2c31 332c 3436  | b'$GPGSV,4,4,13,46' |
016: 2c31 352c 3234 362c 3237 2c31 2a35 350d  | b',15,246,27,1*55\r' |
032: 0a                                       | b'\n' |
<NMEA(GPGSV, numMsg=1, msgNum=1, numSV=3, svid_01=10, elv_01=83.0, az_01=201, cno_01=18, svid_02=12, elv_02=31.0, az_02=91, cno_02=15, svid_03=32, elv_03=55.0, az_03=293, cno_03=15, signalID=6)>000: 2447 5047 5356 2c31 2c31 2c30 332c 3130  | b'$GPGSV,1,1,03,10' |
016: 2c38 332c 3230 312c 3138 2c31 322c 3331  | b',83,201,18,12,31' |
032: 2c30 3931 2c31 352c 3332 2c35 352c 3239  | b',091,15,32,55,29' |
048: 332c 3135 2c36 2a35 300d 0a              | b'3,15,6*50\r\n' |
<NMEA(GLGSV, numMsg=2, msgNum=1, numSV=7, svid_01=70, elv_01=46.0, az_01=85, cno_01=24, svid_02=71, elv_02=61.0, az_02=344, cno_02=36, svid_03=72, elv_03=20.0, az_03=304, cno_03=28, svid_04=73, elv_04=54.0, az_04=145, cno_04=34, signalID=1)>000: 2447 4c47 5356 2c32 2c31 2c30 372c 3730  | b'$GLGSV,2,1,07,70' |
016: 2c34 362c 3038 352c 3234 2c37 312c 3631  | b',46,085,24,71,61' |
032: 2c33 3434 2c33 362c 3732 2c32 302c 3330  | b',344,36,72,20,30' |
048: 342c 3238 2c37 332c 3534 2c31 3435 2c33  | b'4,28,73,54,145,3' |
064: 342c 312a 3744 0d0a                      | b'4,1*7D\r\n' |
<NMEA(GLGSV, numMsg=2, msgNum=2, numSV=7, svid_01=74, elv_01=17.0, az_01=181, cno_01=10, svid_02=80, elv_02=44.0, az_02=48, cno_02=34, svid_03=86, elv_03=17.0, az_03=248, cno_03=31, signalID=1)>000: 2447 4c47 5356 2c32 2c32 2c30 372c 3734  | b'$GLGSV,2,2,07,74' |
016: 2c31 372c 3138 312c 3130 2c38 302c 3434  | b',17,181,10,80,44' |
032: 2c30 3438 2c33 342c 3836 2c31 372c 3234  | b',048,34,86,17,24' |
048: 382c 3331 2c31 2a34 340d 0a              | b'8,31,1*44\r\n' |
<NMEA(GLGSV, numMsg=1, msgNum=1, numSV=3, svid_01=79, elv_01=0.0, az_01=21, cno_01=, svid_02=87, elv_02=23.0, az_02=304, cno_02=, svid_03=88, elv_03=4.0, az_03=351, cno_03=, signalID=0)>000: 2447 4c47 5356 2c31 2c31 2c30 332c 3739  | b'$GLGSV,1,1,03,79' |
016: 2c30 302c 3032 312c 2c38 372c 3233 2c33  | b',00,021,,87,23,3' |
032: 3034 2c2c 3838 2c30 342c 3335 312c 2c30  | b'04,,88,04,351,,0' |
048: 2a34 440d 0a                             | b'*4D\r\n' |
<NMEA(GAGSV, numMsg=1, msgNum=1, numSV=1, svid_01=9, elv_01=54.0, az_01=68, cno_01=17, signalID=2)>000: 2447 4147 5356 2c31 2c31 2c30 312c 3039  | b'$GAGSV,1,1,01,09' |
016: 2c35 342c 3036 382c 3137 2c32 2a34 370d  | b',54,068,17,2*47\r' |
032: 0a                                       | b'\n' |
<NMEA(GAGSV, numMsg=2, msgNum=1, numSV=8, svid_01=4, elv_01=7.0, az_01=86, cno_01=8, svid_02=5, elv_02=61.0, az_02=298, cno_02=34, svid_03=9, elv_03=54.0, az_03=68, cno_03=30, svid_04=15, elv_04=19.0, az_04=319, cno_04=12, signalID=7)>000: 2447 4147 5356 2c32 2c31 2c30 382c 3034  | b'$GAGSV,2,1,08,04' |
016: 2c30 372c 3038 362c 3038 2c30 352c 3631  | b',07,086,08,05,61' |
032: 2c32 3938 2c33 342c 3039 2c35 342c 3036  | b',298,34,09,54,06' |
048: 382c 3330 2c31 352c 3139 2c33 3139 2c31  | b'8,30,15,19,319,1' |
064: 322c 372a 3741 0d0a                      | b'2,7*7A\r\n' |
<NMEA(GAGSV, numMsg=2, msgNum=2, numSV=8, svid_01=24, elv_01=26.0, az_01=143, cno_01=15, svid_02=31, elv_02=35.0, az_02=85, cno_02=25, svid_03=34, elv_03=37.0, az_03=264, cno_03=29, svid_04=36, elv_04=20.0, az_04=208, cno_04=16, signalID=7)>000: 2447 4147 5356 2c32 2c32 2c30 382c 3234  | b'$GAGSV,2,2,08,24' |
016: 2c32 362c 3134 332c 3135 2c33 312c 3335  | b',26,143,15,31,35' |
032: 2c30 3835 2c32 352c 3334 2c33 372c 3236  | b',085,25,34,37,26' |
048: 342c 3239 2c33 362c 3230 2c32 3038 2c31  | b'4,29,36,20,208,1' |
064: 362c 372a 3737 0d0a                      | b'6,7*77\r\n' |
<NMEA(GAGSV, numMsg=1, msgNum=1, numSV=1, svid_01=3, elv_01=12.0, az_01=276, cno_01=, signalID=0)>000: 2447 4147 5356 2c31 2c31 2c30 312c 3033  | b'$GAGSV,1,1,01,03' |
016: 2c31 322c 3237 362c 2c30 2a34 360d 0a    | b',12,276,,0*46\r\n' |
<NMEA(GBGSV, numMsg=2, msgNum=1, numSV=8, svid_01=19, elv_01=32.0, az_01=303, cno_01=26, svid_02=20, elv_02=80.0, az_02=355, cno_02=32, svid_03=23, elv_03=27.0, az_03=48, cno_03=13, svid_04=29, elv_04=4.0, az_04=245, cno_04=8, signalID=1)>000: 2447 4247 5356 2c32 2c31 2c30 382c 3139  | b'$GBGSV,2,1,08,19' |
016: 2c33 322c 3330 332c 3236 2c32 302c 3830  | b',32,303,26,20,80' |
032: 2c33 3535 2c33 322c 3233 2c32 372c 3034  | b',355,32,23,27,04' |
048: 382c 3133 2c32 392c 3034 2c32 3435 2c30  | b'8,13,29,04,245,0' |
064: 382c 312a 3736 0d0a                      | b'8,1*76\r\n' |
<NMEA(GBGSV, numMsg=2, msgNum=2, numSV=8, svid_01=31, elv_01=, az_01=, cno_01=11, svid_02=32, elv_02=36.0, az_02=110, cno_02=10, svid_03=35, elv_03=8.0, az_03=297, cno_03=15, svid_04=37, elv_04=62.0, az_04=115, cno_04=30, signalID=1)>000: 2447 4247 5356 2c32 2c32 2c30 382c 3331  | b'$GBGSV,2,2,08,31' |
016: 2c2c 2c31 312c 3332 2c33 362c 3131 302c  | b',,,11,32,36,110,' |
032: 3130 2c33 352c 3038 2c32 3937 2c31 352c  | b'10,35,08,297,15,' |
048: 3337 2c36 322c 3131 352c 3330 2c31 2a34  | b'37,62,115,30,1*4' |
064: 390d 0a                                  | b'9\r\n' |
<NMEA(GNGLL, lat=43.8825049483, NS=N, lon=-72.1574135, EW=W, time=20:29:26.500000, status=A, posMode=D)>000: 2447 4e47 4c4c 2c34 3335 322e 3935 3032  | b'$GNGLL,4352.9502' |
016: 3936 392c 4e2c 3037 3230 392e 3434 3438  | b'969,N,07209.4448' |
032: 3130 302c 572c 3230 3239 3236 2e35 302c  | b'100,W,202926.50,' |
048: 412c 442a 3631 0d0a                      | b'A,D*61\r\n' |
<NMEA(GNRMC, time=20:29:26.750000, status=A, lat=43.882504985, NS=N, lon=-72.1574135167, EW=W, spd=0.009, cog=, date=2023-09-05, mv=, mvEW=, posMode=F, navStatus=V)>000: 2447 4e52 4d43 2c32 3032 3932 362e 3735  | b'$GNRMC,202926.75' |
016: 2c41 2c34 3335 322e 3935 3032 3939 312c  | b',A,4352.9502991,' |
032: 4e2c 3037 3230 392e 3434 3438 3131 302c  | b'N,07209.4448110,' |
048: 572c 302e 3030 392c 2c30 3530 3932 332c  | b'W,0.009,,050923,' |
064: 2c2c 462c 562a 3035 0d0a                 | b',,F,V*05\r\n' |
<NMEA(GNVTG, cogt=, cogtUnit=T, cogm=, cogmUnit=M, sogn=0.009, sognUnit=N, sogk=0.017, sogkUnit=K, posMode=D)>000: 2447 4e56 5447 2c2c 542c 2c4d 2c30 2e30  | b'$GNVTG,,T,,M,0.0' |
016: 3039 2c4e 2c30 2e30 3137 2c4b 2c44 2a33  | b'09,N,0.017,K,D*3' |
032: 370d 0a                                  | b'7\r\n' |
<NMEA(GNGGA, time=20:29:26.750000, lat=43.882504985, NS=N, lon=-72.1574135167, EW=W, quality=5, numSV=12, HDOP=0.57, alt=142.122, altUnit=M, sep=-32.546, sepUnit=M, diffAge=, diffStation=0)>000: 2447 4e47 4741 2c32 3032 3932 362e 3735  | b'$GNGGA,202926.75' |
016: 2c34 3335 322e 3935 3032 3939 312c 4e2c  | b',4352.9502991,N,' |
032: 3037 3230 392e 3434 3438 3131 302c 572c  | b'07209.4448110,W,' |
048: 352c 3132 2c30 2e35 372c 3134 322e 3132  | b'5,12,0.57,142.12' |
064: 322c 4d2c 2d33 322e 3534 362c 4d2c 2c30  | b'2,M,-32.546,M,,0' |
080: 3030 302a 3738 0d0a                      | b'000*78\r\n' |
<NMEA(GNGSA, opMode=A, navMode=3, svid_01=28, svid_02=24, svid_03=32, svid_04=2, svid_05=21, svid_06=12, svid_07=10, svid_08=25, svid_09=23, svid_10=, svid_11=, svid_12=, PDOP=1.12, HDOP=0.57, VDOP=0.96, systemId=1)>000: 2447 4e47 5341 2c41 2c33 2c32 382c 3234  | b'$GNGSA,A,3,28,24' |
016: 2c33 322c 3032 2c32 312c 3132 2c31 302c  | b',32,02,21,12,10,' |
032: 3235 2c32 332c 2c2c 2c31 2e31 322c 302e  | b'25,23,,,,1.12,0.' |
048: 3537 2c30 2e39 362c 312a 3036 0d0a       | b'57,0.96,1*06\r\n' |
<NMEA(GNGSA, opMode=A, navMode=3, svid_01=71, svid_02=80, svid_03=70, svid_04=72, svid_05=74, svid_06=73, svid_07=, svid_08=, svid_09=, svid_10=, svid_11=, svid_12=, PDOP=1.12, HDOP=0.57, VDOP=0.96, systemId=2)>000: 2447 4e47 5341 2c41 2c33 2c37 312c 3830  | b'$GNGSA,A,3,71,80' |
016: 2c37 302c 3732 2c37 342c 3733 2c2c 2c2c  | b',70,72,74,73,,,,' |
032: 2c2c 2c31 2e31 322c 302e 3537 2c30 2e39  | b',,,1.12,0.57,0.9' |
048: 362c 322a 3036 0d0a                      | b'6,2*06\r\n' |
<NMEA(GNGSA, opMode=A, navMode=3, svid_01=15, svid_02=31, svid_03=34, svid_04=36, svid_05=9, svid_06=24, svid_07=5, svid_08=, svid_09=, svid_10=, svid_11=, svid_12=, PDOP=1.12, HDOP=0.57, VDOP=0.96, systemId=3)>000: 2447 4e47 5341 2c41 2c33 2c31 352c 3331  | b'$GNGSA,A,3,15,31' |
016: 2c33 342c 3336 2c30 392c 3234 2c30 352c  | b',34,36,09,24,05,' |
032: 2c2c 2c2c 2c31 2e31 322c 302e 3537 2c30  | b',,,,,1.12,0.57,0' |
048: 2e39 362c 332a 3032 0d0a                 | b'.96,3*02\r\n' |
<NMEA(GNGSA, opMode=A, navMode=3, svid_01=37, svid_02=19, svid_03=20, svid_04=, svid_05=, svid_06=, svid_07=, svid_08=, svid_09=, svid_10=, svid_11=, svid_12=, PDOP=1.12, HDOP=0.57, VDOP=0.96, systemId=4)>000: 2447 4e47 5341 2c41 2c33 2c33 372c 3139  | b'$GNGSA,A,3,37,19' |
016: 2c32 302c 2c2c 2c2c 2c2c 2c2c 2c31 2e31  | b',20,,,,,,,,,,1.1' |
032: 322c 302e 3537 2c30 2e39 362c 342a 3035  | b'2,0.57,0.96,4*05' |
048: 0d0a                                     | b'\r\n' |
<NMEA(GPGSV, numMsg=4, msgNum=1, numSV=13, svid_01=2, elv_01=18.0, az_01=314, cno_01=11, svid_02=10, elv_02=83.0, az_02=201, cno_02=39, svid_03=12, elv_03=31.0, az_03=91, cno_03=32, svid_04=15, elv_04=1.0, az_04=94, cno_04=8, signalID=1)>000: 2447 5047 5356 2c34 2c31 2c31 332c 3032  | b'$GPGSV,4,1,13,02' |
016: 2c31 382c 3331 342c 3131 2c31 302c 3833  | b',18,314,11,10,83' |
032: 2c32 3031 2c33 392c 3132 2c33 312c 3039  | b',201,39,12,31,09' |
048: 312c 3332 2c31 352c 3031 2c30 3934 2c30  | b'1,32,15,01,094,0' |
064: 382c 312a 3635 0d0a                      | b'8,1*65\r\n' |
<NMEA(GPGSV, numMsg=4, msgNum=2, numSV=13, svid_01=21, elv_01=22.0, az_01=305, cno_01=27, svid_02=23, elv_02=45.0, az_02=145, cno_02=32, svid_03=24, elv_03=27.0, az_03=52, cno_03=13, svid_04=25, elv_04=27.0, az_04=139, cno_04=25, signalID=1)>000: 2447 5047 5356 2c34 2c32 2c31 332c 3231  | b'$GPGSV,4,2,13,21' |
016: 2c32 322c 3330 352c 3237 2c32 332c 3435  | b',22,305,27,23,45' |
032: 2c31 3435 2c33 322c 3234 2c32 372c 3035  | b',145,32,24,27,05' |
048: 322c 3133 2c32 352c 3237 2c31 3339 2c32  | b'2,13,25,27,139,2' |
064: 352c 312a 3639 0d0a                      | b'5,1*69\r\n' |
<NMEA(GPGSV, numMsg=4, msgNum=3, numSV=13, svid_01=28, elv_01=30.0, az_01=221, cno_01=28, svid_02=31, elv_02=1.0, az_02=222, cno_02=16, svid_03=32, elv_03=55.0, az_03=293, cno_03=39, svid_04=44, elv_04=23.0, az_04=235, cno_04=28, signalID=1)>000: 2447 5047 5356 2c34 2c33 2c31 332c 3238  | b'$GPGSV,4,3,13,28' |
016: 2c33 302c 3232 312c 3238 2c33 312c 3031  | b',30,221,28,31,01' |
032: 2c32 3232 2c31 362c 3332 2c35 352c 3239  | b',222,16,32,55,29' |
048: 332c 3339 2c34 342c 3233 2c32 3335 2c32  | b'3,39,44,23,235,2' |
064: 382c 312a 3639 0d0a                      | b'8,1*69\r\n' |
<NMEA(GPGSV, numMsg=4, msgNum=4, numSV=13, svid_01=46, elv_01=15.0, az_01=246, cno_01=27, signalID=1)>000: 2447 5047 5356 2c34 2c34 2c31 332c 3436  | b'$GPGSV,4,4,13,46' |
016: 2c31 352c 3234 362c 3237 2c31 2a35 350d  | b',15,246,27,1*55\r' |
032: 0a                                       | b'\n' |
<NMEA(GPGSV, numMsg=1, msgNum=1, numSV=3, svid_01=10, elv_01=83.0, az_01=201, cno_01=18, svid_02=12, elv_02=31.0, az_02=91, cno_02=14, svid_03=32, elv_03=55.0, az_03=293, cno_03=15, signalID=6)>000: 2447 5047 5356 2c31 2c31 2c30 332c 3130  | b'$GPGSV,1,1,03,10' |
016: 2c38 332c 3230 312c 3138 2c31 322c 3331  | b',83,201,18,12,31' |
032: 2c30 3931 2c31 342c 3332 2c35 352c 3239  | b',091,14,32,55,29' |
048: 332c 3135 2c36 2a35 310d 0a              | b'3,15,6*51\r\n' |
<NMEA(GLGSV, numMsg=2, msgNum=1, numSV=7, svid_01=70, elv_01=46.0, az_01=85, cno_01=23, svid_02=71, elv_02=61.0, az_02=344, cno_02=36, svid_03=72, elv_03=20.0, az_03=304, cno_03=28, svid_04=73, elv_04=54.0, az_04=145, cno_04=34, signalID=1)>000: 2447 4c47 5356 2c32 2c31 2c30 372c 3730  | b'$GLGSV,2,1,07,70' |
016: 2c34 362c 3038 352c 3233 2c37 312c 3631  | b',46,085,23,71,61' |
032: 2c33 3434 2c33 362c 3732 2c32 302c 3330  | b',344,36,72,20,30' |
048: 342c 3238 2c37 332c 3534 2c31 3435 2c33  | b'4,28,73,54,145,3' |
064: 342c 312a 3741 0d0a                      | b'4,1*7A\r\n' |
<NMEA(GLGSV, numMsg=2, msgNum=2, numSV=7, svid_01=74, elv_01=17.0, az_01=181, cno_01=10, svid_02=80, elv_02=44.0, az_02=48, cno_02=34, svid_03=86, elv_03=17.0, az_03=248, cno_03=31, signalID=1)>000: 2447 4c47 5356 2c32 2c32 2c30 372c 3734  | b'$GLGSV,2,2,07,74' |
016: 2c31 372c 3138 312c 3130 2c38 302c 3434  | b',17,181,10,80,44' |
032: 2c30 3438 2c33 342c 3836 2c31 372c 3234  | b',048,34,86,17,24' |
048: 382c 3331 2c31 2a34 340d 0a              | b'8,31,1*44\r\n' |
<NMEA(GLGSV, numMsg=1, msgNum=1, numSV=3, svid_01=79, elv_01=0.0, az_01=21, cno_01=, svid_02=87, elv_02=23.0, az_02=304, cno_02=, svid_03=88, elv_03=4.0, az_03=351, cno_03=, signalID=0)>000: 2447 4c47 5356 2c31 2c31 2c30 332c 3739  | b'$GLGSV,1,1,03,79' |
016: 2c30 302c 3032 312c 2c38 372c 3233 2c33  | b',00,021,,87,23,3' |
032: 3034 2c2c 3838 2c30 342c 3335 312c 2c30  | b'04,,88,04,351,,0' |
048: 2a34 440d 0a                             | b'*4D\r\n' |
<NMEA(GAGSV, numMsg=1, msgNum=1, numSV=1, svid_01=9, elv_01=54.0, az_01=68, cno_01=16, signalID=2)>000: 2447 4147 5356 2c31 2c31 2c30 312c 3039  | b'$GAGSV,1,1,01,09' |
016: 2c35 342c 3036 382c 3136 2c32 2a34 360d  | b',54,068,16,2*46\r' |
032: 0a                                       | b'\n' |
<NMEA(GAGSV, numMsg=2, msgNum=1, numSV=8, svid_01=4, elv_01=7.0, az_01=86, cno_01=8, svid_02=5, elv_02=61.0, az_02=298, cno_02=34, svid_03=9, elv_03=54.0, az_03=68, cno_03=30, svid_04=15, elv_04=19.0, az_04=319, cno_04=13, signalID=7)>000: 2447 4147 5356 2c32 2c31 2c30 382c 3034  | b'$GAGSV,2,1,08,04' |
016: 2c30 372c 3038 362c 3038 2c30 352c 3631  | b',07,086,08,05,61' |
032: 2c32 3938 2c33 342c 3039 2c35 342c 3036  | b',298,34,09,54,06' |
048: 382c 3330 2c31 352c 3139 2c33 3139 2c31  | b'8,30,15,19,319,1' |
064: 332c 372a 3742 0d0a                      | b'3,7*7B\r\n' |
<NMEA(GAGSV, numMsg=2, msgNum=2, numSV=8, svid_01=24, elv_01=26.0, az_01=143, cno_01=16, svid_02=31, elv_02=35.0, az_02=85, cno_02=25, svid_03=34, elv_03=37.0, az_03=264, cno_03=29, svid_04=36, elv_04=20.0, az_04=208, cno_04=17, signalID=7)>000: 2447 4147 5356 2c32 2c32 2c30 382c 3234  | b'$GAGSV,2,2,08,24' |
016: 2c32 362c 3134 332c 3136 2c33 312c 3335  | b',26,143,16,31,35' |
032: 2c30 3835 2c32 352c 3334 2c33 372c 3236  | b',085,25,34,37,26' |
048: 342c 3239 2c33 362c 3230 2c32 3038 2c31  | b'4,29,36,20,208,1' |
064: 372c 372a 3735 0d0a                      | b'7,7*75\r\n' |
<NMEA(GAGSV, numMsg=1, msgNum=1, numSV=1, svid_01=3, elv_01=12.0, az_01=276, cno_01=, signalID=0)>000: 2447 4147 5356 2c31 2c31 2c30 312c 3033  | b'$GAGSV,1,1,01,03' |
016: 2c31 322c 3237 362c 2c30 2a34 360d 0a    | b',12,276,,0*46\r\n' |
<NMEA(GBGSV, numMsg=2, msgNum=1, numSV=8, svid_01=19, elv_01=32.0, az_01=303, cno_01=26, svid_02=20, elv_02=80.0, az_02=355, cno_02=32, svid_03=23, elv_03=27.0, az_03=48, cno_03=13, svid_04=29, elv_04=4.0, az_04=245, cno_04=8, signalID=1)>000: 2447 4247 5356 2c32 2c31 2c30 382c 3139  | b'$GBGSV,2,1,08,19' |
016: 2c33 322c 3330 332c 3236 2c32 302c 3830  | b',32,303,26,20,80' |
032: 2c33 3535 2c33 322c 3233 2c32 372c 3034  | b',355,32,23,27,04' |
048: 382c 3133 2c32 392c 3034 2c32 3435 2c30  | b'8,13,29,04,245,0' |
064: 382c 312a 3736 0d0a                      | b'8,1*76\r\n' |
<NMEA(GBGSV, numMsg=2, msgNum=2, numSV=8, svid_01=31, elv_01=, az_01=, cno_01=15, svid_02=32, elv_02=36.0, az_02=110, cno_02=10, svid_03=35, elv_03=8.0, az_03=297, cno_03=15, svid_04=37, elv_04=62.0, az_04=115, cno_04=30, signalID=1)>000: 2447 4247 5356 2c32 2c32 2c30 382c 3331  | b'$GBGSV,2,2,08,31' |
016: 2c2c 2c31 352c 3332 2c33 362c 3131 302c  | b',,,15,32,36,110,' |
032: 3130 2c33 352c 3038 2c32 3937 2c31 352c  | b'10,35,08,297,15,' |
048: 3337 2c36 322c 3131 352c 3330 2c31 2a34  | b'37,62,115,30,1*4' |
064: 440d 0a                                  | b'D\r\n' |
<NMEA(GNGLL, lat=43.882504985, NS=N, lon=-72.1574135167, EW=W, time=20:29:26.750000, status=A, posMode=D)>000: 2447 4e47 4c4c 2c34 3335 322e 3935 3032  | b'$GNGLL,4352.9502' |
016: 3939 312c 4e2c 3037 3230 392e 3434 3438  | b'991,N,07209.4448' |
032: 3131 302c 572c 3230 3239 3236 2e37 352c  | b'110,W,202926.75,' |
048: 412c 442a 3630 0d0a                      | b'A,D*60\r\n' |
<NMEA(GNRMC, time=20:29:27, status=A, lat=43.8825051383, NS=N, lon=-72.1574134867, EW=W, spd=0.091, cog=, date=2023-09-05, mv=, mvEW=, posMode=F, navStatus=V)>000: 2447 4e52 4d43 2c32 3032 3932 372e 3030  | b'$GNRMC,202927.00' |
016: 2c41 2c34 3335 322e 3935 3033 3038 332c  | b',A,4352.9503083,' |
032: 4e2c 3037 3230 392e 3434 3438 3039 322c  | b'N,07209.4448092,' |
048: 572c 302e 3039 312c 2c30 3530 3932 332c  | b'W,0.091,,050923,' |
064: 2c2c 462c 562a 3037 0d0a                 | b',,F,V*07\r\n' |
<NMEA(GNVTG, cogt=, cogtUnit=T, cogm=, cogmUnit=M, sogn=0.091, sognUnit=N, sogk=0.169, sogkUnit=K, posMode=D)>000: 2447 4e56 5447 2c2c 542c 2c4d 2c30 2e30  | b'$GNVTG,,T,,M,0.0' |
016: 3931 2c4e 2c30 2e31 3639 2c4b 2c44 2a33  | b'91,N,0.169,K,D*3' |
032: 450d 0a                                  | b'E\r\n' |
<NMEA(GNGGA, time=20:29:27, lat=43.8825051383, NS=N, lon=-72.1574134867, EW=W, quality=5, numSV=12, HDOP=0.61, alt=142.096, altUnit=M, sep=-32.546, sepUnit=M, diffAge=, diffStation=0)>000: 2447 4e47 4741 2c32 3032 3932 372e 3030  | b'$GNGGA,202927.00' |
016: 2c34 3335 322e 3935 3033 3038 332c 4e2c  | b',4352.9503083,N,' |
032: 3037 3230 392e 3434 3438 3039 322c 572c  | b'07209.4448092,W,' |
048: 352c 3132 2c30 2e36 312c 3134 322e 3039  | b'5,12,0.61,142.09' |
064: 362c 4d2c 2d33 322e 3534 362c 4d2c 2c30  | b'6,M,-32.546,M,,0' |
080: 3030 302a 3730 0d0a                      | b'000*70\r\n' |
<NMEA(GNGSA, opMode=A, navMode=3, svid_01=28, svid_02=24, svid_03=32, svid_04=2, svid_05=21, svid_06=12, svid_07=10, svid_08=25, svid_09=23, svid_10=, svid_11=, svid_12=, PDOP=1.17, HDOP=0.61, VDOP=1.0, systemId=1)>000: 2447 4e47 5341 2c41 2c33 2c32 382c 3234  | b'$GNGSA,A,3,28,24' |
016: 2c33 322c 3032 2c32 312c 3132 2c31 302c  | b',32,02,21,12,10,' |
032: 3235 2c32 332c 2c2c 2c31 2e31 372c 302e  | b'25,23,,,,1.17,0.' |
048: 3631 2c31 2e30 302c 312a 3038 0d0a       | b'61,1.00,1*08\r\n' |
<NMEA(GNGSA, opMode=A, navMode=3, svid_01=71, svid_02=80, svid_03=70, svid_04=72, svid_05=73, svid_06=, svid_07=, svid_08=, svid_09=, svid_10=, svid_11=, svid_12=, PDOP=1.17, HDOP=0.61, VDOP=1.0, systemId=2)>000: 2447 4e47 5341 2c41 2c33 2c37 312c 3830  | b'$GNGSA,A,3,71,80' |
016: 2c37 302c 3732 2c37 332c 2c2c 2c2c 2c2c  | b',70,72,73,,,,,,,' |
032: 2c31 2e31 372c 302e 3631 2c31 2e30 302c  | b',1.17,0.61,1.00,' |
048: 322a 3042 0d0a                           | b'2*0B\r\n' |
<NMEA(GNGSA, opMode=A, navMode=3, svid_01=15, svid_02=31, svid_03=34, svid_04=36, svid_05=9, svid_06=24, svid_07=5, svid_08=, svid_09=, svid_10=, svid_11=, svid_12=, PDOP=1.17, HDOP=0.61, VDOP=1.0, systemId=3)>000: 2447 4e47 5341 2c41 2c33 2c31 352c 3331  | b'$GNGSA,A,3,15,31' |
016: 2c33 342c 3336 2c30 392c 3234 2c30 352c  | b',34,36,09,24,05,' |
032: 2c2c 2c2c 2c31 2e31 372c 302e 3631 2c31  | b',,,,,1.17,0.61,1' |
048: 2e30 302c 332a 3043 0d0a                 | b'.00,3*0C\r\n' |
<NMEA(GNGSA, opMode=A, navMode=3, svid_01=37, svid_02=19, svid_03=20, svid_04=, svid_05=, svid_06=, svid_07=, svid_08=, svid_09=, svid_10=, svid_11=, svid_12=, PDOP=1.17, HDOP=0.61, VDOP=1.0, systemId=4)>000: 2447 4e47 5341 2c41 2c33 2c33 372c 3139  | b'$GNGSA,A,3,37,19' |
016: 2c32 302c 2c2c 2c2c 2c2c 2c2c 2c31 2e31  | b',20,,,,,,,,,,1.1' |
032: 372c 302e 3631 2c31 2e30 302c 342a 3042  | b'7,0.61,1.00,4*0B' |
048: 0d0a                                     | b'\r\n' |
<NMEA(GPGSV, numMsg=4, msgNum=1, numSV=13, svid_01=2, elv_01=18.0, az_01=314, cno_01=15, svid_02=10, elv_02=83.0, az_02=201, cno_02=39, svid_03=12, elv_03=31.0, az_03=91, cno_03=31, svid_04=15, elv_04=1.0, az_04=94, cno_04=9, signalID=1)>000: 2447 5047 5356 2c34 2c31 2c31 332c 3032  | b'$GPGSV,4,1,13,02' |
016: 2c31 382c 3331 342c 3135 2c31 302c 3833  | b',18,314,15,10,83' |
032: 2c32 3031 2c33 392c 3132 2c33 312c 3039  | b',201,39,12,31,09' |
048: 312c 3331 2c31 352c 3031 2c30 3934 2c30  | b'1,31,15,01,094,0' |
064: 392c 312a 3633 0d0a                      | b'9,1*63\r\n' |
<NMEA(GPGSV, numMsg=4, msgNum=2, numSV=13, svid_01=21, elv_01=22.0, az_01=305, cno_01=27, svid_02=23, elv_02=45.0, az_02=145, cno_02=32, svid_03=24, elv_03=27.0, az_03=52, cno_03=13, svid_04=25, elv_04=27.0, az_04=139, cno_04=26, signalID=1)>000: 2447 5047 5356 2c34 2c32 2c31 332c 3231  | b'$GPGSV,4,2,13,21' |
016: 2c32 322c 3330 352c 3237 2c32 332c 3435  | b',22,305,27,23,45' |
032: 2c31 3435 2c33 322c 3234 2c32 372c 3035  | b',145,32,24,27,05' |
048: 322c 3133 2c32 352c 3237 2c31 3339 2c32  | b'2,13,25,27,139,2' |
064: 362c 312a 3641 0d0a                      | b'6,1*6A\r\n' |
<NMEA(GPGSV, numMsg=4, msgNum=3, numSV=13, svid_01=28, elv_01=30.0, az_01=221, cno_01=28, svid_02=31, elv_02=1.0, az_02=222, cno_02=16, svid_03=32, elv_03=55.0, az_03=293, cno_03=38, svid_04=44, elv_04=23.0, az_04=235, cno_04=28, signalID=1)>000: 2447 5047 5356 2c34 2c33 2c31 332c 3238  | b'$GPGSV,4,3,13,28' |
016: 2c33 302c 3232 312c 3238 2c33 312c 3031  | b',30,221,28,31,01' |
032: 2c32 3232 2c31 362c 3332 2c35 352c 3239  | b',222,16,32,55,29' |
048: 332c 3338 2c34 342c 3233 2c32 3335 2c32  | b'3,38,44,23,235,2' |
064: 382c 312a 3638 0d0a                      | b'8,1*68\r\n' |
<NMEA(GPGSV, numMsg=4, msgNum=4, numSV=13, svid_01=46, elv_01=15.0, az_01=246, cno_01=27, signalID=1)>000: 2447 5047 5356 2c34 2c34 2c31 332c 3436  | b'$GPGSV,4,4,13,46' |
016: 2c31 352c 3234 362c 3237 2c31 2a35 350d  | b',15,246,27,1*55\r' |
032: 0a                                       | b'\n' |
<NMEA(GPGSV, numMsg=1, msgNum=1, numSV=3, svid_01=10, elv_01=83.0, az_01=201, cno_01=18, svid_02=12, elv_02=31.0, az_02=91, cno_02=13, svid_03=32, elv_03=55.0, az_03=293, cno_03=15, signalID=6)>000: 2447 5047 5356 2c31 2c31 2c30 332c 3130  | b'$GPGSV,1,1,03,10' |
016: 2c38 332c 3230 312c 3138 2c31 322c 3331  | b',83,201,18,12,31' |
032: 2c30 3931 2c31 332c 3332 2c35 352c 3239  | b',091,13,32,55,29' |
048: 332c 3135 2c36 2a35 360d 0a              | b'3,15,6*56\r\n' |
<NMEA(GLGSV, numMsg=2, msgNum=1, numSV=7, svid_01=70, elv_01=46.0, az_01=85, cno_01=24, svid_02=71, elv_02=61.0, az_02=344, cno_02=36, svid_03=72, elv_03=20.0, az_03=304, cno_03=28, svid_04=73, elv_04=54.0, az_04=145, cno_04=34, signalID=1)>000: 2447 4c47 5356 2c32 2c31 2c30 372c 3730  | b'$GLGSV,2,1,07,70' |
016: 2c34 362c 3038 352c 3234 2c37 312c 3631  | b',46,085,24,71,61' |
032: 2c33 3434 2c33 362c 3732 2c32 302c 3330  | b',344,36,72,20,30' |
048: 342c 3238 2c37 332c 3534 2c31 3435 2c33  | b'4,28,73,54,145,3' |
064: 342c 312a 3744 0d0a                      | b'4,1*7D\r\n' |
<NMEA(GLGSV, numMsg=2, msgNum=2, numSV=7, svid_01=74, elv_01=17.0, az_01=181, cno_01=7, svid_02=80, elv_02=44.0, az_02=48, cno_02=34, svid_03=86, elv_03=17.0, az_03=248, cno_03=32, signalID=1)>000: 2447 4c47 5356 2c32 2c32 2c30 372c 3734  | b'$GLGSV,2,2,07,74' |
016: 2c31 372c 3138 312c 3037 2c38 302c 3434  | b',17,181,07,80,44' |
032: 2c30 3438 2c33 342c 3836 2c31 372c 3234  | b',048,34,86,17,24' |
048: 382c 3332 2c31 2a34 310d 0a              | b'8,32,1*41\r\n' |
<NMEA(GLGSV, numMsg=1, msgNum=1, numSV=3, svid_01=79, elv_01=0.0, az_01=21, cno_01=, svid_02=87, elv_02=23.0, az_02=304, cno_02=, svid_03=88, elv_03=4.0, az_03=351, cno_03=, signalID=0)>000: 2447 4c47 5356 2c31 2c31 2c30 332c 3739  | b'$GLGSV,1,1,03,79' |
016: 2c30 302c 3032 312c 2c38 372c 3233 2c33  | b',00,021,,87,23,3' |
032: 3034 2c2c 3838 2c30 342c 3335 312c 2c30  | b'04,,88,04,351,,0' |
048: 2a34 440d 0a                             | b'*4D\r\n' |
<NMEA(GAGSV, numMsg=1, msgNum=1, numSV=1, svid_01=9, elv_01=54.0, az_01=68, cno_01=16, signalID=2)>000: 2447 4147 5356 2c31 2c31 2c30 312c 3039  | b'$GAGSV,1,1,01,09' |
016: 2c35 342c 3036 382c 3136 2c32 2a34 360d  | b',54,068,16,2*46\r' |
032: 0a                                       | b'\n' |
<NMEA(GAGSV, numMsg=2, msgNum=1, numSV=8, svid_01=4, elv_01=7.0, az_01=86, cno_01=8, svid_02=5, elv_02=61.0, az_02=298, cno_02=34, svid_03=9, elv_03=54.0, az_03=68, cno_03=30, svid_04=15, elv_04=19.0, az_04=319, cno_04=13, signalID=7)>000: 2447 4147 5356 2c32 2c31 2c30 382c 3034  | b'$GAGSV,2,1,08,04' |
016: 2c30 372c 3038 362c 3038 2c30 352c 3631  | b',07,086,08,05,61' |
032: 2c32 3938 2c33 342c 3039 2c35 342c 3036  | b',298,34,09,54,06' |
048: 382c 3330 2c31 352c 3139 2c33 3139 2c31  | b'8,30,15,19,319,1' |
064: 332c 372a 3742 0d0a                      | b'3,7*7B\r\n' |
<NMEA(GAGSV, numMsg=2, msgNum=2, numSV=8, svid_01=24, elv_01=26.0, az_01=143, cno_01=16, svid_02=31, elv_02=35.0, az_02=85, cno_02=25, svid_03=34, elv_03=37.0, az_03=264, cno_03=29, svid_04=36, elv_04=20.0, az_04=208, cno_04=17, signalID=7)>000: 2447 4147 5356 2c32 2c32 2c30 382c 3234  | b'$GAGSV,2,2,08,24' |
016: 2c32 362c 3134 332c 3136 2c33 312c 3335  | b',26,143,16,31,35' |
032: 2c30 3835 2c32 352c 3334 2c33 372c 3236  | b',085,25,34,37,26' |
048: 342c 3239 2c33 362c 3230 2c32 3038 2c31  | b'4,29,36,20,208,1' |
064: 372c 372a 3735 0d0a                      | b'7,7*75\r\n' |
<NMEA(GAGSV, numMsg=1, msgNum=1, numSV=1, svid_01=3, elv_01=12.0, az_01=276, cno_01=, signalID=0)>000: 2447 4147 5356 2c31 2c31 2c30 312c 3033  | b'$GAGSV,1,1,01,03' |
016: 2c31 322c 3237 362c 2c30 2a34 360d 0a    | b',12,276,,0*46\r\n' |
<NMEA(GBGSV, numMsg=2, msgNum=1, numSV=8, svid_01=19, elv_01=32.0, az_01=303, cno_01=26, svid_02=20, elv_02=80.0, az_02=355, cno_02=33, svid_03=23, elv_03=27.0, az_03=48, cno_03=12, svid_04=29, elv_04=4.0, az_04=245, cno_04=8, signalID=1)>000: 2447 4247 5356 2c32 2c31 2c30 382c 3139  | b'$GBGSV,2,1,08,19' |
016: 2c33 322c 3330 332c 3236 2c32 302c 3830  | b',32,303,26,20,80' |
032: 2c33 3535 2c33 332c 3233 2c32 372c 3034  | b',355,33,23,27,04' |
048: 382c 3132 2c32 392c 3034 2c32 3435 2c30  | b'8,12,29,04,245,0' |
064: 382c 312a 3736 0d0a                      | b'8,1*76\r\n' |
<NMEA(GBGSV, numMsg=2, msgNum=2, numSV=8, svid_01=31, elv_01=, az_01=, cno_01=17, svid_02=32, elv_02=36.0, az_02=110, cno_02=11, svid_03=35, elv_03=8.0, az_03=297, cno_03=15, svid_04=37, elv_04=62.0, az_04=115, cno_04=31, signalID=1)>000: 2447 4247 5356 2c32 2c32 2c30 382c 3331  | b'$GBGSV,2,2,08,31' |
016: 2c2c 2c31 372c 3332 2c33 362c 3131 302c  | b',,,17,32,36,110,' |
032: 3131 2c33 352c 3038 2c32 3937 2c31 352c  | b'11,35,08,297,15,' |
048: 3337 2c36 322c 3131 352c 3331 2c31 2a34  | b'37,62,115,31,1*4' |
064: 460d 0a                                  | b'F\r\n' |
<NMEA(GNGLL, lat=43.8825051383, NS=N, lon=-72.1574134867, EW=W, time=20:29:27, status=A, posMode=D)>000: 2447 4e47 4c4c 2c34 3335 322e 3935 3033  | b'$GNGLL,4352.9503' |
016: 3038 332c 4e2c 3037 3230 392e 3434 3438  | b'083,N,07209.4448' |
032: 3039 322c 572c 3230 3239 3237 2e30 302c  | b'092,W,202927.00,' |
048: 412c 442a 3633 0d0a                      | b'A,D*63\r\n' |
<NMEA(GNRMC, time=20:29:27.250000, status=A, lat=43.8825056033, NS=N, lon=-72.1574131633, EW=W, spd=0.052, cog=, date=2023-09-05, mv=, mvEW=, posMode=F, navStatus=V)>000: 2447 4e52 4d43 2c32 3032 3932 372e 3235  | b'$GNRMC,202927.25' |
016: 2c41 2c34 3335 322e 3935 3033 3336 322c  | b',A,4352.9503362,' |
032: 4e2c 3037 3230 392e 3434 3437 3839 382c  | b'N,07209.4447898,' |
048: 572c 302e 3035 322c 2c30 3530 3932 332c  | b'W,0.052,,050923,' |
064: 2c2c 462c 562a 3045 0d0a                 | b',,F,V*0E\r\n' |
<NMEA(GNVTG, cogt=, cogtUnit=T, cogm=, cogmUnit=M, sogn=0.052, sognUnit=N, sogk=0.095, sogkUnit=K, posMode=D)>000: 2447 4e56 5447 2c2c 542c 2c4d 2c30 2e30  | b'$GNVTG,,T,,M,0.0' |
016: 3532 2c4e 2c30 2e30 3935 2c4b 2c44 2a33  | b'52,N,0.095,K,D*3' |
032: 330d 0a                                  | b'3\r\n' |
<NMEA(GNGGA, time=20:29:27.250000, lat=43.8825056033, NS=N, lon=-72.1574131633, EW=W, quality=5, numSV=12, HDOP=0.61, alt=142.17, altUnit=M, sep=-32.546, sepUnit=M, diffAge=, diffStation=0)>000: 2447 4e47 4741 2c32 3032 3932 372e 3235  | b'$GNGGA,202927.25' |
016: 2c34 3335 322e 3935 3033 3336 322c 4e2c  | b',4352.9503362,N,' |
032: 3037 3230 392e 3434 3437 3839 382c 572c  | b'07209.4447898,W,' |
048: 352c 3132 2c30 2e36 312c 3134 322e 3137  | b'5,12,0.61,142.17' |
064: 302c 4d2c 2d33 322e 3534 362c 4d2c 2c30  | b'0,M,-32.546,M,,0' |
080: 3030 302a 3746 0d0a                      | b'000*7F\r\n' |
<NMEA(GNGSA, opMode=A, navMode=3, svid_01=28, svid_02=24, svid_03=32, svid_04=2, svid_05=21, svid_06=12, svid_07=10, svid_08=25, svid_09=23, svid_10=, svid_11=, svid_12=, PDOP=1.17, HDOP=0.61, VDOP=1.0, systemId=1)>000: 2447 4e47 5341 2c41 2c33 2c32 382c 3234  | b'$GNGSA,A,3,28,24' |
016: 2c33 322c 3032 2c32 312c 3132 2c31 302c  | b',32,02,21,12,10,' |
032: 3235 2c32 332c 2c2c 2c31 2e31 372c 302e  | b'25,23,,,,1.17,0.' |
048: 3631 2c31 2e30 302c 312a 3038 0d0a       | b'61,1.00,1*08\r\n' |
<NMEA(GNGSA, opMode=A, navMode=3, svid_01=71, svid_02=80, svid_03=70, svid_04=72, svid_05=73, svid_06=, svid_07=, svid_08=, svid_09=, svid_10=, svid_11=, svid_12=, PDOP=1.17, HDOP=0.61, VDOP=1.0, systemId=2)>000: 2447 4e47 5341 2c41 2c33 2c37 312c 3830  | b'$GNGSA,A,3,71,80' |
016: 2c37 302c 3732 2c37 332c 2c2c 2c2c 2c2c  | b',70,72,73,,,,,,,' |
032: 2c31 2e31 372c 302e 3631 2c31 2e30 302c  | b',1.17,0.61,1.00,' |
048: 322a 3042 0d0a                           | b'2*0B\r\n' |
<NMEA(GNGSA, opMode=A, navMode=3, svid_01=15, svid_02=31, svid_03=34, svid_04=36, svid_05=9, svid_06=24, svid_07=5, svid_08=, svid_09=, svid_10=, svid_11=, svid_12=, PDOP=1.17, HDOP=0.61, VDOP=1.0, systemId=3)>000: 2447 4e47 5341 2c41 2c33 2c31 352c 3331  | b'$GNGSA,A,3,15,31' |
016: 2c33 342c 3336 2c30 392c 3234 2c30 352c  | b',34,36,09,24,05,' |
032: 2c2c 2c2c 2c31 2e31 372c 302e 3631 2c31  | b',,,,,1.17,0.61,1' |
048: 2e30 302c 332a 3043 0d0a                 | b'.00,3*0C\r\n' |
<NMEA(GNGSA, opMode=A, navMode=3, svid_01=37, svid_02=19, svid_03=20, svid_04=, svid_05=, svid_06=, svid_07=, svid_08=, svid_09=, svid_10=, svid_11=, svid_12=, PDOP=1.17, HDOP=0.61, VDOP=1.0, systemId=4)>000: 2447 4e47 5341 2c41 2c33 2c33 372c 3139  | b'$GNGSA,A,3,37,19' |
016: 2c32 302c 2c2c 2c2c 2c2c 2c2c 2c31 2e31  | b',20,,,,,,,,,,1.1' |
032: 372c 302e 3631 2c31 2e30 302c 342a 3042  | b'7,0.61,1.00,4*0B' |
048: 0d0a                                     | b'\r\n' |
<NMEA(GPGSV, numMsg=4, msgNum=1, numSV=13, svid_01=2, elv_01=18.0, az_01=314, cno_01=15, svid_02=10, elv_02=83.0, az_02=201, cno_02=39, svid_03=12, elv_03=31.0, az_03=91, cno_03=31, svid_04=15, elv_04=1.0, az_04=94, cno_04=9, signalID=1)>000: 2447 5047 5356 2c34 2c31 2c31 332c 3032  | b'$GPGSV,4,1,13,02' |
016: 2c31 382c 3331 342c 3135 2c31 302c 3833  | b',18,314,15,10,83' |
032: 2c32 3031 2c33 392c 3132 2c33 312c 3039  | b',201,39,12,31,09' |
048: 312c 3331 2c31 352c 3031 2c30 3934 2c30  | b'1,31,15,01,094,0' |
064: 392c 312a 3633 0d0a                      | b'9,1*63\r\n' |
<NMEA(GPGSV, numMsg=4, msgNum=2, numSV=13, svid_01=21, elv_01=22.0, az_01=305, cno_01=27, svid_02=23, elv_02=45.0, az_02=145, cno_02=32, svid_03=24, elv_03=27.0, az_03=52, cno_03=13, svid_04=25, elv_04=27.0, az_04=139, cno_04=26, signalID=1)>000: 2447 5047 5356 2c34 2c32 2c31 332c 3231  | b'$GPGSV,4,2,13,21' |
016: 2c32 322c 3330 352c 3237 2c32 332c 3435  | b',22,305,27,23,45' |
032: 2c31 3435 2c33 322c 3234 2c32 372c 3035  | b',145,32,24,27,05' |
048: 322c 3133 2c32 352c 3237 2c31 3339 2c32  | b'2,13,25,27,139,2' |
064: 362c 312a 3641 0d0a                      | b'6,1*6A\r\n' |
<NMEA(GPGSV, numMsg=1, msgNum=1, numSV=3, svid_01=10, elv_01=83.0, az_01=201, cno_01=18, svid_02=12, elv_02=31.0, az_02=91, cno_02=14, svid_03=32, elv_03=55.0, az_03=293, cno_03=15, signalID=6)>000: 2447 5047 5356 2c31 2c31 2c30 332c 3130  | b'$GPGSV,1,1,03,10' |
016: 2c38 332c 3230 312c 3138 2c31 322c 3331  | b',83,201,18,12,31' |
032: 2c30 3931 2c31 342c 3332 2c35 352c 3239  | b',091,14,32,55,29' |
048: 332c 3135 2c36 2a35 310d 0a              | b'3,15,6*51\r\n' |
<NMEA(GLGSV, numMsg=2, msgNum=1, numSV=7, svid_01=70, elv_01=46.0, az_01=85, cno_01=24, svid_02=71, elv_02=61.0, az_02=344, cno_02=36, svid_03=72, elv_03=20.0, az_03=304, cno_03=28, svid_04=73, elv_04=54.0, az_04=145, cno_04=33, signalID=1)>000: 2447 4c47 5356 2c32 2c31 2c30 372c 3730  | b'$GLGSV,2,1,07,70' |
016: 2c34 362c 3038 352c 3234 2c37 312c 3631  | b',46,085,24,71,61' |
032: 2c33 3434 2c33 362c 3732 2c32 302c 3330  | b',344,36,72,20,30' |
048: 342c 3238 2c37 332c 3534 2c31 3435 2c33  | b'4,28,73,54,145,3' |
064: 332c 312a 3741 0d0a                      | b'3,1*7A\r\n' |
<NMEA(GLGSV, numMsg=2, msgNum=2, numSV=7, svid_01=74, elv_01=17.0, az_01=181, cno_01=7, svid_02=80, elv_02=44.0, az_02=48, cno_02=34, svid_03=86, elv_03=17.0, az_03=248, cno_03=32, signalID=1)>000: 2447 4c47 5356 2c32 2c32 2c30 372c 3734  | b'$GLGSV,2,2,07,74' |
016: 2c31 372c 3138 312c 3037 2c38 302c 3434  | b',17,181,07,80,44' |
032: 2c30 3438 2c33 342c 3836 2c31 372c 3234  | b',048,34,86,17,24' |
048: 382c 3332 2c31 2a34 310d 0a              | b'8,32,1*41\r\n' |
<NMEA(GLGSV, numMsg=1, msgNum=1, numSV=1, svid_01=70, elv_01=46.0, az_01=85, cno_01=27, signalID=3)>000: 2447 4c47 5356 2c31 2c31 2c30 312c 3730  | b'$GLGSV,1,1,01,70' |
016: 2c34 362c 3038 352c 3237 2c33 2a34 360d  | b',46,085,27,3*46\r' |
032: 0a                                       | b'\n' |
<NMEA(GLGSV, numMsg=1, msgNum=1, numSV=3, svid_01=79, elv_01=0.0, az_01=21, cno_01=, svid_02=87, elv_02=23.0, az_02=304, cno_02=, svid_03=88, elv_03=4.0, az_03=351, cno_03=, signalID=0)>000: 2447 4c47 5356 2c31 2c31 2c30 332c 3739  | b'$GLGSV,1,1,03,79' |
016: 2c30 302c 3032 312c 2c38 372c 3233 2c33  | b',00,021,,87,23,3' |
032: 3034 2c2c 3838 2c30 342c 3335 312c 2c30  | b'04,,88,04,351,,0' |
048: 2a34 440d 0a                             | b'*4D\r\n' |
<NMEA(GAGSV, numMsg=1, msgNum=1, numSV=1, svid_01=9, elv_01=54.0, az_01=68, cno_01=16, signalID=2)>000: 2447 4147 5356 2c31 2c31 2c30 312c 3039  | b'$GAGSV,1,1,01,09' |
016: 2c35 342c 3036 382c 3136 2c32 2a34 360d  | b',54,068,16,2*46\r' |
032: 0a                                       | b'\n' |
<NMEA(GAGSV, numMsg=2, msgNum=1, numSV=8, svid_01=4, elv_01=7.0, az_01=86, cno_01=7, svid_02=5, elv_02=61.0, az_02=298, cno_02=34, svid_03=9, elv_03=54.0, az_03=68, cno_03=29, svid_04=15, elv_04=19.0, az_04=319, cno_04=11, signalID=7)>000: 2447 4147 5356 2c32 2c31 2c30 382c 3034  | b'$GAGSV,2,1,08,04' |
016: 2c30 372c 3038 362c 3037 2c30 352c 3631  | b',07,086,07,05,61' |
032: 2c32 3938 2c33 342c 3039 2c35 342c 3036  | b',298,34,09,54,06' |
048: 382c 3239 2c31 352c 3139 2c33 3139 2c31  | b'8,29,15,19,319,1' |
064: 312c 372a 3745 0d0a                      | b'1,7*7E\r\n' |
<NMEA(GAGSV, numMsg=2, msgNum=2, numSV=8, svid_01=24, elv_01=26.0, az_01=143, cno_01=15, svid_02=31, elv_02=35.0, az_02=85, cno_02=24, svid_03=34, elv_03=37.0, az_03=264, cno_03=28, svid_04=36, elv_04=20.0, az_04=208, cno_04=17, signalID=7)>000: 2447 4147 5356 2c32 2c32 2c30 382c 3234  | b'$GAGSV,2,2,08,24' |
016: 2c32 362c 3134 332c 3135 2c33 312c 3335  | b',26,143,15,31,35' |
032: 2c30 3835 2c32 342c 3334 2c33 372c 3236  | b',085,24,34,37,26' |
048: 342c 3238 2c33 362c 3230 2c32 3038 2c31  | b'4,28,36,20,208,1' |
064: 372c 372a 3736 0d0a                      | b'7,7*76\r\n' |
<NMEA(GAGSV, numMsg=1, msgNum=1, numSV=1, svid_01=3, elv_01=12.0, az_01=276, cno_01=, signalID=0)>000: 2447 4147 5356 2c31 2c31 2c30 312c 3033  | b'$GAGSV,1,1,01,03' |
016: 2c31 322c 3237 362c 2c30 2a34 360d 0a    | b',12,276,,0*46\r\n' |
<NMEA(GBGSV, numMsg=2, msgNum=1, numSV=8, svid_01=19, elv_01=32.0, az_01=303, cno_01=26, svid_02=20, elv_02=80.0, az_02=355, cno_02=33, svid_03=23, elv_03=27.0, az_03=48, cno_03=12, svid_04=29, elv_04=4.0, az_04=245, cno_04=9, signalID=1)>000: 2447 4247 5356 2c32 2c31 2c30 382c 3139  | b'$GBGSV,2,1,08,19' |
016: 2c33 322c 3330 332c 3236 2c32 302c 3830  | b',32,303,26,20,80' |
032: 2c33 3535 2c33 332c 3233 2c32 372c 3034  | b',355,33,23,27,04' |
048: 382c 3132 2c32 392c 3034 2c32 3435 2c30  | b'8,12,29,04,245,0' |
064: 392c 312a 3737 0d0a                      | b'9,1*77\r\n' |
<NMEA(GBGSV, numMsg=2, msgNum=2, numSV=8, svid_01=31, elv_01=, az_01=, cno_01=20, svid_02=32, elv_02=36.0, az_02=110, cno_02=12, svid_03=35, elv_03=8.0, az_03=297, cno_03=15, svid_04=37, elv_04=62.0, az_04=115, cno_04=31, signalID=1)>000: 2447 4247 5356 2c32 2c32 2c30 382c 3331  | b'$GBGSV,2,2,08,31' |
016: 2c2c 2c32 302c 3332 2c33 362c 3131 302c  | b',,,20,32,36,110,' |
032: 3132 2c33 352c 3038 2c32 3937 2c31 352c  | b'12,35,08,297,15,' |
048: 3337 2c36 322c 3131 352c 3331 2c31 2a34  | b'37,62,115,31,1*4' |
064: 380d 0a                                  | b'8\r\n' |
<NMEA(GNGLL, lat=43.8825056033, NS=N, lon=-72.1574131633, EW=W, time=20:29:27.250000, status=A, posMode=D)>000: 2447 4e47 4c4c 2c34 3335 322e 3935 3033  | b'$GNGLL,4352.9503' |
016: 3336 322c 4e2c 3037 3230 392e 3434 3437  | b'362,N,07209.4447' |
032: 3839 382c 572c 3230 3239 3237 2e32 352c  | b'898,W,202927.25,' |
048: 412c 442a 3635 0d0a                      | b'A,D*65\r\n' |
<NMEA(GNRMC, time=20:29:27.500000, status=A, lat=43.8825061633, NS=N, lon=-72.1574128683, EW=W, spd=0.084, cog=, date=2023-09-05, mv=, mvEW=, posMode=F, navStatus=V)>000: 2447 4e52 4d43 2c32 3032 3932 372e 3530  | b'$GNRMC,202927.50' |
016: 2c41 2c34 3335 322e 3935 3033 3639 382c  | b',A,4352.9503698,' |
032: 4e2c 3037 3230 392e 3434 3437 3732 312c  | b'N,07209.4447721,' |
048: 572c 302e 3038 342c 2c30 3530 3932 332c  | b'W,0.084,,050923,' |
064: 2c2c 462c 562a 3041 0d0a                 | b',,F,V*0A\r\n' |
<NMEA(GNVTG, cogt=, cogtUnit=T, cogm=, cogmUnit=M, sogn=0.084, sognUnit=N, sogk=0.156, sogkUnit=K, posMode=D)>000: 2447 4e56 5447 2c2c 542c 2c4d 2c30 2e30  | b'$GNVTG,,T,,M,0.0' |
016: 3834 2c4e 2c30 2e31 3536 2c4b 2c44 2a33  | b'84,N,0.156,K,D*3' |
032: 360d 0a                                  | b'6\r\n' |
<NMEA(GNGGA, time=20:29:27.500000, lat=43.8825061633, NS=N, lon=-72.1574128683, EW=W, quality=5, numSV=12, HDOP=0.57, alt=142.234, altUnit=M, sep=-32.546, sepUnit=M, diffAge=, diffStation=0)>000: 2447 4e47 4741 2c32 3032 3932 372e 3530  | b'$GNGGA,202927.50' |
016: 2c34 3335 322e 3935 3033 3639 382c 4e2c  | b',4352.9503698,N,' |
032: 3037 3230 392e 3434 3437 3732 312c 572c  | b'07209.4447721,W,' |
048: 352c 3132 2c30 2e35 372c 3134 322e 3233  | b'5,12,0.57,142.23' |
064: 342c 4d2c 2d33 322e 3534 362c 4d2c 2c30  | b'4,M,-32.546,M,,0' |
080: 3030 302a 3736 0d0a                      | b'000*76\r\n' |
