<NMEA(GNVTG, cogt=, cogtUnit=T, cogm=, cogmUnit=M, sogn=0.507, sognUnit=N, sogk=0.94, sogkUnit=K, posMode=A)>000: 2447 4e56 5447 2c2c 542c 2c4d 2c30 2e35  | b'$GNVTG,,T,,M,0.5' |
016: 3037 2c4e 2c30 2e39 3430 2c4b 2c41 2a33  | b'07,N,0.940,K,A*3' |
032: 320d 0a                                  | b'2\r\n' |
<NMEA(GNGGA, time=20:26:28.750000, lat=43.882654255, NS=N, lon=-72.157869535, EW=W, quality=1, numSV=12, HDOP=0.58, alt=137.998, altUnit=M, sep=-32.547, sepUnit=M, diffAge=, diffStation=)>000: 2447 4e47 4741 2c32 3032 3632 382e 3735  | b'$GNGGA,202628.75' |
016: 2c34 3335 322e 3935 3932 3535 332c 4e2c  | b',4352.9592553,N,' |
032: 3037 3230 392e 3437 3231 3732 312c 572c  | b'07209.4721721,W,' |
048: 312c 3132 2c30 2e35 382c 3133 372e 3939  | b'1,12,0.58,137.99' |
064: 382c 4d2c 2d33 322e 3534 372c 4d2c 2c2a  | b'8,M,-32.547,M,,*' |
080: 3742 0d0a                                | b'7B\r\n' |
<NMEA(GNGSA, opMode=A, navMode=3, svid_01=25, svid_02=2, svid_03=21, svid_04=28, svid_05=12, svid_06=10, svid_07=24, svid_08=23, svid_09=32, svid_10=, svid_11=, svid_12=, PDOP=1.12, HDOP=0.58, VDOP=0.96, systemId=1)>000: 2447 4e47 5341 2c41 2c33 2c32 352c 3032  | b'$GNGSA,A,3,25,02' |
016: 2c32 312c 3238 2c31 322c 3130 2c32 342c  | b',21,28,12,10,24,' |
032: 3233 2c33 322c 2c2c 2c31 2e31 322c 302e  | b'23,32,,,,1.12,0.' |
048: 3538 2c30 2e39 362c 312a 3039 0d0a       | b'58,0.96,1*09\r\n' |
<NMEA(GNGSA, opMode=A, navMode=3, svid_01=87, svid_02=73, svid_03=71, svid_04=80, svid_05=70, svid_06=72, svid_07=74, svid_08=, svid_09=, svid_10=, svid_11=, svid_12=, PDOP=1.12, HDOP=0.58, VDOP=0.96, systemId=2)>000: 2447 4e47 5341 2c41 2c33 2c38 372c 3733  | b'$GNGSA,A,3,87,73' |
016: 2c37 312c 3830 2c37 302c 3732 2c37 342c  | b',71,80,70,72,74,' |
032: 2c2c 2c2c 2c31 2e31 322c 302e 3538 2c30  | b',,,,,1.12,0.58,0' |
048: 2e39 362c 322a 3036 0d0a                 | b'.96,2*06\r\n' |
<NMEA(GNGSA, opMode=A, navMode=3, svid_01=15, svid_02=31, svid_03=36, svid_04=34, svid_05=3, svid_06=9, svid_07=24, svid_08=5, svid_09=, svid_10=, svid_11=, svid_12=, PDOP=1.12, HDOP=0.58, VDOP=0.96, systemId=3)>000: 2447 4e47 5341 2c41 2c33 2c31 352c 3331  | b'$GNGSA,A,3,15,31' |
016: 2c33 362c 3334 2c30 332c 3039 2c32 342c  | b',36,34,03,09,24,' |
032: 3035 2c2c 2c2c 2c31 2e31 322c 302e 3538  | b'05,,,,,1.12,0.58' |
048: 2c30 2e39 362c 332a 3045 0d0a            | b',0.96,3*0E\r\n' |
<NMEA(GNGSA, opMode=A, navMode=3, svid_01=37, svid_02=32, svid_03=19, svid_04=20, svid_05=, svid_06=, svid_07=, svid_08=, svid_09=, svid_10=, svid_11=, svid_12=, PDOP=1.12, HDOP=0.58, VDOP=0.96, systemId=4)>000: 2447 4e47 5341 2c41 2c33 2c33 372c 3332  | b'$GNGSA,A,3,37,32' |
016: 2c31 392c 3230 2c2c 2c2c 2c2c 2c2c 2c31  | b',19,20,,,,,,,,,1' |
032: 2e31 322c 302e 3538 2c30 2e39 362c 342a  | b'.12,0.58,0.96,4*' |
048: 3042 0d0a                                | b'0B\r\n' |
<NMEA(GPGSV, numMsg=3, msgNum=1, numSV=11, svid_01=2, elv_01=18.0, az_01=314, cno_01=19, svid_02=10, elv_02=84.0, az_02=208, cno_02=37, svid_03=12, elv_03=30.0, az_03=92, cno_03=25, svid_04=15, elv_04=2.0, az_04=93, cno_04=11, signalID=1)>000: 2447 5047 5356 2c33 2c31 2c31 312c 3032  | b'$GPGSV,3,1,11,02' |
016: 2c31 382c 3331 342c 3139 2c31 302c 3834  | b',18,314,19,10,84' |
032: 2c32 3038 2c33 372c 3132 2c33 302c 3039  | b',208,37,12,30,09' |
048: 322c 3235 2c31 352c 3032 2c30 3933 2c31  | b'2,25,15,02,093,1' |
064: 312c 312a 3630 0d0a                      | b'1,1*60\r\n' |
<NMEA(GPGSV, numMsg=3, msgNum=2, numSV=11, svid_01=18, elv_01=0.0, az_01=182, cno_01=14, svid_02=21, elv_02=22.0, az_02=306, cno_02=20, svid_03=23, elv_03=46.0, az_03=144, cno_03=27, svid_04=24, elv_04=28.0, az_04=52, cno_04=17, signalID=1)>000: 2447 5047 5356 2c33 2c32 2c31 312c 3138  | b'$GPGSV,3,2,11,18' |
016: 2c30 302c 3138 322c 3134 2c32 312c 3232  | b',00,182,14,21,22' |
032: 2c33 3036 2c32 302c 3233 2c34 362c 3134  | b',306,20,23,46,14' |
048: 342c 3237 2c32 342c 3238 2c30 3532 2c31  | b'4,27,24,28,052,1' |
064: 372c 312a 3643 0d0a                      | b'7,1*6C\r\n' |
<NMEA(GPGSV, numMsg=3, msgNum=3, numSV=11, svid_01=25, elv_01=26.0, az_01=139, cno_01=18, svid_02=28, elv_02=29.0, az_02=220, cno_02=17, svid_03=32, elv_03=55.0, az_03=292, cno_03=23, signalID=1)>000: 2447 5047 5356 2c33 2c33 2c31 312c 3235  | b'$GPGSV,3,3,11,25' |
016: 2c32 362c 3133 392c 3138 2c32 382c 3239  | b',26,139,18,28,29' |
032: 2c32 3230 2c31 372c 3332 2c35 352c 3239  | b',220,17,32,55,29' |
048: 322c 3233 2c31 2a35 420d 0a              | b'2,23,1*5B\r\n' |
<NMEA(GPGSV, numMsg=1, msgNum=1, numSV=2, svid_01=10, elv_01=84.0, az_01=208, cno_01=16, svid_02=23, elv_02=46.0, az_02=144, cno_02=13, signalID=6)>000: 2447 5047 5356 2c31 2c31 2c30 322c 3130  | b'$GPGSV,1,1,02,10' |
016: 2c38 342c 3230 382c 3136 2c32 332c 3436  | b',84,208,16,23,46' |
032: 2c31 3434 2c31 332c 362a 3631 0d0a       | b',144,13,6*61\r\n' |
<NMEA(GPGSV, numMsg=1, msgNum=1, numSV=3, svid_01=31, elv_01=0.0, az_01=221, cno_01=, svid_02=44, elv_02=23.0, az_02=235, cno_02=, svid_03=46, elv_03=15.0, az_03=246, cno_03=, signalID=0)>000: 2447 5047 5356 2c31 2c31 2c30 332c 3331  | b'$GPGSV,1,1,03,31' |
016: 2c30 302c 3232 312c 2c34 342c 3233 2c32  | b',00,221,,44,23,2' |
032: 3335 2c2c 3436 2c31 352c 3234 362c 2c30  | b'35,,46,15,246,,0' |
048: 2a35 360d 0a                             | b'*56\r\n' |
<NMEA(GLGSV, numMsg=2, msgNum=1, numSV=7, svid_01=70, elv_01=47.0, az_01=83, cno_01=18, svid_02=71, elv_02=60.0, az_02=343, cno_02=33, svid_03=72, elv_03=20.0, az_03=303, cno_03=16, svid_04=73, elv_04=53.0, az_04=146, cno_04=24, signalID=1)>000: 2447 4c47 5356 2c32 2c31 2c30 372c 3730  | b'$GLGSV,2,1,07,70' |
016: 2c34 372c 3038 332c 3138 2c37 312c 3630  | b',47,083,18,71,60' |
032: 2c33 3433 2c33 332c 3732 2c32 302c 3330  | b',343,33,72,20,30' |
048: 332c 3136 2c37 332c 3533 2c31 3436 2c32  | b'3,16,73,53,146,2' |
064: 342c 312a 3739 0d0a                      | b'4,1*79\r\n' |
<NMEA(GLGSV, numMsg=2, msgNum=2, numSV=7, svid_01=74, elv_01=16.0, az_01=181, cno_01=12, svid_02=80, elv_02=44.0, az_02=50, cno_02=29, svid_03=87, elv_03=23.0, az_03=305, cno_03=21, signalID=1)>000: 2447 4c47 5356 2c32 2c32 2c30 372c 3734  | b'$GLGSV,2,2,07,74' |
016: 2c31 362c 3138 312c 3132 2c38 302c 3434  | b',16,181,12,80,44' |
032: 2c30 3530 2c32 392c 3837 2c32 332c 3330  | b',050,29,87,23,30' |
048: 352c 3231 2c31 2a34 440d 0a              | b'5,21,1*4D\r\n' |
<NMEA(GLGSV, numMsg=1, msgNum=1, numSV=3, svid_01=79, elv_01=1.0, az_01=21, cno_01=, svid_02=86, elv_02=18.0, az_02=248, cno_02=, svid_03=88, elv_03=4.0, az_03=352, cno_03=, signalID=0)>000: 2447 4c47 5356 2c31 2c31 2c30 332c 3739  | b'$GLGSV,1,1,03,79' |
016: 2c30 312c 3032 312c 2c38 362c 3138 2c32  | b',01,021,,86,18,2' |
032: 3438 2c2c 3838 2c30 342c 3335 322c 2c30  | b'48,,88,04,352,,0' |
048: 2a34 460d 0a                             | b'*4F\r\n' |
<NMEA(GAGSV, numMsg=2, msgNum=1, numSV=8, svid_01=3, elv_01=11.0, az_01=275, cno_01=11, svid_02=5, elv_02=60.0, az_02=296, cno_02=22, svid_03=9, elv_03=55.0, az_03=67, cno_03=30, svid_04=15, elv_04=18.0, az_04=320, cno_04=18, signalID=7)>000: 2447 4147 5356 2c32 2c31 2c30 382c 3033  | b'$GAGSV,2,1,08,03' |
016: 2c31 312c 3237 352c 3131 2c30 352c 3630  | b',11,275,11,05,60' |
032: 2c32 3936 2c32 322c 3039 2c35 352c 3036  | b',296,22,09,55,06' |
048: 372c 3330 2c31 352c 3138 2c33 3230 2c31  | b'7,30,15,18,320,1' |
064: 382c 372a 3742 0d0a                      | b'8,7*7B\r\n' |
<NMEA(GAGSV, numMsg=2, msgNum=2, numSV=8, svid_01=24, elv_01=25.0, az_01=144, cno_01=20, svid_02=31, elv_02=35.0, az_02=86, cno_02=24, svid_03=34, elv_03=38.0, az_03=266, cno_03=20, svid_04=36, elv_04=21.0, az_04=208, cno_04=21, signalID=7)>000: 2447 4147 5356 2c32 2c32 2c30 382c 3234  | b'$GAGSV,2,2,08,24' |
016: 2c32 352c 3134 342c 3230 2c33 312c 3335  | b',25,144,20,31,35' |
032: 2c30 3836 2c32 342c 3334 2c33 382c 3236  | b',086,24,34,38,26' |
048: 362c 3230 2c33 362c 3231 2c32 3038 2c32  | b'6,20,36,21,208,2' |
064: 312c 372a 3736 0d0a                      | b'1,7*76\r\n' |
<NMEA(GAGSV, numMsg=1, msgNum=1, numSV=1, svid_01=4, elv_01=8.0, az_01=85, cno_01=, signalID=0)>000: 2447 4147 5356 2c31 2c31 2c30 312c 3034  | b'$GAGSV,1,1,01,04' |
016: 2c30 382c 3038 352c 2c30 2a34 340d 0a    | b',08,085,,0*44\r\n' |
<NMEA(GBGSV, numMsg=2, msgNum=1, numSV=7, svid_01=19, elv_01=31.0, az_01=302, cno_01=26, svid_02=20, elv_02=79.0, az_02=349, cno_02=33, svid_03=23, elv_03=28.0, az_03=49, cno_03=18, svid_04=29, elv_04=4.0, az_04=246, cno_04=10, signalID=1)>000: 2447 4247 5356 2c32 2c31 2c30 372c 3139  | b'$GBGSV,2,1,07,19' |
016: 2c33 312c 3330 322c 3236 2c32 302c 3739  | b',31,302,26,20,79' |
032: 2c33 3439 2c33 332c 3233 2c32 382c 3034  | b',349,33,23,28,04' |
048: 392c 3138 2c32 392c 3034 2c32 3436 2c31  | b'9,18,29,04,246,1' |
064: 302c 312a 3745 0d0a                      | b'0,1*7E\r\n' |
<NMEA(GBGSV, numMsg=2, msgNum=2, numSV=7, svid_01=32, elv_01=37.0, az_01=109, cno_01=29, svid_02=35, elv_02=9.0, az_02=297, cno_02=14, svid_03=37, elv_03=61.0, az_03=117, cno_03=37, signalID=1)>000: 2447 4247 5356 2c32 2c32 2c30 372c 3332  | b'$GBGSV,2,2,07,32' |
016: 2c33 372c 3130 392c 3239 2c33 352c 3039  | b',37,109,29,35,09' |
032: 2c32 3937 2c31 342c 3337 2c36 312c 3131  | b',297,14,37,61,11' |
048: 372c 3337 2c31 2a34 310d 0a              | b'7,37,1*41\r\n' |
<NMEA(GNGLL, lat=43.882654255, NS=N, lon=-72.157869535, EW=W, time=20:26:28.750000, status=A, posMode=A)>000: 2447 4e47 4c4c 2c34 3335 322e 3935 3932  | b'$GNGLL,4352.9592' |
016: 3535 332c 4e2c 3037 3230 392e 3437 3231  | b'553,N,07209.4721' |
032: 3732 312c 572c 3230 3236 3238 2e37 352c  | b'721,W,202628.75,' |
048: 412c 412a 3637 0d0a                      | b'A,A*67\r\n' |
<NMEA(GNRMC, time=20:26:29, status=A, lat=43.8826543917, NS=N, lon=-72.15786895, EW=W, spd=0.343, cog=, date=2023-09-05, mv=, mvEW=, posMode=A, navStatus=V)>000: 2447 4e52 4d43 2c32 3032 3632 392e 3030  | b'$GNRMC,202629.00' |
016: 2c41 2c34 3335 322e 3935 3932 3633 352c  | b',A,4352.9592635,' |
032: 4e2c 3037 3230 392e 3437 3231 3337 302c  | b'N,07209.4721370,' |
048: 572c 302e 3334 332c 2c30 3530 3932 332c  | b'W,0.343,,050923,' |
064: 2c2c 412c 562a 3044 0d0a                 | b',,A,V*0D\r\n' |
<NMEA(GNVTG, cogt=, cogtUnit=T, cogm=, cogmUnit=M, sogn=0.343, sognUnit=N, sogk=0.636, sogkUnit=K, posMode=A)>000: 2447 4e56 5447 2c2c 542c 2c4d 2c30 2e33  | b'$GNVTG,,T,,M,0.3' |
016: 3433 2c4e 2c30 2e36 3336 2c4b 2c41 2a33  | b'43,N,0.636,K,A*3' |
032: 410d 0a                                  | b'A\r\n' |
<NMEA(GNGGA, time=20:26:29, lat=43.8826543917, NS=N, lon=-72.15786895, EW=W, quality=1, numSV=12, HDOP=0.58, alt=137.939, altUnit=M, sep=-32.547, sepUnit=M, diffAge=, diffStation=)>000: 2447 4e47 4741 2c32 3032 3632 392e 3030  | b'$GNGGA,202629.00' |
016: 2c34 3335 322e 3935 3932 3633 352c 4e2c  | b',4352.9592635,N,' |
032: 3037 3230 392e 3437 3231 3337 302c 572c  | b'07209.4721370,W,' |
048: 312c 3132 2c30 2e35 382c 3133 372e 3933  | b'1,12,0.58,137.93' |
064: 392c 4d2c 2d33 322e 3534 372c 4d2c 2c2a  | b'9,M,-32.547,M,,*' |
080: 3730 0d0a                                | b'70\r\n' |
<NMEA(GNGSA, opMode=A, navMode=3, svid_01=25, svid_02=2, svid_03=21, svid_04=28, svid_05=12, svid_06=10, svid_07=24, svid_08=23, svid_09=32, svid_10=, svid_11=, svid_12=, PDOP=1.12, HDOP=0.58, VDOP=0.96, systemId=1)>000: 2447 4e47 5341 2c41 2c33 2c32 352c 3032  | b'$GNGSA,A,3,25,02' |
016: 2c32 312c 3238 2c31 322c 3130 2c32 342c  | b',21,28,12,10,24,' |
032: 3233 2c33 322c 2c2c 2c31 2e31 322c 302e  | b'23,32,,,,1.12,0.' |
048: 3538 2c30 2e39 362c 312a 3039 0d0a       | b'58,0.96,1*09\r\n' |
<NMEA(GNGSA, opMode=A, navMode=3, svid_01=87, svid_02=73, svid_03=71, svid_04=80, svid_05=70, svid_06=72, svid_07=74, svid_08=, svid_09=, svid_10=, svid_11=, svid_12=, PDOP=1.12, HDOP=0.58, VDOP=0.96, systemId=2)>000: 2447 4e47 5341 2c41 2c33 2c38 372c 3733  | b'$GNGSA,A,3,87,73' |
016: 2c37 312c 3830 2c37 302c 3732 2c37 342c  | b',71,80,70,72,74,' |
032: 2c2c 2c2c 2c31 2e31 322c 302e 3538 2c30  | b',,,,,1.12,0.58,0' |
048: 2e39 362c 322a 3036 0d0a                 | b'.96,2*06\r\n' |
<NMEA(GNGSA, opMode=A, navMode=3, svid_01=15, svid_02=31, svid_03=36, svid_04=34, svid_05=3, svid_06=9, svid_07=24, svid_08=5, svid_09=, svid_10=, svid_11=, svid_12=, PDOP=1.12, HDOP=0.58, VDOP=0.96, systemId=3)>000: 2447 4e47 5341 2c41 2c33 2c31 352c 3331  | b'$GNGSA,A,3,15,31' |
016: 2c33 362c 3334 2c30 332c 3039 2c32 342c  | b',36,34,03,09,24,' |
032: 3035 2c2c 2c2c 2c31 2e31 322c 302e 3538  | b'05,,,,,1.12,0.58' |
048: 2c30 2e39 362c 332a 3045 0d0a            | b',0.96,3*0E\r\n' |
<NMEA(GNGSA, opMode=A, navMode=3, svid_01=37, svid_02=32, svid_03=19, svid_04=20, svid_05=, svid_06=, svid_07=, svid_08=, svid_09=, svid_10=, svid_11=, svid_12=, PDOP=1.12, HDOP=0.58, VDOP=0.96, systemId=4)>000: 2447 4e47 5341 2c41 2c33 2c33 372c 3332  | b'$GNGSA,A,3,37,32' |
016: 2c31 392c 3230 2c2c 2c2c 2c2c 2c2c 2c31  | b',19,20,,,,,,,,,1' |
032: 2e31 322c 302e 3538 2c30 2e39 362c 342a  | b'.12,0.58,0.96,4*' |
048: 3042 0d0a                                | b'0B\r\n' |
<NMEA(GPGSV, numMsg=3, msgNum=1, numSV=11, svid_01=2, elv_01=18.0, az_01=314, cno_01=19, svid_02=10, elv_02=84.0, az_02=208, cno_02=37, svid_03=12, elv_03=30.0, az_03=92, cno_03=25, svid_04=15, elv_04=2.0, az_04=93, cno_04=11, signalID=1)>000: 2447 5047 5356 2c33 2c31 2c31 312c 3032  | b'$GPGSV,3,1,11,02' |
016: 2c31 382c 3331 342c 3139 2c31 302c 3834  | b',18,314,19,10,84' |
032: 2c32 3038 2c33 372c 3132 2c33 302c 3039  | b',208,37,12,30,09' |
048: 322c 3235 2c31 352c 3032 2c30 3933 2c31  | b'2,25,15,02,093,1' |
064: 312c 312a 3630 0d0a                      | b'1,1*60\r\n' |
<NMEA(GPGSV, numMsg=3, msgNum=2, numSV=11, svid_01=18, elv_01=0.0, az_01=182, cno_01=13, svid_02=21, elv_02=22.0, az_02=306, cno_02=21, svid_03=23, elv_03=46.0, az_03=144, cno_03=27, svid_04=24, elv_04=28.0, az_04=52, cno_04=17, signalID=1)>000: 2447 5047 5356 2c33 2c32 2c31 312c 3138  | b'$GPGSV,3,2,11,18' |
016: 2c30 302c 3138 322c 3133 2c32 312c 3232  | b',00,182,13,21,22' |
032: 2c33 3036 2c32 312c 3233 2c34 362c 3134  | b',306,21,23,46,14' |
048: 342c 3237 2c32 342c 3238 2c30 3532 2c31  | b'4,27,24,28,052,1' |
064: 372c 312a 3641 0d0a                      | b'7,1*6A\r\n' |
<NMEA(GPGSV, numMsg=3, msgNum=3, numSV=11, svid_01=25, elv_01=26.0, az_01=139, cno_01=18, svid_02=28, elv_02=29.0, az_02=220, cno_02=18, svid_03=32, elv_03=55.0, az_03=292, cno_03=22, signalID=1)>000: 2447 5047 5356 2c33 2c33 2c31 312c 3235  | b'$GPGSV,3,3,11,25' |
016: 2c32 362c 3133 392c 3138 2c32 382c 3239  | b',26,139,18,28,29' |
032: 2c32 3230 2c31 382c 3332 2c35 352c 3239  | b',220,18,32,55,29' |
048: 322c 3232 2c31 2a35 350d 0a              | b'2,22,1*55\r\n' |
<NMEA(GPGSV, numMsg=1, msgNum=1, numSV=2, svid_01=10, elv_01=84.0, az_01=208, cno_01=16, svid_02=23, elv_02=46.0, az_02=144, cno_02=12, signalID=6)>000: 2447 5047 5356 2c31 2c31 2c30 322c 3130  | b'$GPGSV,1,1,02,10' |
016: 2c38 342c 3230 382c 3136 2c32 332c 3436  | b',84,208,16,23,46' |
032: 2c31 3434 2c31 322c 362a 3630 0d0a       | b',144,12,6*60\r\n' |
<NMEA(GPGSV, numMsg=1, msgNum=1, numSV=3, svid_01=31, elv_01=0.0, az_01=221, cno_01=, svid_02=44, elv_02=23.0, az_02=235, cno_02=, svid_03=46, elv_03=15.0, az_03=246, cno_03=, signalID=0)>000: 2447 5047 5356 2c31 2c31 2c30 332c 3331  | b'$GPGSV,1,1,03,31' |
016: 2c30 302c 3232 312c 2c34 342c 3233 2c32  | b',00,221,,44,23,2' |
032: 3335 2c2c 3436 2c31 352c 3234 362c 2c30  | b'35,,46,15,246,,0' |
048: 2a35 360d 0a                             | b'*56\r\n' |
<NMEA(GLGSV, numMsg=2, msgNum=1, numSV=7, svid_01=70, elv_01=47.0, az_01=83, cno_01=18, svid_02=71, elv_02=60.0, az_02=343, cno_02=36, svid_03=72, elv_03=20.0, az_03=303, cno_03=17, svid_04=73, elv_04=53.0, az_04=146, cno_04=25, signalID=1)>000: 2447 4c47 5356 2c32 2c31 2c30 372c 3730  | b'$GLGSV,2,1,07,70' |
016: 2c34 372c 3038 332c 3138 2c37 312c 3630  | b',47,083,18,71,60' |
032: 2c33 3433 2c33 362c 3732 2c32 302c 3330  | b',343,36,72,20,30' |
048: 332c 3137 2c37 332c 3533 2c31 3436 2c32  | b'3,17,73,53,146,2' |
064: 352c 312a 3743 0d0a                      | b'5,1*7C\r\n' |
<NMEA(GLGSV, numMsg=2, msgNum=2, numSV=7, svid_01=74, elv_01=16.0, az_01=181, cno_01=12, svid_02=80, elv_02=44.0, az_02=50, cno_02=28, svid_03=87, elv_03=23.0, az_03=305, cno_03=21, signalID=1)>000: 2447 4c47 5356 2c32 2c32 2c30 372c 3734  | b'$GLGSV,2,2,07,74' |
016: 2c31 362c 3138 312c 3132 2c38 302c 3434  | b',16,181,12,80,44' |
032: 2c30 3530 2c32 382c 3837 2c32 332c 3330  | b',050,28,87,23,30' |
048: 352c 3231 2c31 2a34 430d 0a              | b'5,21,1*4C\r\n' |
<NMEA(GLGSV, numMsg=1, msgNum=1, numSV=3, svid_01=79, elv_01=1.0, az_01=21, cno_01=, svid_02=86, elv_02=18.0, az_02=248, cno_02=, svid_03=88, elv_03=4.0, az_03=352, cno_03=, signalID=0)>000: 2447 4c47 5356 2c31 2c31 2c30 332c 3739  | b'$GLGSV,1,1,03,79' |
016: 2c30 312c 3032 312c 2c38 362c 3138 2c32  | b',01,021,,86,18,2' |
032: 3438 2c2c 3838 2c30 342c 3335 322c 2c30  | b'48,,88,04,352,,0' |
048: 2a34 460d 0a                             | b'*4F\r\n' |
<NMEA(GAGSV, numMsg=2, msgNum=1, numSV=8, svid_01=3, elv_01=11.0, az_01=275, cno_01=11, svid_02=5, elv_02=60.0, az_02=296, cno_02=22, svid_03=9, elv_03=55.0, az_03=67, cno_03=30, svid_04=15, elv_04=18.0, az_04=320, cno_04=18, signalID=7)>000: 2447 4147 5356 2c32 2c31 2c30 382c 3033  | b'$GAGSV,2,1,08,03' |
016: 2c31 312c 3237 352c 3131 2c30 352c 3630  | b',11,275,11,05,60' |
032: 2c32 3936 2c32 322c 3039 2c35 352c 3036  | b',296,22,09,55,06' |
048: 372c 3330 2c31 352c 3138 2c33 3230 2c31  | b'7,30,15,18,320,1' |
064: 382c 372a 3742 0d0a                      | b'8,7*7B\r\n' |
<NMEA(GAGSV, numMsg=2, msgNum=2, numSV=8, svid_01=24, elv_01=25.0, az_01=144, cno_01=20, svid_02=31, elv_02=35.0, az_02=86, cno_02=23, svid_03=34, elv_03=38.0, az_03=266, cno_03=21, svid_04=36, elv_04=21.0, az_04=208, cno_04=22, signalID=7)>000: 2447 4147 5356 2c32 2c32 2c30 382c 3234  | b'$GAGSV,2,2,08,24' |
016: 2c32 352c 3134 342c 3230 2c33 312c 3335  | b',25,144,20,31,35' |
032: 2c30 3836 2c32 332c 3334 2c33 382c 3236  | b',086,23,34,38,26' |
048: 362c 3231 2c33 362c 3231 2c32 3038 2c32  | b'6,21,36,21,208,2' |
064: 322c 372a 3733 0d0a                      | b'2,7*73\r\n' |
<NMEA(GAGSV, numMsg=1, msgNum=1, numSV=1, svid_01=4, elv_01=8.0, az_01=85, cno_01=, signalID=0)>000: 2447 4147 5356 2c31 2c31 2c30 312c 3034  | b'$GAGSV,1,1,01,04' |
016: 2c30 382c 3038 352c 2c30 2a34 340d 0a    | b',08,085,,0*44\r\n' |
<NMEA(GBGSV, numMsg=2, msgNum=1, numSV=7, svid_01=19, elv_01=31.0, az_01=302, cno_01=26, svid_02=20, elv_02=79.0, az_02=349, cno_02=34, svid_03=23, elv_03=28.0, az_03=49, cno_03=18, svid_04=29, elv_04=4.0, az_04=246, cno_04=10, signalID=1)>000: 2447 4247 5356 2c32 2c31 2c30 372c 3139  | b'$GBGSV,2,1,07,19' |
016: 2c33 312c 3330 322c 3236 2c32 302c 3739  | b',31,302,26,20,79' |
032: 2c33 3439 2c33 342c 3233 2c32 382c 3034  | b',349,34,23,28,04' |
048: 392c 3138 2c32 392c 3034 2c32 3436 2c31  | b'9,18,29,04,246,1' |
064: 302c 312a 3739 0d0a                      | b'0,1*79\r\n' |
<NMEA(GNTXT, numMsg=1, msgNum=1, msgType=0, text=txbuf alloc)>000: 2447 4e54 5854 2c30 312c 3031 2c30 302c  | b'$GNTXT,01,01,00,' |
016: 7478 6275 6620 616c 6c6f 632a 3631 0d0a  | b'txbuf alloc*61\r\n' |
<NMEA(GNRMC, time=20:26:29.250000, status=A, lat=43.882654325, NS=N, lon=-72.15786809, EW=W, spd=0.488, cog=, date=2023-09-05, mv=, mvEW=, posMode=A, navStatus=V)>000: 2447 4e52 4d43 2c32 3032 3632 392e 3235  | b'$GNRMC,202629.25' |
016: 2c41 2c34 3335 322e 3935 3932 3539 352c  | b',A,4352.9592595,' |
032: 4e2c 3037 3230 392e 3437 3230 3835 342c  | b'N,07209.4720854,' |
048: 572c 302e 3438 382c 2c30 3530 3932 332c  | b'W,0.488,,050923,' |
064: 2c2c 412c 562a 3046 0d0a                 | b',,A,V*0F\r\n' |
<NMEA(GNVTG, cogt=, cogtUnit=T, cogm=, cogmUnit=M, sogn=0.488, sognUnit=N, sogk=0.904, sogkUnit=K, posMode=A)>000: 2447 4e56 5447 2c2c 542c 2c4d 2c30 2e34  | b'$GNVTG,,T,,M,0.4' |
016: 3838 2c4e 2c30 2e39 3034 2c4b 2c41 2a33  | b'88,N,0.904,K,A*3' |
032: 340d 0a                                  | b'4\r\n' |
<NMEA(GNGGA, time=20:26:29.250000, lat=43.882654325, NS=N, lon=-72.15786809, EW=W, quality=1, numSV=12, HDOP=0.58, alt=137.944, altUnit=M, sep=-32.547, sepUnit=M, diffAge=, diffStation=)>000: 2447 4e47 4741 2c32 3032 3632 392e 3235  | b'$GNGGA,202629.25' |
016: 2c34 3335 322e 3935 3932 3539 352c 4e2c  | b',4352.9592595,N,' |
032: 3037 3230 392e 3437 3230 3835 342c 572c  | b'07209.4720854,W,' |
048: 312c 3132 2c30 2e35 382c 3133 372e 3934  | b'1,12,0.58,137.94' |
064: 342c 4d2c 2d33 322e 3534 372c 4d2c 2c2a  | b'4,M,-32.547,M,,*' |
080: 3738 0d0a                                | b'78\r\n' |
<NMEA(GNGSA, opMode=A, navMode=3, svid_01=25, svid_02=2, svid_03=21, svid_04=28, svid_05=12, svid_06=10, svid_07=24, svid_08=23, svid_09=32, svid_10=, svid_11=, svid_12=, PDOP=1.12, HDOP=0.58, VDOP=0.96, systemId=1)>000: 2447 4e47 5341 2c41 2c33 2c32 352c 3032  | b'$GNGSA,A,3,25,02' |
016: 2c32 312c 3238 2c31 322c 3130 2c32 342c  | b',21,28,12,10,24,' |
032: 3233 2c33 322c 2c2c 2c31 2e31 322c 302e  | b'23,32,,,,1.12,0.' |
048: 3538 2c30 2e39 362c 312a 3039 0d0a       | b'58,0.96,1*09\r\n' |
<NMEA(GNGSA, opMode=A, navMode=3, svid_01=87, svid_02=73, svid_03=71, svid_04=80, svid_05=70, svid_06=72, svid_07=74, svid_08=, svid_09=, svid_10=, svid_11=, svid_12=, PDOP=1.12, HDOP=0.58, VDOP=0.96, systemId=2)>000: 2447 4e47 5341 2c41 2c33 2c38 372c 3733  | b'$GNGSA,A,3,87,73' |
016: 2c37 312c 3830 2c37 302c 3732 2c37 342c  | b',71,80,70,72,74,' |
032: 2c2c 2c2c 2c31 2e31 322c 302e 3538 2c30  | b',,,,,1.12,0.58,0' |
048: 2e39 362c 322a 3036 0d0a                 | b'.96,2*06\r\n' |
<NMEA(GNGSA, opMode=A, navMode=3, svid_01=15, svid_02=31, svid_03=36, svid_04=34, svid_05=3, svid_06=9, svid_07=24, svid_08=5, svid_09=, svid_10=, svid_11=, svid_12=, PDOP=1.12, HDOP=0.58, VDOP=0.96, systemId=3)>000: 2447 4e47 5341 2c41 2c33 2c31 352c 3331  | b'$GNGSA,A,3,15,31' |
016: 2c33 362c 3334 2c30 332c 3039 2c32 342c  | b',36,34,03,09,24,' |
032: 3035 2c2c 2c2c 2c31 2e31 322c 302e 3538  | b'05,,,,,1.12,0.58' |
048: 2c30 2e39 362c 332a 3045 0d0a            | b',0.96,3*0E\r\n' |
<NMEA(GNGSA, opMode=A, navMode=3, svid_01=37, svid_02=32, svid_03=19, svid_04=20, svid_05=, svid_06=, svid_07=, svid_08=, svid_09=, svid_10=, svid_11=, svid_12=, PDOP=1.12, HDOP=0.58, VDOP=0.96, systemId=4)>000: 2447 4e47 5341 2c41 2c33 2c33 372c 3332  | b'$GNGSA,A,3,37,32' |
016: 2c31 392c 3230 2c2c 2c2c 2c2c 2c2c 2c31  | b',19,20,,,,,,,,,1' |
032: 2e31 322c 302e 3538 2c30 2e39 362c 342a  | b'.12,0.58,0.96,4*' |
048: 3042 0d0a                                | b'0B\r\n' |
<NMEA(GPGSV, numMsg=3, msgNum=1, numSV=11, svid_01=2, elv_01=18.0, az_01=314, cno_01=20, svid_02=10, elv_02=84.0, az_02=208, cno_02=36, svid_03=12, elv_03=30.0, az_03=92, cno_03=24, svid_04=15, elv_04=2.0, az_04=93, cno_04=10, signalID=1)>000: 2447 5047 5356 2c33 2c31 2c31 312c 3032  | b'$GPGSV,3,1,11,02' |
016: 2c31 382c 3331 342c 3230 2c31 302c 3834  | b',18,314,20,10,84' |
032: 2c32 3038 2c33 362c 3132 2c33 302c 3039  | b',208,36,12,30,09' |
048: 322c 3234 2c31 352c 3032 2c30 3933 2c31  | b'2,24,15,02,093,1' |
064: 302c 312a 3642 0d0a                      | b'0,1*6B\r\n' |
<NMEA(GPGSV, numMsg=3, msgNum=2, numSV=11, svid_01=18, elv_01=0.0, az_01=182, cno_01=12, svid_02=21, elv_02=22.0, az_02=306, cno_02=22, svid_03=23, elv_03=46.0, az_03=144, cno_03=26, svid_04=24, elv_04=28.0, az_04=52, cno_04=17, signalID=1)>000: 2447 5047 5356 2c33 2c32 2c31 312c 3138  | b'$GPGSV,3,2,11,18' |
016: 2c30 302c 3138 322c 3132 2c32 312c 3232  | b',00,182,12,21,22' |
032: 2c33 3036 2c32 322c 3233 2c34 362c 3134  | b',306,22,23,46,14' |
048: 342c 3236 2c32 342c 3238 2c30 3532 2c31  | b'4,26,24,28,052,1' |
064: 372c 312a 3639 0d0a                      | b'7,1*69\r\n' |
<NMEA(GPGSV, numMsg=3, msgNum=3, numSV=11, svid_01=25, elv_01=26.0, az_01=139, cno_01=18, svid_02=28, elv_02=29.0, az_02=220, cno_02=20, svid_03=32, elv_03=55.0, az_03=292, cno_03=23, signalID=1)>000: 2447 5047 5356 2c33 2c33 2c31 312c 3235  | b'$GPGSV,3,3,11,25' |
016: 2c32 362c 3133 392c 3138 2c32 382c 3239  | b',26,139,18,28,29' |
032: 2c32 3230 2c32 302c 3332 2c35 352c 3239  | b',220,20,32,55,29' |
048: 322c 3233 2c31 2a35 460d 0a              | b'2,23,1*5F\r\n' |
<NMEA(GPGSV, numMsg=1, msgNum=1, numSV=2, svid_01=10, elv_01=84.0, az_01=208, cno_01=17, svid_02=23, elv_02=46.0, az_02=144, cno_02=12, signalID=6)>000: 2447 5047 5356 2c31 2c31 2c30 322c 3130  | b'$GPGSV,1,1,02,10' |
016: 2c38 342c 3230 382c 3137 2c32 332c 3436  | b',84,208,17,23,46' |
032: 2c31 3434 2c31 322c 362a 3631 0d0a       | b',144,12,6*61\r\n' |
<NMEA(GPGSV, numMsg=1, msgNum=1, numSV=3, svid_01=31, elv_01=0.0, az_01=221, cno_01=, svid_02=44, elv_02=23.0, az_02=235, cno_02=, svid_03=46, elv_03=15.0, az_03=246, cno_03=, signalID=0)>000: 2447 5047 5356 2c31 2c31 2c30 332c 3331  | b'$GPGSV,1,1,03,31' |
016: 2c30 302c 3232 312c 2c34 342c 3233 2c32  | b',00,221,,44,23,2' |
032: 3335 2c2c 3436 2c31 352c 3234 362c 2c30  | b'35,,46,15,246,,0' |
048: 2a35 360d 0a                             | b'*56\r\n' |
<NMEA(GLGSV, numMsg=2, msgNum=1, numSV=7, svid_01=70, elv_01=47.0, az_01=83, cno_01=14, svid_02=71, elv_02=60.0, az_02=343, cno_02=36, svid_03=72, elv_03=20.0, az_03=303, cno_03=17, svid_04=73, elv_04=53.0, az_04=146, cno_04=27, signalID=1)>000: 2447 4c47 5356 2c32 2c31 2c30 372c 3730  | b'$GLGSV,2,1,07,70' |
016: 2c34 372c 3038 332c 3134 2c37 312c 3630  | b',47,083,14,71,60' |
032: 2c33 3433 2c33 362c 3732 2c32 302c 3330  | b',343,36,72,20,30' |
048: 332c 3137 2c37 332c 3533 2c31 3436 2c32  | b'3,17,73,53,146,2' |
064: 372c 312a 3732 0d0a                      | b'7,1*72\r\n' |
<NMEA(GLGSV, numMsg=2, msgNum=2, numSV=7, svid_01=74, elv_01=16.0, az_01=181, cno_01=11, svid_02=80, elv_02=44.0, az_02=50, cno_02=29, svid_03=87, elv_03=23.0, az_03=305, cno_03=22, signalID=1)>000: 2447 4c47 5356 2c32 2c32 2c30 372c 3734  | b'$GLGSV,2,2,07,74' |
016: 2c31 362c 3138 312c 3131 2c38 302c 3434  | b',16,181,11,80,44' |
032: 2c30 3530 2c32 392c 3837 2c32 332c 3330  | b',050,29,87,23,30' |
048: 352c 3232 2c31 2a34 440d 0a              | b'5,22,1*4D\r\n' |
<NMEA(GLGSV, numMsg=1, msgNum=1, numSV=3, svid_01=79, elv_01=1.0, az_01=21, cno_01=, svid_02=86, elv_02=18.0, az_02=248, cno_02=, svid_03=88, elv_03=4.0, az_03=352, cno_03=, signalID=0)>000: 2447 4c47 5356 2c31 2c31 2c30 332c 3739  | b'$GLGSV,1,1,03,79' |
016: 2c30 312c 3032 312c 2c38 362c 3138 2c32  | b',01,021,,86,18,2' |
032: 3438 2c2c 3838 2c30 342c 3335 322c 2c30  | b'48,,88,04,352,,0' |
048: 2a34 460d 0a                             | b'*4F\r\n' |
<NMEA(GAGSV, numMsg=2, msgNum=1, numSV=8, svid_01=3, elv_01=11.0, az_01=275, cno_01=12, svid_02=5, elv_02=60.0, az_02=296, cno_02=22, svid_03=9, elv_03=55.0, az_03=67, cno_03=34, svid_04=15, elv_04=18.0, az_04=320, cno_04=19, signalID=7)>000: 2447 4147 5356 2c32 2c31 2c30 382c 3033  | b'$GAGSV,2,1,08,03' |
016: 2c31 312c 3237 352c 3132 2c30 352c 3630  | b',11,275,12,05,60' |
032: 2c32 3936 2c32 322c 3039 2c35 352c 3036  | b',296,22,09,55,06' |
048: 372c 3334 2c31 352c 3138 2c33 3230 2c31  | b'7,34,15,18,320,1' |
064: 392c 372a 3744 0d0a                      | b'9,7*7D\r\n' |
<NMEA(GAGSV, numMsg=2, msgNum=2, numSV=8, svid_01=24, elv_01=25.0, az_01=144, cno_01=20, svid_02=31, elv_02=35.0, az_02=86, cno_02=24, svid_03=34, elv_03=38.0, az_03=266, cno_03=22, svid_04=36, elv_04=21.0, az_04=208, cno_04=22, signalID=7)>000: 2447 4147 5356 2c32 2c32 2c30 382c 3234  | b'$GAGSV,2,2,08,24' |
016: 2c32 352c 3134 342c 3230 2c33 312c 3335  | b',25,144,20,31,35' |
032: 2c30 3836 2c32 342c 3334 2c33 382c 3236  | b',086,24,34,38,26' |
048: 362c 3232 2c33 362c 3231 2c32 3038 2c32  | b'6,22,36,21,208,2' |
064: 322c 372a 3737 0d0a                      | b'2,7*77\r\n' |
<NMEA(GAGSV, numMsg=1, msgNum=1, numSV=1, svid_01=4, elv_01=8.0, az_01=85, cno_01=, signalID=0)>000: 2447 4147 5356 2c31 2c31 2c30 312c 3034  | b'$GAGSV,1,1,01,04' |
016: 2c30 382c 3038 352c 2c30 2a34 340d 0a    | b',08,085,,0*44\r\n' |
<NMEA(GBGSV, numMsg=2, msgNum=1, numSV=7, svid_01=19, elv_01=31.0, az_01=302, cno_01=25, svid_02=20, elv_02=79.0, az_02=349, cno_02=36, svid_03=23, elv_03=28.0, az_03=49, cno_03=19, svid_04=29, elv_04=4.0, az_04=246, cno_04=10, signalID=1)>000: 2447 4247 5356 2c32 2c31 2c30 372c 3139  | b'$GBGSV,2,1,07,19' |
016: 2c33 312c 3330 322c 3235 2c32 302c 3739  | b',31,302,25,20,79' |
032: 2c33 3439 2c33 362c 3233 2c32 382c 3034  | b',349,36,23,28,04' |
048: 392c 3139 2c32 392c 3034 2c32 3436 2c31  | b'9,19,29,04,246,1' |
064: 302c 312a 3739 0d0a                      | b'0,1*79\r\n' |
<NMEA(GBGSV, numMsg=2, msgNum=2, numSV=7, svid_01=32, elv_01=37.0, az_01=109, cno_01=20, svid_02=35, elv_02=9.0, az_02=297, cno_02=14, svid_03=37, elv_03=61.0, az_03=117, cno_03=36, signalID=1)>000: 2447 4247 5356 2c32 2c32 2c30 372c 3332  | b'$GBGSV,2,2,07,32' |
016: 2c33 372c 3130 392c 3230 2c33 352c 3039  | b',37,109,20,35,09' |
032: 2c32 3937 2c31 342c 3337 2c36 312c 3131  | b',297,14,37,61,11' |
048: 372c 3336 2c31 2a34 390d 0a              | b'7,36,1*49\r\n' |
<NMEA(GNGLL, lat=43.882654325, NS=N, lon=-72.15786809, EW=W, time=20:26:29.250000, status=A, posMode=A)>000: 2447 4e47 4c4c 2c34 3335 322e 3935 3932  | b'$GNGLL,4352.9592' |
016: 3539 352c 4e2c 3037 3230 392e 3437 3230  | b'595,N,07209.4720' |
032: 3835 342c 572c 3230 3236 3239 2e32 352c  | b'854,W,202629.25,' |
048: 412c 412a 3635 0d0a                      | b'A,A*65\r\n' |
<NMEA(GNRMC, time=20:26:29.500000, status=A, lat=43.882654595, NS=N, lon=-72.1578670467, EW=W, spd=0.512, cog=, date=2023-09-05, mv=, mvEW=, posMode=A, navStatus=V)>000: 2447 4e52 4d43 2c32 3032 3632 392e 3530  | b'$GNRMC,202629.50' |
016: 2c41 2c34 3335 322e 3935 3932 3735 372c  | b',A,4352.9592757,' |
032: 4e2c 3037 3230 392e 3437 3230 3232 382c  | b'N,07209.4720228,' |
048: 572c 302e 3531 322c 2c30 3530 3932 332c  | b'W,0.512,,050923,' |
064: 2c2c 412c 562a 3032 0d0a                 | b',,A,V*02\r\n' |
<NMEA(GNVTG, cogt=, cogtUnit=T, cogm=, cogmUnit=M, sogn=0.512, sognUnit=N, sogk=0.948, sogkUnit=K, posMode=A)>000: 2447 4e56 5447 2c2c 542c 2c4d 2c30 2e35  | b'$GNVTG,,T,,M,0.5' |
016: 3132 2c4e 2c30 2e39 3438 2c4b 2c41 2a33  | b'12,N,0.948,K,A*3' |
032: 450d 0a                                  | b'E\r\n' |
<NMEA(GNGGA, time=20:26:29.500000, lat=43.882654595, NS=N, lon=-72.1578670467, EW=W, quality=1, numSV=12, HDOP=0.58, alt=137.947, altUnit=M, sep=-32.547, sepUnit=M, diffAge=, diffStation=)>000: 2447 4e47 4741 2c32 3032 3632 392e 3530  | b'$GNGGA,202629.50' |
016: 2c34 3335 322e 3935 3932 3735 372c 4e2c  | b',4352.9592757,N,' |
032: 3037 3230 392e 3437 3230 3232 382c 572c  | b'07209.4720228,W,' |
048: 312c 3132 2c30 2e35 382c 3133 372e 3934  | b'1,12,0.58,137.94' |
064: 372c 4d2c 2d33 322e 3534 372c 4d2c 2c2a  | b'7,M,-32.547,M,,*' |
080: 3734 0d0a                                | b'74\r\n' |
<NMEA(GNGSA, opMode=A, navMode=3, svid_01=25, svid_02=2, svid_03=21, svid_04=28, svid_05=12, svid_06=10, svid_07=24, svid_08=23, svid_09=32, svid_10=, svid_11=, svid_12=, PDOP=1.12, HDOP=0.58, VDOP=0.96, systemId=1)>000: 2447 4e47 5341 2c41 2c33 2c32 352c 3032  | b'$GNGSA,A,3,25,02' |
016: 2c32 312c 3238 2c31 322c 3130 2c32 342c  | b',21,28,12,10,24,' |
032: 3233 2c33 322c 2c2c 2c31 2e31 322c 302e  | b'23,32,,,,1.12,0.' |
048: 3538 2c30 2e39 362c 312a 3039 0d0a       | b'58,0.96,1*09\r\n' |
<NMEA(GNGSA, opMode=A, navMode=3, svid_01=87, svid_02=73, svid_03=71, svid_04=80, svid_05=70, svid_06=72, svid_07=74, svid_08=, svid_09=, svid_10=, svid_11=, svid_12=, PDOP=1.12, HDOP=0.58, VDOP=0.96, systemId=2)>000: 2447 4e47 5341 2c41 2c33 2c38 372c 3733  | b'$GNGSA,A,3,87,73' |
016: 2c37 312c 3830 2c37 302c 3732 2c37 342c  | b',71,80,70,72,74,' |
032: 2c2c 2c2c 2c31 2e31 322c 302e 3538 2c30  | b',,,,,1.12,0.58,0' |
048: 2e39 362c 322a 3036 0d0a                 | b'.96,2*06\r\n' |
<NMEA(GNGSA, opMode=A, navMode=3, svid_01=15, svid_02=31, svid_03=36, svid_04=34, svid_05=3, svid_06=9, svid_07=24, svid_08=5, svid_09=, svid_10=, svid_11=, svid_12=, PDOP=1.12, HDOP=0.58, VDOP=0.96, systemId=3)>000: 2447 4e47 5341 2c41 2c33 2c31 352c 3331  | b'$GNGSA,A,3,15,31' |
016: 2c33 362c 3334 2c30 332c 3039 2c32 342c  | b',36,34,03,09,24,' |
032: 3035 2c2c 2c2c 2c31 2e31 322c 302e 3538  | b'05,,,,,1.12,0.58' |
048: 2c30 2e39 362c 332a 3045 0d0a            | b',0.96,3*0E\r\n' |
<NMEA(GNGSA, opMode=A, navMode=3, svid_01=37, svid_02=32, svid_03=19, svid_04=20, svid_05=, svid_06=, svid_07=, svid_08=, svid_09=, svid_10=, svid_11=, svid_12=, PDOP=1.12, HDOP=0.58, VDOP=0.96, systemId=4)>000: 2447 4e47 5341 2c41 2c33 2c33 372c 3332  | b'$GNGSA,A,3,37,32' |
016: 2c31 392c 3230 2c2c 2c2c 2c2c 2c2c 2c31  | b',19,20,,,,,,,,,1' |
032: 2e31 322c 302e 3538 2c30 2e39 362c 342a  | b'.12,0.58,0.96,4*' |
048: 3042 0d0a                                | b'0B\r\n' |
<NMEA(GPGSV, numMsg=3, msgNum=1, numSV=11, svid_01=2, elv_01=18.0, az_01=314, cno_01=20, svid_02=10, elv_02=84.0, az_02=208, cno_02=36, svid_03=12, elv_03=30.0, az_03=92, cno_03=24, svid_04=15, elv_04=2.0, az_04=93, cno_04=14, signalID=1)>000: 2447 5047 5356 2c33 2c31 2c31 312c 3032  | b'$GPGSV,3,1,11,02' |
016: 2c31 382c 3331 342c 3230 2c31 302c 3834  | b',18,314,20,10,84' |
032: 2c32 3038 2c33 362c 3132 2c33 302c 3039  | b',208,36,12,30,09' |
048: 322c 3234 2c31 352c 3032 2c30 3933 2c31  | b'2,24,15,02,093,1' |
064: 342c 312a 3646 0d0a                      | b'4,1*6F\r\n' |
<NMEA(GPGSV, numMsg=3, msgNum=2, numSV=11, svid_01=18, elv_01=0.0, az_01=182, cno_01=11, svid_02=21, elv_02=22.0, az_02=306, cno_02=22, svid_03=23, elv_03=46.0, az_03=144, cno_03=27, svid_04=24, elv_04=28.0, az_04=52, cno_04=17, signalID=1)>000: 2447 5047 5356 2c33 2c32 2c31 312c 3138  | b'$GPGSV,3,2,11,18' |
016: 2c30 302c 3138 322c 3131 2c32 312c 3232  | b',00,182,11,21,22' |
032: 2c33 3036 2c32 322c 3233 2c34 362c 3134  | b',306,22,23,46,14' |
048: 342c 3237 2c32 342c 3238 2c30 3532 2c31  | b'4,27,24,28,052,1' |
064: 372c 312a 3642 0d0a                      | b'7,1*6B\r\n' |
<NMEA(GPGSV, numMsg=3, msgNum=3, numSV=11, svid_01=25, elv_01=26.0, az_01=139, cno_01=19, svid_02=28, elv_02=29.0, az_02=220, cno_02=20, svid_03=32, elv_03=55.0, az_03=292, cno_03=25, signalID=1)>000: 2447 5047 5356 2c33 2c33 2c31 312c 3235  | b'$GPGSV,3,3,11,25' |
016: 2c32 362c 3133 392c 3139 2c32 382c 3239  | b',26,139,19,28,29' |
032: 2c32 3230 2c32 302c 3332 2c35 352c 3239  | b',220,20,32,55,29' |
048: 322c 3235 2c31 2a35 380d 0a              | b'2,25,1*58\r\n' |
<NMEA(GPGSV, numMsg=1, msgNum=1, numSV=2, svid_01=10, elv_01=84.0, az_01=208, cno_01=16, svid_02=23, elv_02=46.0, az_02=144, cno_02=12, signalID=6)>000: 2447 5047 5356 2c31 2c31 2c30 322c 3130  | b'$GPGSV,1,1,02,10' |
016: 2c38 342c 3230 382c 3136 2c32 332c 3436  | b',84,208,16,23,46' |
032: 2c31 3434 2c31 322c 362a 3630 0d0a       | b',144,12,6*60\r\n' |
<NMEA(GPGSV, numMsg=1, msgNum=1, numSV=3, svid_01=31, elv_01=0.0, az_01=221, cno_01=, svid_02=44, elv_02=23.0, az_02=235, cno_02=, svid_03=46, elv_03=15.0, az_03=246, cno_03=, signalID=0)>000: 2447 5047 5356 2c31 2c31 2c30 332c 3331  | b'$GPGSV,1,1,03,31' |
016: 2c30 302c 3232 312c 2c34 342c 3233 2c32  | b',00,221,,44,23,2' |
032: 3335 2c2c 3436 2c31 352c 3234 362c 2c30  | b'35,,46,15,246,,0' |
048: 2a35 360d 0a                             | b'*56\r\n' |
<NMEA(GLGSV, numMsg=2, msgNum=1, numSV=7, svid_01=70, elv_01=47.0, az_01=83, cno_01=18, svid_02=71, elv_02=60.0, az_02=343, cno_02=36, svid_03=72, elv_03=20.0, az_03=303, cno_03=17, svid_04=73, elv_04=53.0, az_04=146, cno_04=27, signalID=1)>000: 2447 4c47 5356 2c32 2c31 2c30 372c 3730  | b'$GLGSV,2,1,07,70' |
016: 2c34 372c 3038 332c 3138 2c37 312c 3630  | b',47,083,18,71,60' |
032: 2c33 3433 2c33 362c 3732 2c32 302c 3330  | b',343,36,72,20,30' |
048: 332c 3137 2c37 332c 3533 2c31 3436 2c32  | b'3,17,73,53,146,2' |
064: 372c 312a 3745 0d0a                      | b'7,1*7E\r\n' |
<NMEA(GLGSV, numMsg=2, msgNum=2, numSV=7, svid_01=74, elv_01=16.0, az_01=181, cno_01=15, svid_02=80, elv_02=44.0, az_02=50, cno_02=28, svid_03=87, elv_03=23.0, az_03=305, cno_03=22, signalID=1)>000: 2447 4c47 5356 2c32 2c32 2c30 372c 3734  | b'$GLGSV,2,2,07,74' |
016: 2c31 362c 3138 312c 3135 2c38 302c 3434  | b',16,181,15,80,44' |
032: 2c30 3530 2c32 382c 3837 2c32 332c 3330  | b',050,28,87,23,30' |
048: 352c 3232 2c31 2a34 380d 0a              | b'5,22,1*48\r\n' |
<NMEA(GLGSV, numMsg=1, msgNum=1, numSV=3, svid_01=79, elv_01=1.0, az_01=21, cno_01=, svid_02=86, elv_02=18.0, az_02=248, cno_02=, svid_03=88, elv_03=4.0, az_03=352, cno_03=, signalID=0)>000: 2447 4c47 5356 2c31 2c31 2c30 332c 3739  | b'$GLGSV,1,1,03,79' |
016: 2c30 312c 3032 312c 2c38 362c 3138 2c32  | b',01,021,,86,18,2' |
032: 3438 2c2c 3838 2c30 342c 3335 322c 2c30  | b'48,,88,04,352,,0' |
048: 2a34 460d 0a                             | b'*4F\r\n' |
<NMEA(GAGSV, numMsg=2, msgNum=1, numSV=8, svid_01=3, elv_01=11.0, az_01=275, cno_01=8, svid_02=5, elv_02=60.0, az_02=296, cno_02=23, svid_03=9, elv_03=55.0, az_03=67, cno_03=34, svid_04=15, elv_04=18.0, az_04=320, cno_04=19, signalID=7)>000: 2447 4147 5356 2c32 2c31 2c30 382c 3033  | b'$GAGSV,2,1,08,03' |
016: 2c31 312c 3237 352c 3038 2c30 352c 3630  | b',11,275,08,05,60' |
032: 2c32 3936 2c32 332c 3039 2c35 352c 3036  | b',296,23,09,55,06' |
048: 372c 3334 2c31 352c 3138 2c33 3230 2c31  | b'7,34,15,18,320,1' |
064: 392c 372a 3737 0d0a                      | b'9,7*77\r\n' |
<NMEA(GAGSV, numMsg=2, msgNum=2, numSV=8, svid_01=24, elv_01=25.0, az_01=144, cno_01=20, svid_02=31, elv_02=35.0, az_02=86, cno_02=24, svid_03=34, elv_03=38.0, az_03=266, cno_03=29, svid_04=36, elv_04=21.0, az_04=208, cno_04=21, signalID=7)>000: 2447 4147 5356 2c32 2c32 2c30 382c 3234  | b'$GAGSV,2,2,08,24' |
016: 2c32 352c 3134 342c 3230 2c33 312c 3335  | b',25,144,20,31,35' |
032: 2c30 3836 2c32 342c 3334 2c33 382c 3236  | b',086,24,34,38,26' |
048: 362c 3239 2c33 362c 3231 2c32 3038 2c32  | b'6,29,36,21,208,2' |
064: 312c 372a 3746 0d0a                      | b'1,7*7F\r\n' |
<NMEA(GAGSV, numMsg=1, msgNum=1, numSV=1, svid_01=4, elv_01=8.0, az_01=85, cno_01=, signalID=0)>000: 2447 4147 5356 2c31 2c31 2c30 312c 3034  | b'$GAGSV,1,1,01,04' |
016: 2c30 382c 3038 352c 2c30 2a34 340d 0a    | b',08,085,,0*44\r\n' |
<NMEA(GBGSV, numMsg=2, msgNum=1, numSV=7, svid_01=19, elv_01=31.0, az_01=302, cno_01=26, svid_02=20, elv_02=79.0, az_02=349, cno_02=34, svid_03=23, elv_03=28.0, az_03=49, cno_03=19, svid_04=29, elv_04=4.0, az_04=246, cno_04=10, signalID=1)>000: 2447 4247 5356 2c32 2c31 2c30 372c 3139  | b'$GBGSV,2,1,07,19' |
016: 2c33 312c 3330 322c 3236 2c32 302c 3739  | b',31,302,26,20,79' |
032: 2c33 3439 2c33 342c 3233 2c32 382c 3034  | b',349,34,23,28,04' |
048: 392c 3139 2c32 392c 3034 2c32 3436 2c31  | b'9,19,29,04,246,1' |
064: 302c 312a 3738 0d0a                      | b'0,1*78\r\n' |
<NMEA(GBGSV, numMsg=2, msgNum=2, numSV=7, svid_01=32, elv_01=37.0, az_01=109, cno_01=22, svid_02=35, elv_02=9.0, az_02=297, cno_02=14, svid_03=37, elv_03=61.0, az_03=117, cno_03=36, signalID=1)>000: 2447 4247 5356 2c32 2c32 2c30 372c 3332  | b'$GBGSV,2,2,07,32' |
016: 2c33 372c 3130 392c 3232 2c33 352c 3039  | b',37,109,22,35,09' |
032: 2c32 3937 2c31 342c 3337 2c36 312c 3131  | b',297,14,37,61,11' |
048: 372c 3336 2c31 2a34 420d 0a              | b'7,36,1*4B\r\n' |
<NMEA(GNGLL, lat=43.882654595, NS=N, lon=-72.1578670467, EW=W, time=20:26:29.500000, status=A, posMode=A)>000: 2447 4e47 4c4c 2c34 3335 322e 3935 3932  | b'$GNGLL,4352.9592' |
016: 3735 372c 4e2c 3037 3230 392e 3437 3230  | b'757,N,07209.4720' |
032: 3232 382c 572c 3230 3236 3239 2e35 302c  | b'228,W,202629.50,' |
048: 412c 412a 3641 0d0a                      | b'A,A*6A\r\n' |
<NMEA(GNRMC, time=20:26:29.750000, status=A, lat=43.882654495, NS=N, lon=-72.1578662117, EW=W, spd=0.505, cog=, date=2023-09-05, mv=, mvEW=, posMode=A, navStatus=V)>000: 2447 4e52 4d43 2c32 3032 3632 392e 3735  | b'$GNRMC,202629.75' |
016: 2c41 2c34 3335 322e 3935 3932 3639 372c  | b',A,4352.9592697,' |
032: 4e2c 3037 3230 392e 3437 3139 3732 372c  | b'N,07209.4719727,' |
048: 572c 302e 3530 352c 2c30 3530 3932 332c  | b'W,0.505,,050923,' |
064: 2c2c 412c 562a 3045 0d0a                 | b',,A,V*0E\r\n' |
<NMEA(GNVTG, cogt=, cogtUnit=T, cogm=, cogmUnit=M, sogn=0.505, sognUnit=N, sogk=0.936, sogkUnit=K, posMode=A)>000: 2447 4e56 5447 2c2c 542c 2c4d 2c30 2e35  | b'$GNVTG,,T,,M,0.5' |
016: 3035 2c4e 2c30 2e39 3336 2c4b 2c41 2a33  | b'05,N,0.936,K,A*3' |
032: 310d 0a                                  | b'1\r\n' |
<NMEA(GNGGA, time=20:26:29.750000, lat=43.882654495, NS=N, lon=-72.1578662117, EW=W, quality=1, numSV=12, HDOP=0.55, alt=137.914, altUnit=M, sep=-32.547, sepUnit=M, diffAge=, diffStation=)>000: 2447 4e47 4741 2c32 3032 3632 392e 3735  | b'$GNGGA,202629.75' |
016: 2c34 3335 322e 3935 3932 3639 372c 4e2c  | b',4352.9592697,N,' |
032: 3037 3230 392e 3437 3139 3732 372c 572c  | b'07209.4719727,W,' |
048: 312c 3132 2c30 2e35 352c 3133 372e 3931  | b'1,12,0.55,137.91' |
064: 342c 4d2c 2d33 322e 3534 372c 4d2c 2c2a  | b'4,M,-32.547,M,,*' |
080: 3735 0d0a                                | b'75\r\n' |
<NMEA(GNGSA, opMode=A, navMode=3, svid_01=25, svid_02=2, svid_03=21, svid_04=28, svid_05=12, svid_06=10, svid_07=24, svid_08=23, svid_09=32, svid_10=, svid_11=, svid_12=, PDOP=1.09, HDOP=0.55, VDOP=0.94, systemId=1)>000: 2447 4e47 5341 2c41 2c33 2c32 352c 3032  | b'$GNGSA,A,3,25,02' |
016: 2c32 312c 3238 2c31 322c 3130 2c32 342c  | b',21,28,12,10,24,' |
032: 3233 2c33 322c 2c2c 2c31 2e30 392c 302e  | b'23,32,,,,1.09,0.' |
048: 3535 2c30 2e39 342c 312a 3043 0d0a       | b'55,0.94,1*0C\r\n' |
<NMEA(GNGSA, opMode=A, navMode=3, svid_01=87, svid_02=73, svid_03=71, svid_04=80, svid_05=70, svid_06=72, svid_07=74, svid_08=, svid_09=, svid_10=, svid_11=, svid_12=, PDOP=1.09, HDOP=0.55, VDOP=0.94, systemId=2)>000: 2447 4e47 5341 2c41 2c33 2c38 372c 3733  | b'$GNGSA,A,3,87,73' |
016: 2c37 312c 3830 2c37 302c 3732 2c37 342c  | b',71,80,70,72,74,' |
032: 2c2c 2c2c 2c31 2e30 392c 302e 3535 2c30  | b',,,,,1.09,0.55,0' |
048: 2e39 342c 322a 3033 0d0a                 | b'.94,2*03\r\n' |
<NMEA(GNGSA, opMode=A, navMode=3, svid_01=15, svid_02=31, svid_03=36, svid_04=34, svid_05=3, svid_06=9, svid_07=24, svid_08=5, svid_09=, svid_10=, svid_11=, svid_12=, PDOP=1.09, HDOP=0.55, VDOP=0.94, systemId=3)>000: 2447 4e47 5341 2c41 2c33 2c31 352c 3331  | b'$GNGSA,A,3,15,31' |
016: 2c33 362c 3334 2c30 332c 3039 2c32 342c  | b',36,34,03,09,24,' |
032: 3035 2c2c 2c2c 2c31 2e30 392c 302e 3535  | b'05,,,,,1.09,0.55' |
048: 2c30 2e39 342c 332a 3042 0d0a            | b',0.94,3*0B\r\n' |
<NMEA(GNGSA, opMode=A, navMode=3, svid_01=37, svid_02=23, svid_03=32, svid_04=19, svid_05=20, svid_06=, svid_07=, svid_08=, svid_09=, svid_10=, svid_11=, svid_12=, PDOP=1.09, HDOP=0.55, VDOP=0.94, systemId=4)>000: 2447 4e47 5341 2c41 2c33 2c33 372c 3233  | b'$GNGSA,A,3,37,23' |
016: 2c33 322c 3139 2c32 302c 2c2c 2c2c 2c2c  | b',32,19,20,,,,,,,' |
032: 2c31 2e30 392c 302e 3535 2c30 2e39 342c  | b',1.09,0.55,0.94,' |
048: 342a 3046 0d0a                           | b'4*0F\r\n' |
<NMEA(GPGSV, numMsg=3, msgNum=1, numSV=11, svid_01=2, elv_01=18.0, az_01=314, cno_01=20, svid_02=10, elv_02=84.0, az_02=208, cno_02=37, svid_03=12, elv_03=30.0, az_03=92, cno_03=24, svid_04=15, elv_04=2.0, az_04=93, cno_04=14, signalID=1)>000: 2447 5047 5356 2c33 2c31 2c31 312c 3032  | b'$GPGSV,3,1,11,02' |
016: 2c31 382c 3331 342c 3230 2c31 302c 3834  | b',18,314,20,10,84' |
032: 2c32 3038 2c33 372c 3132 2c33 302c 3039  | b',208,37,12,30,09' |
048: 322c 3234 2c31 352c 3032 2c30 3933 2c31  | b'2,24,15,02,093,1' |
064: 342c 312a 3645 0d0a                      | b'4,1*6E\r\n' |
<NMEA(GPGSV, numMsg=3, msgNum=2, numSV=11, svid_01=18, elv_01=0.0, az_01=182, cno_01=11, svid_02=21, elv_02=22.0, az_02=306, cno_02=21, svid_03=23, elv_03=46.0, az_03=144, cno_03=26, svid_04=24, elv_04=28.0, az_04=52, cno_04=17, signalID=1)>000: 2447 5047 5356 2c33 2c32 2c31 312c 3138  | b'$GPGSV,3,2,11,18' |
016: 2c30 302c 3138 322c 3131 2c32 312c 3232  | b',00,182,11,21,22' |
032: 2c33 3036 2c32 312c 3233 2c34 362c 3134  | b',306,21,23,46,14' |
048: 342c 3236 2c32 342c 3238 2c30 3532 2c31  | b'4,26,24,28,052,1' |
064: 372c 312a 3639 0d0a                      | b'7,1*69\r\n' |
<NMEA(GPGSV, numMsg=3, msgNum=3, numSV=11, svid_01=25, elv_01=26.0, az_01=139, cno_01=20, svid_02=28, elv_02=29.0, az_02=220, cno_02=19, svid_03=32, elv_03=55.0, az_03=292, cno_03=25, signalID=1)>000: 2447 5047 5356 2c33 2c33 2c31 312c 3235  | b'$GPGSV,3,3,11,25' |
016: 2c32 362c 3133 392c 3230 2c32 382c 3239  | b',26,139,20,28,29' |
032: 2c32 3230 2c31 392c 3332 2c35 352c 3239  | b',220,19,32,55,29' |
048: 322c 3235 2c31 2a35 380d 0a              | b'2,25,1*58\r\n' |
<NMEA(GPGSV, numMsg=1, msgNum=1, numSV=2, svid_01=10, elv_01=84.0, az_01=208, cno_01=16, svid_02=23, elv_02=46.0, az_02=144, cno_02=13, signalID=6)>000: 2447 5047 5356 2c31 2c31 2c30 322c 3130  | b'$GPGSV,1,1,02,10' |
016: 2c38 342c 3230 382c 3136 2c32 332c 3436  | b',84,208,16,23,46' |
032: 2c31 3434 2c31 332c 362a 3631 0d0a       | b',144,13,6*61\r\n' |
<NMEA(GPGSV, numMsg=1, msgNum=1, numSV=3, svid_01=31, elv_01=0.0, az_01=221, cno_01=, svid_02=44, elv_02=23.0, az_02=235, cno_02=, svid_03=46, elv_03=15.0, az_03=246, cno_03=, signalID=0)>000: 2447 5047 5356 2c31 2c31 2c30 332c 3331  | b'$GPGSV,1,1,03,31' |
016: 2c30 302c 3232 312c 2c34 342c 3233 2c32  | b',00,221,,44,23,2' |
032: 3335 2c2c 3436 2c31 352c 3234 362c 2c30  | b'35,,46,15,246,,0' |
048: 2a35 360d 0a                             | b'*56\r\n' |
<NMEA(GLGSV, numMsg=2, msgNum=1, numSV=7, svid_01=70, elv_01=47.0, az_01=83, cno_01=18, svid_02=71, elv_02=60.0, az_02=343, cno_02=33, svid_03=72, elv_03=20.0, az_03=303, cno_03=17, svid_04=73, elv_04=53.0, az_04=146, cno_04=32, signalID=1)>000: 2447 4c47 5356 2c32 2c31 2c30 372c 3730  | b'$GLGSV,2,1,07,70' |
016: 2c34 372c 3038 332c 3138 2c37 312c 3630  | b',47,083,18,71,60' |
032: 2c33 3433 2c33 332c 3732 2c32 302c 3330  | b',343,33,72,20,30' |
048: 332c 3137 2c37 332c 3533 2c31 3436 2c33  | b'3,17,73,53,146,3' |
064: 322c 312a 3746 0d0a                      | b'2,1*7F\r\n' |
<NMEA(GLGSV, numMsg=2, msgNum=2, numSV=7, svid_01=74, elv_01=16.0, az_01=181, cno_01=15, svid_02=80, elv_02=44.0, az_02=50, cno_02=28, svid_03=87, elv_03=23.0, az_03=305, cno_03=21, signalID=1)>000: 2447 4c47 5356 2c32 2c32 2c30 372c 3734  | b'$GLGSV,2,2,07,74' |
016: 2c31 362c 3138 312c 3135 2c38 302c 3434  | b',16,181,15,80,44' |
032: 2c30 3530 2c32 382c 3837 2c32 332c 3330  | b',050,28,87,23,30' |
048: 352c 3231 2c31 2a34 420d 0a              | b'5,21,1*4B\r\n' |
<NMEA(GLGSV, numMsg=1, msgNum=1, numSV=3, svid_01=79, elv_01=1.0, az_01=21, cno_01=, svid_02=86, elv_02=18.0, az_02=248, cno_02=, svid_03=88, elv_03=4.0, az_03=352, cno_03=, signalID=0)>000: 2447 4c47 5356 2c31 2c31 2c30 332c 3739  | b'$GLGSV,1,1,03,79' |
016: 2c30 312c 3032 312c 2c38 362c 3138 2c32  | b',01,021,,86,18,2' |
032: 3438 2c2c 3838 2c30 342c 3335 322c 2c30  | b'48,,88,04,352,,0' |
048: 2a34 460d 0a                             | b'*4F\r\n' |
<NMEA(GAGSV, numMsg=2, msgNum=1, numSV=8, svid_01=3, elv_01=11.0, az_01=275, cno_01=8, svid_02=5, elv_02=60.0, az_02=296, cno_02=24, svid_03=9, elv_03=55.0, az_03=67, cno_03=33, svid_04=15, elv_04=18.0, az_04=320, cno_04=19, signalID=7)>000: 2447 4147 5356 2c32 2c31 2c30 382c 3033  | b'$GAGSV,2,1,08,03' |
016: 2c31 312c 3237 352c 3038 2c30 352c 3630  | b',11,275,08,05,60' |
032: 2c32 3936 2c32 342c 3039 2c35 352c 3036  | b',296,24,09,55,06' |
048: 372c 3333 2c31 352c 3138 2c33 3230 2c31  | b'7,33,15,18,320,1' |
064: 392c 372a 3737 0d0a                      | b'9,7*77\r\n' |
<NMEA(GAGSV, numMsg=2, msgNum=2, numSV=8, svid_01=24, elv_01=25.0, az_01=144, cno_01=19, svid_02=31, elv_02=35.0, az_02=86, cno_02=24, svid_03=34, elv_03=38.0, az_03=266, cno_03=30, svid_04=36, elv_04=21.0, az_04=208, cno_04=21, signalID=7)>000: 2447 4147 5356 2c32 2c32 2c30 382c 3234  | b'$GAGSV,2,2,08,24' |
016: 2c32 352c 3134 342c 3139 2c33 312c 3335  | b',25,144,19,31,35' |
032: 2c30 3836 2c32 342c 3334 2c33 382c 3236  | b',086,24,34,38,26' |
048: 362c 3330 2c33 362c 3231 2c32 3038 2c32  | b'6,30,36,21,208,2' |
064: 312c 372a 3744 0d0a                      | b'1,7*7D\r\n' |
<NMEA(GAGSV, numMsg=1, msgNum=1, numSV=1, svid_01=4, elv_01=8.0, az_01=85, cno_01=, signalID=0)>000: 2447 4147 5356 2c31 2c31 2c30 312c 3034  | b'$GAGSV,1,1,01,04' |
016: 2c30 382c 3038 352c 2c30 2a34 340d 0a    | b',08,085,,0*44\r\n' |
<NMEA(GBGSV, numMsg=2, msgNum=1, numSV=7, svid_01=19, elv_01=31.0, az_01=302, cno_01=26, svid_02=20, elv_02=79.0, az_02=349, cno_02=34, svid_03=23, elv_03=28.0, az_03=49, cno_03=18, svid_04=29, elv_04=4.0, az_04=246, cno_04=11, signalID=1)>000: 2447 4247 5356 2c32 2c31 2c30 372c 3139  | b'$GBGSV,2,1,07,19' |
016: 2c33 312c 3330 322c 3236 2c32 302c 3739  | b',31,302,26,20,79' |
032: 2c33 3439 2c33 342c 3233 2c32 382c 3034  | b',349,34,23,28,04' |
048: 392c 3138 2c32 392c 3034 2c32 3436 2c31  | b'9,18,29,04,246,1' |
064: 312c 312a 3738 0d0a                      | b'1,1*78\r\n' |
<NMEA(GBGSV, numMsg=2, msgNum=2, numSV=7, svid_01=32, elv_01=37.0, az_01=109, cno_01=24, svid_02=35, elv_02=9.0, az_02=297, cno_02=14, svid_03=37, elv_03=61.0, az_03=117, cno_03=36, signalID=1)>000: 2447 4247 5356 2c32 2c32 2c30 372c 3332  | b'$GBGSV,2,2,07,32' |
016: 2c33 372c 3130 392c 3234 2c33 352c 3039  | b',37,109,24,35,09' |
032: 2c32 3937 2c31 342c 3337 2c36 312c 3131  | b',297,14,37,61,11' |
048: 372c 3336 2c31 2a34 440d 0a              | b'7,36,1*4D\r\n' |
<NMEA(GNGLL, lat=43.882654495, NS=N, lon=-72.1578662117, EW=W, time=20:26:29.750000, status=A, posMode=A)>000: 2447 4e47 4c4c 2c34 3335 322e 3935 3932  | b'$GNGLL,4352.9592' |
016: 3639 372c 4e2c 3037 3230 392e 3437 3139  | b'697,N,07209.4719' |
032: 3732 372c 572c 3230 3236 3239 2e37 352c  | b'727,W,202629.75,' |
048: 412c 412a 3630 0d0a                      | b'A,A*60\r\n' |
<NMEA(GNRMC, time=20:26:30, status=A, lat=43.8826545617, NS=N, lon=-72.1578652783, EW=W, spd=0.499, cog=, date=2023-09-05, mv=, mvEW=, posMode=A, navStatus=V)>000: 2447 4e52 4d43 2c32 3032 3633 302e 3030  | b'$GNRMC,202630.00' |
016: 2c41 2c34 3335 322e 3935 3932 3733 372c  | b',A,4352.9592737,' |
032: 4e2c 3037 3230 392e 3437 3139 3136 372c  | b'N,07209.4719167,' |
048: 572c 302e 3439 392c 2c30 3530 3932 332c  | b'W,0.499,,050923,' |
064: 2c2c 412c 562a 3039 0d0a                 | b',,A,V*09\r\n' |
<NMEA(GNVTG, cogt=, cogtUnit=T, cogm=, cogmUnit=M, sogn=0.499, sognUnit=N, sogk=0.923, sogkUnit=K, posMode=A)>000: 2447 4e56 5447 2c2c 542c 2c4d 2c30 2e34  | b'$GNVTG,,T,,M,0.4' |
016: 3939 2c4e 2c30 2e39 3233 2c4b 2c41 2a33  | b'99,N,0.923,K,A*3' |
032: 310d 0a                                  | b'1\r\n' |
<NMEA(GNGGA, time=20:26:30, lat=43.8826545617, NS=N, lon=-72.1578652783, EW=W, quality=1, numSV=12, HDOP=0.52, alt=137.959, altUnit=M, sep=-32.547, sepUnit=M, diffAge=, diffStation=)>000: 2447 4e47 4741 2c32 3032 3633 302e 3030  | b'$GNGGA,202630.00' |
016: 2c34 3335 322e 3935 3932 3733 372c 4e2c  | b',4352.9592737,N,' |
032: 3037 3230 392e 3437 3139 3136 372c 572c  | b'07209.4719167,W,' |
048: 312c 3132 2c30 2e35 322c 3133 372e 3935  | b'1,12,0.52,137.95' |
064: 392c 4d2c 2d33 322e 3534 372c 4d2c 2c2a  | b'9,M,-32.547,M,,*' |
080: 3738 0d0a                                | b'78\r\n' |
<NMEA(GNGSA, opMode=A, navMode=3, svid_01=25, svid_02=2, svid_03=21, svid_04=28, svid_05=12, svid_06=10, svid_07=24, svid_08=23, svid_09=32, svid_10=, svid_11=, svid_12=, PDOP=1.04, HDOP=0.52, VDOP=0.9, systemId=1)>000: 2447 4e47 5341 2c41 2c33 2c32 352c 3032  | b'$GNGSA,A,3,25,02' |
016: 2c32 312c 3238 2c31 322c 3130 2c32 342c  | b',21,28,12,10,24,' |
032: 3233 2c33 322c 2c2c 2c31 2e30 342c 302e  | b'23,32,,,,1.04,0.' |
048: 3532 2c30 2e39 302c 312a 3032 0d0a       | b'52,0.90,1*02\r\n' |
<NMEA(GNGSA, opMode=A, navMode=3, svid_01=87, svid_02=73, svid_03=71, svid_04=80, svid_05=70, svid_06=72, svid_07=74, svid_08=, svid_09=, svid_10=, svid_11=, svid_12=, PDOP=1.04, HDOP=0.52, VDOP=0.9, systemId=2)>000: 2447 4e47 5341 2c41 2c33 2c38 372c 3733  | b'$GNGSA,A,3,87,73' |
016: 2c37 312c 3830 2c37 302c 3732 2c37 342c  | b',71,80,70,72,74,' |
032: 2c2c 2c2c 2c31 2e30 342c 302e 3532 2c30  | b',,,,,1.04,0.52,0' |
048: 2e39 302c 322a 3044 0d0a                 | b'.90,2*0D\r\n' |
<NMEA(GNGSA, opMode=A, navMode=3, svid_01=15, svid_02=31, svid_03=36, svid_04=34, svid_05=3, svid_06=9, svid_07=24, svid_08=5, svid_09=, svid_10=, svid_11=, svid_12=, PDOP=1.04, HDOP=0.52, VDOP=0.9, systemId=3)>000: 2447 4e47 5341 2c41 2c33 2c31 352c 3331  | b'$GNGSA,A,3,15,31' |
016: 2c33 362c 3334 2c30 332c 3039 2c32 342c  | b',36,34,03,09,24,' |
032: 3035 2c2c 2c2c 2c31 2e30 342c 302e 3532  | b'05,,,,,1.04,0.52' |
048: 2c30 2e39 302c 332a 3035 0d0a            | b',0.90,3*05\r\n' |
<NMEA(GNGSA, opMode=A, navMode=3, svid_01=37, svid_02=23, svid_03=32, svid_04=19, svid_05=20, svid_06=, svid_07=, svid_08=, svid_09=, svid_10=, svid_11=, svid_12=, PDOP=1.04, HDOP=0.52, VDOP=0.9, systemId=4)>000: 2447 4e47 5341 2c41 2c33 2c33 372c 3233  | b'$GNGSA,A,3,37,23' |
016: 2c33 322c 3139 2c32 302c 2c2c 2c2c 2c2c  | b',32,19,20,,,,,,,' |
032: 2c31 2e30 342c 302e 3532 2c30 2e39 302c  | b',1.04,0.52,0.90,' |
048: 342a 3031 0d0a                           | b'4*01\r\n' |
<NMEA(GPGSV, numMsg=3, msgNum=1, numSV=11, svid_01=2, elv_01=18.0, az_01=314, cno_01=20, svid_02=10, elv_02=84.0, az_02=208, cno_02=36, svid_03=12, elv_03=30.0, az_03=92, cno_03=24, svid_04=15, elv_04=2.0, az_04=93, cno_04=12, signalID=1)>000: 2447 5047 5356 2c33 2c31 2c31 312c 3032  | b'$GPGSV,3,1,11,02' |
016: 2c31 382c 3331 342c 3230 2c31 302c 3834  | b',18,314,20,10,84' |
032: 2c32 3038 2c33 362c 3132 2c33 302c 3039  | b',208,36,12,30,09' |
048: 322c 3234 2c31 352c 3032 2c30 3933 2c31  | b'2,24,15,02,093,1' |
064: 322c 312a 3639 0d0a                      | b'2,1*69\r\n' |
<NMEA(GPGSV, numMsg=3, msgNum=2, numSV=11, svid_01=18, elv_01=0.0, az_01=182, cno_01=11, svid_02=21, elv_02=22.0, az_02=306, cno_02=21, svid_03=23, elv_03=46.0, az_03=144, cno_03=26, svid_04=24, elv_04=28.0, az_04=52, cno_04=16, signalID=1)>000: 2447 5047 5356 2c33 2c32 2c31 312c 3138  | b'$GPGSV,3,2,11,18' |
016: 2c30 302c 3138 322c 3131 2c32 312c 3232  | b',00,182,11,21,22' |
032: 2c33 3036 2c32 312c 3233 2c34 362c 3134  | b',306,21,23,46,14' |
048: 342c 3236 2c32 342c 3238 2c30 3532 2c31  | b'4,26,24,28,052,1' |
064: 362c 312a 3638 0d0a                      | b'6,1*68\r\n' |
<NMEA(GPGSV, numMsg=3, msgNum=3, numSV=11, svid_01=25, elv_01=26.0, az_01=139, cno_01=20, svid_02=28, elv_02=29.0, az_02=220, cno_02=19, svid_03=32, elv_03=55.0, az_03=292, cno_03=26, signalID=1)>000: 2447 5047 5356 2c33 2c33 2c31 312c 3235  | b'$GPGSV,3,3,11,25' |
016: 2c32 362c 3133 392c 3230 2c32 382c 3239  | b',26,139,20,28,29' |
032: 2c32 3230 2c31 392c 3332 2c35 352c 3239  | b',220,19,32,55,29' |
048: 322c 3236 2c31 2a35 420d 0a              | b'2,26,1*5B\r\n' |
<NMEA(GPGSV, numMsg=1, msgNum=1, numSV=2, svid_01=10, elv_01=84.0, az_01=208, cno_01=16, svid_02=23, elv_02=46.0, az_02=144, cno_02=12, signalID=6)>000: 2447 5047 5356 2c31 2c31 2c30 322c 3130  | b'$GPGSV,1,1,02,10' |
016: 2c38 342c 3230 382c 3136 2c32 332c 3436  | b',84,208,16,23,46' |
032: 2c31 3434 2c31 322c 362a 3630 0d0a       | b',144,12,6*60\r\n' |
<NMEA(GPGSV, numMsg=1, msgNum=1, numSV=3, svid_01=31, elv_01=0.0, az_01=221, cno_01=, svid_02=44, elv_02=23.0, az_02=235, cno_02=, svid_03=46, elv_03=15.0, az_03=246, cno_03=, signalID=0)>000: 2447 5047 5356 2c31 2c31 2c30 332c 3331  | b'$GPGSV,1,1,03,31' |
016: 2c30 302c 3232 312c 2c34 342c 3233 2c32  | b',00,221,,44,23,2' |
032: 3335 2c2c 3436 2c31 352c 3234 362c 2c30  | b'35,,46,15,246,,0' |
048: 2a35 360d 0a                             | b'*56\r\n' |
<NMEA(GLGSV, numMsg=2, msgNum=1, numSV=7, svid_01=70, elv_01=47.0, az_01=83, cno_01=16, svid_02=71, elv_02=60.0, az_02=343, cno_02=32, svid_03=72, elv_03=20.0, az_03=303, cno_03=17, svid_04=73, elv_04=53.0, az_04=146, cno_04=32, signalID=1)>000: 2447 4c47 5356 2c32 2c31 2c30 372c 3730  | b'$GLGSV,2,1,07,70' |
016: 2c34 372c 3038 332c 3136 2c37 312c 3630  | b',47,083,16,71,60' |
032: 2c33 3433 2c33 322c 3732 2c32 302c 3330  | b',343,32,72,20,30' |
048: 332c 3137 2c37 332c 3533 2c31 3436 2c33  | b'3,17,73,53,146,3' |
064: 322c 312a 3730 0d0a                      | b'2,1*70\r\n' |
<NMEA(GLGSV, numMsg=2, msgNum=2, numSV=7, svid_01=74, elv_01=16.0, az_01=181, cno_01=8, svid_02=80, elv_02=44.0, az_02=50, cno_02=28, svid_03=87, elv_03=23.0, az_03=305, cno_03=21, signalID=1)>000: 2447 4c47 5356 2c32 2c32 2c30 372c 3734  | b'$GLGSV,2,2,07,74' |
016: 2c31 362c 3138 312c 3038 2c38 302c 3434  | b',16,181,08,80,44' |
032: 2c30 3530 2c32 382c 3837 2c32 332c 3330  | b',050,28,87,23,30' |
048: 352c 3231 2c31 2a34 370d 0a              | b'5,21,1*47\r\n' |
<NMEA(GLGSV, numMsg=1, msgNum=1, numSV=3, svid_01=79, elv_01=1.0, az_01=21, cno_01=, svid_02=86, elv_02=18.0, az_02=248, cno_02=, svid_03=88, elv_03=4.0, az_03=352, cno_03=, signalID=0)>000: 2447 4c47 5356 2c31 2c31 2c30 332c 3739  | b'$GLGSV,1,1,03,79' |
016: 2c30 312c 3032 312c 2c38 362c 3138 2c32  | b',01,021,,86,18,2' |
032: 3438 2c2c 3838 2c30 342c 3335 322c 2c30  | b'48,,88,04,352,,0' |
048: 2a34 460d 0a                             | b'*4F\r\n' |
<NMEA(GAGSV, numMsg=2, msgNum=1, numSV=8, svid_01=3, elv_01=11.0, az_01=275, cno_01=11, svid_02=5, elv_02=60.0, az_02=296, cno_02=24, svid_03=9, elv_03=55.0, az_03=67, cno_03=30, svid_04=15, elv_04=18.0, az_04=320, cno_04=19, signalID=7)>000: 2447 4147 5356 2c32 2c31 2c30 382c 3033  | b'$GAGSV,2,1,08,03' |
016: 2c31 312c 3237 352c 3131 2c30 352c 3630  | b',11,275,11,05,60' |
032: 2c32 3936 2c32 342c 3039 2c35 352c 3036  | b',296,24,09,55,06' |
048: 372c 3330 2c31 352c 3138 2c33 3230 2c31  | b'7,30,15,18,320,1' |
064: 392c 372a 3743 0d0a                      | b'9,7*7C\r\n' |
<NMEA(GAGSV, numMsg=2, msgNum=2, numSV=8, svid_01=24, elv_01=25.0, az_01=144, cno_01=19, svid_02=31, elv_02=35.0, az_02=86, cno_02=24, svid_03=34, elv_03=38.0, az_03=266, cno_03=29, svid_04=36, elv_04=21.0, az_04=208, cno_04=20, signalID=7)>000: 2447 4147 5356 2c32 2c32 2c30 382c 3234  | b'$GAGSV,2,2,08,24' |
016: 2c32 352c 3134 342c 3139 2c33 312c 3335  | b',25,144,19,31,35' |
032: 2c30 3836 2c32 342c 3334 2c33 382c 3236  | b',086,24,34,38,26' |
048: 362c 3239 2c33 362c 3231 2c32 3038 2c32  | b'6,29,36,21,208,2' |
064: 302c 372a 3734 0d0a                      | b'0,7*74\r\n' |
<NMEA(GAGSV, numMsg=1, msgNum=1, numSV=1, svid_01=4, elv_01=8.0, az_01=85, cno_01=, signalID=0)>000: 2447 4147 5356 2c31 2c31 2c30 312c 3034  | b'$GAGSV,1,1,01,04' |
016: 2c30 382c 3038 352c 2c30 2a34 340d 0a    | b',08,085,,0*44\r\n' |
<NMEA(GNTXT, numMsg=1, msgNum=1, msgType=0, text=txbuf alloc)>000: 2447 4e54 5854 2c30 312c 3031 2c30 302c  | b'$GNTXT,01,01,00,' |
016: 7478 6275 6620 616c 6c6f 632a 3631 0d0a  | b'txbuf alloc*61\r\n' |
<NMEA(GNRMC, time=20:26:30.250000, status=A, lat=43.882654515, NS=N, lon=-72.1578644167, EW=W, spd=0.505, cog=, date=2023-09-05, mv=, mvEW=, posMode=A, navStatus=V)>000: 2447 4e52 4d43 2c32 3032 3633 302e 3235  | b'$GNRMC,202630.25' |
016: 2c41 2c34 3335 322e 3935 3932 3730 392c  | b',A,4352.9592709,' |
032: 4e2c 3037 3230 392e 3437 3138 3635 302c  | b'N,07209.4718650,' |
048: 572c 302e 3530 352c 2c30 3530 3932 332c  | b'W,0.505,,050923,' |
064: 2c2c 412c 562a 3035 0d0a                 | b',,A,V*05\r\n' |
<NMEA(GNVTG, cogt=, cogtUnit=T, cogm=, cogmUnit=M, sogn=0.505, sognUnit=N, sogk=0.936, sogkUnit=K, posMode=A)>000: 2447 4e56 5447 2c2c 542c 2c4d 2c30 2e35  | b'$GNVTG,,T,,M,0.5' |
016: 3035 2c4e 2c30 2e39 3336 2c4b 2c41 2a33  | b'05,N,0.936,K,A*3' |
032: 310d 0a                                  | b'1\r\n' |
<NMEA(GNGGA, time=20:26:30.250000, lat=43.882654515, NS=N, lon=-72.1578644167, EW=W, quality=1, numSV=12, HDOP=0.55, alt=137.944, altUnit=M, sep=-32.547, sepUnit=M, diffAge=, diffStation=)>000: 2447 4e47 4741 2c32 3032 3633 302e 3235  | b'$GNGGA,202630.25' |
