<NMEA(GNRMC, time=20:22:27.250000, status=A, lat=43.8828245817, NS=N, lon=-72.1582687417, EW=W, spd=0.17, cog=, date=2023-09-05, mv=, mvEW=, posMode=A, navStatus=V)>000: 2447 4e52 4d43 2c32 3032 3232 372e 3235  | b'$GNRMC,202227.25' |
016: 2c41 2c34 3335 322e 3936 3934 3734 392c  | b',A,4352.9694749,' |
032: 4e2c 3037 3230 392e 3439 3631 3234 352c  | b'N,07209.4961245,' |
048: 572c 302e 3137 302c 2c30 3530 3932 332c  | b'W,0.170,,050923,' |
064: 2c2c 412c 562a 3030 0d0a                 | b',,A,V*00\r\n' |
<NMEA(GNVTG, cogt=, cogtUnit=T, cogm=, cogmUnit=M, sogn=0.17, sognUnit=N, sogk=0.314, sogkUnit=K, posMode=A)>000: 2447 4e56 5447 2c2c 542c 2c4d 2c30 2e31  | b'$GNVTG,,T,,M,0.1' |
016: 3730 2c4e 2c30 2e33 3134 2c4b 2c41 2a33  | b'70,N,0.314,K,A*3' |
032: 440d 0a                                  | b'D\r\n' |
<NMEA(GNGGA, time=20:22:27.250000, lat=43.8828245817, NS=N, lon=-72.1582687417, EW=W, quality=1, numSV=12, HDOP=0.55, alt=136.894, altUnit=M, sep=-32.547, sepUnit=M, diffAge=, diffStation=)>000: 2447 4e47 4741 2c32 3032 3232 372e 3235  | b'$GNGGA,202227.25' |
016: 2c34 3335 322e 3936 3934 3734 392c 4e2c  | b',4352.9694749,N,' |
032: 3037 3230 392e 3439 3631 3234 352c 572c  | b'07209.4961245,W,' |
048: 312c 3132 2c30 2e35 352c 3133 362e 3839  | b'1,12,0.55,136.89' |
064: 342c 4d2c 2d33 322e 3534 372c 4d2c 2c2a  | b'4,M,-32.547,M,,*' |
080: 3735 0d0a                                | b'75\r\n' |
<NMEA(GNGSA, opMode=A, navMode=3, svid_01=25, svid_02=2, svid_03=21, svid_04=28, svid_05=10, svid_06=12, svid_07=24, svid_08=23, svid_09=32, svid_10=, svid_11=, svid_12=, PDOP=1.08, HDOP=0.55, VDOP=0.93, systemId=1)>000: 2447 4e47 5341 2c41 2c33 2c32 352c 3032  | b'$GNGSA,A,3,25,02' |
016: 2c32 312c 3238 2c31 302c 3132 2c32 342c  | b',21,28,10,12,24,' |
032: 3233 2c33 322c 2c2c 2c31 2e30 382c 302e  | b'23,32,,,,1.08,0.' |
048: 3535 2c30 2e39 332c 312a 3041 0d0a       | b'55,0.93,1*0A\r\n' |
<NMEA(GNGSA, opMode=A, navMode=3, svid_01=87, svid_02=72, svid_03=80, svid_04=71, svid_05=70, svid_06=73, svid_07=, svid_08=, svid_09=, svid_10=, svid_11=, svid_12=, PDOP=1.08, HDOP=0.55, VDOP=0.93, systemId=2)>000: 2447 4e47 5341 2c41 2c33 2c38 372c 3732  | b'$GNGSA,A,3,87,72' |
016: 2c38 302c 3731 2c37 302c 3733 2c2c 2c2c  | b',80,71,70,73,,,,' |
032: 2c2c 2c31 2e30 382c 302e 3535 2c30 2e39  | b',,,1.08,0.55,0.9' |
048: 332c 322a 3036 0d0a                      | b'3,2*06\r\n' |
<NMEA(GNGSA, opMode=A, navMode=3, svid_01=36, svid_02=15, svid_03=5, svid_04=31, svid_05=34, svid_06=3, svid_07=9, svid_08=24, svid_09=, svid_10=, svid_11=, svid_12=, PDOP=1.08, HDOP=0.55, VDOP=0.93, systemId=3)>000: 2447 4e47 5341 2c41 2c33 2c33 362c 3135  | b'$GNGSA,A,3,36,15' |
016: 2c30 352c 3331 2c33 342c 3033 2c30 392c  | b',05,31,34,03,09,' |
032: 3234 2c2c 2c2c 2c31 2e30 382c 302e 3535  | b'24,,,,,1.08,0.55' |
048: 2c30 2e39 332c 332a 3044 0d0a            | b',0.93,3*0D\r\n' |
<NMEA(GNGSA, opMode=A, navMode=3, svid_01=37, svid_02=23, svid_03=32, svid_04=20, svid_05=19, svid_06=, svid_07=, svid_08=, svid_09=, svid_10=, svid_11=, svid_12=, PDOP=1.08, HDOP=0.55, VDOP=0.93, systemId=4)>000: 2447 4e47 5341 2c41 2c33 2c33 372c 3233  | b'$GNGSA,A,3,37,23' |
016: 2c33 322c 3230 2c31 392c 2c2c 2c2c 2c2c  | b',32,20,19,,,,,,,' |
032: 2c31 2e30 382c 302e 3535 2c30 2e39 332c  | b',1.08,0.55,0.93,' |
048: 342a 3039 0d0a                           | b'4*09\r\n' |
<NMEA(GPGSV, numMsg=3, msgNum=1, numSV=10, svid_01=2, elv_01=17.0, az_01=316, cno_01=15, svid_02=10, elv_02=85.0, az_02=227, cno_02=34, svid_03=12, elv_03=30.0, az_03=94, cno_03=12, svid_04=18, elv_04=1.0, az_04=183, cno_04=13, signalID=1)>000: 2447 5047 5356 2c33 2c31 2c31 302c 3032  | b'$GPGSV,3,1,10,02' |
016: 2c31 372c 3331 362c 3135 2c31 302c 3835  | b',17,316,15,10,85' |
032: 2c32 3237 2c33 342c 3132 2c33 302c 3039  | b',227,34,12,30,09' |
048: 342c 3132 2c31 382c 3031 2c31 3833 2c31  | b'4,12,18,01,183,1' |
064: 332c 312a 3631 0d0a                      | b'3,1*61\r\n' |
<NMEA(GPGSV, numMsg=3, msgNum=2, numSV=10, svid_01=21, elv_01=21.0, az_01=308, cno_01=19, svid_02=23, elv_02=48.0, az_02=143, cno_02=26, svid_03=24, elv_03=30.0, az_03=52, cno_03=24, svid_04=25, elv_04=24.0, az_04=141, cno_04=19, signalID=1)>000: 2447 5047 5356 2c33 2c32 2c31 302c 3231  | b'$GPGSV,3,2,10,21' |
016: 2c32 312c 3330 382c 3139 2c32 332c 3438  | b',21,308,19,23,48' |
032: 2c31 3433 2c32 362c 3234 2c33 302c 3035  | b',143,26,24,30,05' |
048: 322c 3234 2c32 352c 3234 2c31 3431 2c31  | b'2,24,25,24,141,1' |
064: 392c 312a 3631 0d0a                      | b'9,1*61\r\n' |
<NMEA(GPGSV, numMsg=3, msgNum=3, numSV=10, svid_01=28, elv_01=27.0, az_01=219, cno_01=9, svid_02=32, elv_02=53.0, az_02=290, cno_02=31, signalID=1)>000: 2447 5047 5356 2c33 2c33 2c31 302c 3238  | b'$GPGSV,3,3,10,28' |
016: 2c32 372c 3231 392c 3039 2c33 322c 3533  | b',27,219,09,32,53' |
032: 2c32 3930 2c33 312c 312a 3637 0d0a       | b',290,31,1*67\r\n' |
<NMEA(GPGSV, numMsg=1, msgNum=1, numSV=3, svid_01=10, elv_01=85.0, az_01=227, cno_01=17, svid_02=23, elv_02=48.0, az_02=143, cno_02=14, svid_03=32, elv_03=53.0, az_03=290, cno_03=16, signalID=6)>000: 2447 5047 5356 2c31 2c31 2c30 332c 3130  | b'$GPGSV,1,1,03,10' |
016: 2c38 352c 3232 372c 3137 2c32 332c 3438  | b',85,227,17,23,48' |
032: 2c31 3433 2c31 342c 3332 2c35 332c 3239  | b',143,14,32,53,29' |
048: 302c 3136 2c36 2a35 380d 0a              | b'0,16,6*58\r\n' |
<NMEA(GPGSV, numMsg=1, msgNum=1, numSV=3, svid_01=15, elv_01=3.0, az_01=92, cno_01=, svid_02=44, elv_02=23.0, az_02=235, cno_02=, svid_03=46, elv_03=15.0, az_03=246, cno_03=, signalID=0)>000: 2447 5047 5356 2c31 2c31 2c30 332c 3135  | b'$GPGSV,1,1,03,15' |
016: 2c30 332c 3039 322c 2c34 342c 3233 2c32  | b',03,092,,44,23,2' |
032: 3335 2c2c 3436 2c31 352c 3234 362c 2c30  | b'35,,46,15,246,,0' |
048: 2a35 390d 0a                             | b'*59\r\n' |
<NMEA(GLGSV, numMsg=2, msgNum=1, numSV=7, svid_01=70, elv_01=48.0, az_01=81, cno_01=12, svid_02=71, elv_02=59.0, az_02=339, cno_02=33, svid_03=72, elv_03=18.0, az_03=301, cno_03=15, svid_04=73, elv_04=51.0, az_04=148, cno_04=31, signalID=1)>000: 2447 4c47 5356 2c32 2c31 2c30 372c 3730  | b'$GLGSV,2,1,07,70' |
016: 2c34 382c 3038 312c 3132 2c37 312c 3539  | b',48,081,12,71,59' |
032: 2c33 3339 2c33 332c 3732 2c31 382c 3330  | b',339,33,72,18,30' |
048: 312c 3135 2c37 332c 3531 2c31 3438 2c33  | b'1,15,73,51,148,3' |
064: 312c 312a 3742 0d0a                      | b'1,1*7B\r\n' |
<NMEA(GLGSV, numMsg=2, msgNum=2, numSV=7, svid_01=74, elv_01=14.0, az_01=181, cno_01=10, svid_02=80, elv_02=46.0, az_02=52, cno_02=30, svid_03=87, elv_03=23.0, az_03=308, cno_03=17, signalID=1)>000: 2447 4c47 5356 2c32 2c32 2c30 372c 3734  | b'$GLGSV,2,2,07,74' |
016: 2c31 342c 3138 312c 3130 2c38 302c 3436  | b',14,181,10,80,46' |
032: 2c30 3532 2c33 302c 3837 2c32 332c 3330  | b',052,30,87,23,30' |
048: 382c 3137 2c31 2a34 440d 0a              | b'8,17,1*4D\r\n' |
<NMEA(GLGSV, numMsg=1, msgNum=1, numSV=3, svid_01=79, elv_01=3.0, az_01=21, cno_01=, svid_02=86, elv_02=20.0, az_02=250, cno_02=, svid_03=88, elv_03=3.0, az_03=353, cno_03=, signalID=0)>000: 2447 4c47 5356 2c31 2c31 2c30 332c 3739  | b'$GLGSV,1,1,03,79' |
016: 2c30 332c 3032 312c 2c38 362c 3230 2c32  | b',03,021,,86,20,2' |
032: 3530 2c2c 3838 2c30 332c 3335 332c 2c30  | b'50,,88,03,353,,0' |
048: 2a34 390d 0a                             | b'*49\r\n' |
<NMEA(GAGSV, numMsg=2, msgNum=1, numSV=8, svid_01=3, elv_01=10.0, az_01=273, cno_01=9, svid_02=5, elv_02=59.0, az_02=294, cno_02=22, svid_03=9, elv_03=57.0, az_03=65, cno_03=23, svid_04=15, elv_04=18.0, az_04=321, cno_04=18, signalID=7)>000: 2447 4147 5356 2c32 2c31 2c30 382c 3033  | b'$GAGSV,2,1,08,03' |
016: 2c31 302c 3237 332c 3039 2c30 352c 3539  | b',10,273,09,05,59' |
032: 2c32 3934 2c32 322c 3039 2c35 372c 3036  | b',294,22,09,57,06' |
048: 352c 3233 2c31 352c 3138 2c33 3231 2c31  | b'5,23,15,18,321,1' |
064: 382c 372a 3745 0d0a                      | b'8,7*7E\r\n' |
<NMEA(GAGSV, numMsg=2, msgNum=2, numSV=8, svid_01=24, elv_01=23.0, az_01=145, cno_01=23, svid_02=31, elv_02=34.0, az_02=88, cno_02=16, svid_03=34, elv_03=38.0, az_03=268, cno_03=21, svid_04=36, elv_04=23.0, az_04=209, cno_04=10, signalID=7)>000: 2447 4147 5356 2c32 2c32 2c30 382c 3234  | b'$GAGSV,2,2,08,24' |
016: 2c32 332c 3134 352c 3233 2c33 312c 3334  | b',23,145,23,31,34' |
032: 2c30 3838 2c31 362c 3334 2c33 382c 3236  | b',088,16,34,38,26' |
048: 382c 3231 2c33 362c 3233 2c32 3039 2c31  | b'8,21,36,23,209,1' |
064: 302c 372a 3732 0d0a                      | b'0,7*72\r\n' |
<NMEA(GAGSV, numMsg=1, msgNum=1, numSV=1, svid_01=4, elv_01=9.0, az_01=84, cno_01=, signalID=0)>000: 2447 4147 5356 2c31 2c31 2c30 312c 3034  | b'$GAGSV,1,1,01,04' |
016: 2c30 392c 3038 342c 2c30 2a34 340d 0a    | b',09,084,,0*44\r\n' |
<NMEA(GBGSV, numMsg=2, msgNum=1, numSV=6, svid_01=19, elv_01=29.0, az_01=302, cno_01=18, svid_02=20, elv_02=78.0, az_02=343, cno_02=34, svid_03=23, elv_03=30.0, az_03=50, cno_03=26, svid_04=32, elv_04=38.0, az_04=108, cno_04=20, signalID=1)>000: 2447 4247 5356 2c32 2c31 2c30 362c 3139  | b'$GBGSV,2,1,06,19' |
016: 2c32 392c 3330 322c 3138 2c32 302c 3738  | b',29,302,18,20,78' |
032: 2c33 3433 2c33 342c 3233 2c33 302c 3035  | b',343,34,23,30,05' |
048: 302c 3236 2c33 322c 3338 2c31 3038 2c32  | b'0,26,32,38,108,2' |
064: 302c 312a 3734 0d0a                      | b'0,1*74\r\n' |
<NMEA(GBGSV, numMsg=2, msgNum=2, numSV=6, svid_01=35, elv_01=9.0, az_01=299, cno_01=9, svid_02=37, elv_02=60.0, az_02=120, cno_02=34, signalID=1)>000: 2447 4247 5356 2c32 2c32 2c30 362c 3335  | b'$GBGSV,2,2,06,35' |
016: 2c30 392c 3239 392c 3039 2c33 372c 3630  | b',09,299,09,37,60' |
032: 2c31 3230 2c33 342c 312a 3732 0d0a       | b',120,34,1*72\r\n' |
<NMEA(GBGSV, numMsg=1, msgNum=1, numSV=1, svid_01=29, elv_01=5.0, az_01=247, cno_01=, signalID=0)>000: 2447 4247 5356 2c31 2c31 2c30 312c 3239  | b'$GBGSV,1,1,01,29' |
016: 2c30 352c 3234 372c 2c30 2a34 390d 0a    | b',05,247,,0*49\r\n' |
<NMEA(GNGLL, lat=43.8828245817, NS=N, lon=-72.1582687417, EW=W, time=20:22:27.250000, status=A, posMode=A)>000: 2447 4e47 4c4c 2c34 3335 322e 3936 3934  | b'$GNGLL,4352.9694' |
016: 3734 392c 4e2c 3037 3230 392e 3439 3631  | b'749,N,07209.4961' |
032: 3234 352c 572c 3230 3232 3237 2e32 352c  | b'245,W,202227.25,' |
048: 412c 412a 3638 0d0a                      | b'A,A*68\r\n' |
<NMEA(GNRMC, time=20:22:27.500000, status=A, lat=43.8828245083, NS=N, lon=-72.15826836, EW=W, spd=0.121, cog=, date=2023-09-05, mv=, mvEW=, posMode=A, navStatus=V)>000: 2447 4e52 4d43 2c32 3032 3232 372e 3530  | b'$GNRMC,202227.50' |
016: 2c41 2c34 3335 322e 3936 3934 3730 352c  | b',A,4352.9694705,' |
032: 4e2c 3037 3230 392e 3439 3631 3031 362c  | b'N,07209.4961016,' |
048: 572c 302e 3132 312c 2c30 3530 3932 332c  | b'W,0.121,,050923,' |
064: 2c2c 412c 562a 3041 0d0a                 | b',,A,V*0A\r\n' |
<NMEA(GNVTG, cogt=, cogtUnit=T, cogm=, cogmUnit=M, sogn=0.121, sognUnit=N, sogk=0.224, sogkUnit=K, posMode=A)>000: 2447 4e56 5447 2c2c 542c 2c4d 2c30 2e31  | b'$GNVTG,,T,,M,0.1' |
016: 3231 2c4e 2c30 2e32 3234 2c4b 2c41 2a33  | b'21,N,0.224,K,A*3' |
032: 420d 0a                                  | b'B\r\n' |
<NMEA(GNGGA, time=20:22:27.500000, lat=43.8828245083, NS=N, lon=-72.15826836, EW=W, quality=1, numSV=12, HDOP=0.55, alt=136.94, altUnit=M, sep=-32.547, sepUnit=M, diffAge=, diffStation=)>000: 2447 4e47 4741 2c32 3032 3232 372e 3530  | b'$GNGGA,202227.50' |
016: 2c34 3335 322e 3936 3934 3730 352c 4e2c  | b',4352.9694705,N,' |
032: 3037 3230 392e 3439 3631 3031 362c 572c  | b'07209.4961016,W,' |
048: 312c 3132 2c30 2e35 352c 3133 362e 3934  | b'1,12,0.55,136.94' |
064: 302c 4d2c 2d33 322e 3534 372c 4d2c 2c2a  | b'0,M,-32.547,M,,*' |
080: 3733 0d0a                                | b'73\r\n' |
<NMEA(GNGSA, opMode=A, navMode=3, svid_01=25, svid_02=2, svid_03=21, svid_04=28, svid_05=10, svid_06=12, svid_07=24, svid_08=23, svid_09=32, svid_10=, svid_11=, svid_12=, PDOP=1.08, HDOP=0.55, VDOP=0.93, systemId=1)>000: 2447 4e47 5341 2c41 2c33 2c32 352c 3032  | b'$GNGSA,A,3,25,02' |
016: 2c32 312c 3238 2c31 302c 3132 2c32 342c  | b',21,28,10,12,24,' |
032: 3233 2c33 322c 2c2c 2c31 2e30 382c 302e  | b'23,32,,,,1.08,0.' |
048: 3535 2c30 2e39 332c 312a 3041 0d0a       | b'55,0.93,1*0A\r\n' |
<NMEA(GNGSA, opMode=A, navMode=3, svid_01=87, svid_02=72, svid_03=80, svid_04=71, svid_05=70, svid_06=73, svid_07=, svid_08=, svid_09=, svid_10=, svid_11=, svid_12=, PDOP=1.08, HDOP=0.55, VDOP=0.93, systemId=2)>000: 2447 4e47 5341 2c41 2c33 2c38 372c 3732  | b'$GNGSA,A,3,87,72' |
016: 2c38 302c 3731 2c37 302c 3733 2c2c 2c2c  | b',80,71,70,73,,,,' |
032: 2c2c 2c31 2e30 382c 302e 3535 2c30 2e39  | b',,,1.08,0.55,0.9' |
048: 332c 322a 3036 0d0a                      | b'3,2*06\r\n' |
<NMEA(GNGSA, opMode=A, navMode=3, svid_01=36, svid_02=15, svid_03=5, svid_04=31, svid_05=34, svid_06=3, svid_07=9, svid_08=24, svid_09=, svid_10=, svid_11=, svid_12=, PDOP=1.08, HDOP=0.55, VDOP=0.93, systemId=3)>000: 2447 4e47 5341 2c41 2c33 2c33 362c 3135  | b'$GNGSA,A,3,36,15' |
016: 2c30 352c 3331 2c33 342c 3033 2c30 392c  | b',05,31,34,03,09,' |
032: 3234 2c2c 2c2c 2c31 2e30 382c 302e 3535  | b'24,,,,,1.08,0.55' |
048: 2c30 2e39 332c 332a 3044 0d0a            | b',0.93,3*0D\r\n' |
<NMEA(GNGSA, opMode=A, navMode=3, svid_01=37, svid_02=23, svid_03=32, svid_04=20, svid_05=19, svid_06=, svid_07=, svid_08=, svid_09=, svid_10=, svid_11=, svid_12=, PDOP=1.08, HDOP=0.55, VDOP=0.93, systemId=4)>000: 2447 4e47 5341 2c41 2c33 2c33 372c 3233  | b'$GNGSA,A,3,37,23' |
016: 2c33 322c 3230 2c31 392c 2c2c 2c2c 2c2c  | b',32,20,19,,,,,,,' |
032: 2c31 2e30 382c 302e 3535 2c30 2e39 332c  | b',1.08,0.55,0.93,' |
048: 342a 3039 0d0a                           | b'4*09\r\n' |
<NMEA(GPGSV, numMsg=3, msgNum=1, numSV=11, svid_01=2, elv_01=17.0, az_01=316, cno_01=16, svid_02=10, elv_02=85.0, az_02=227, cno_02=34, svid_03=12, elv_03=30.0, az_03=94, cno_03=15, svid_04=15, elv_04=3.0, az_04=92, cno_04=13, signalID=1)>000: 2447 5047 5356 2c33 2c31 2c31 312c 3032  | b'$GPGSV,3,1,11,02' |
016: 2c31 372c 3331 362c 3136 2c31 302c 3835  | b',17,316,16,10,85' |
032: 2c32 3237 2c33 342c 3132 2c33 302c 3039  | b',227,34,12,30,09' |
048: 342c 3135 2c31 352c 3033 2c30 3932 2c31  | b'4,15,15,03,092,1' |
064: 332c 312a 3641 0d0a                      | b'3,1*6A\r\n' |
<NMEA(GPGSV, numMsg=3, msgNum=2, numSV=11, svid_01=18, elv_01=1.0, az_01=183, cno_01=9, svid_02=21, elv_02=21.0, az_02=308, cno_02=19, svid_03=23, elv_03=48.0, az_03=143, cno_03=26, svid_04=24, elv_04=30.0, az_04=52, cno_04=24, signalID=1)>000: 2447 5047 5356 2c33 2c32 2c31 312c 3138  | b'$GPGSV,3,2,11,18' |
016: 2c30 312c 3138 332c 3039 2c32 312c 3231  | b',01,183,09,21,21' |
032: 2c33 3038 2c31 392c 3233 2c34 382c 3134  | b',308,19,23,48,14' |
048: 332c 3236 2c32 342c 3330 2c30 3532 2c32  | b'3,26,24,30,052,2' |
064: 342c 312a 3636 0d0a                      | b'4,1*66\r\n' |
<NMEA(GPGSV, numMsg=3, msgNum=3, numSV=11, svid_01=25, elv_01=24.0, az_01=141, cno_01=20, svid_02=28, elv_02=27.0, az_02=219, cno_02=8, svid_03=32, elv_03=53.0, az_03=290, cno_03=31, signalID=1)>000: 2447 5047 5356 2c33 2c33 2c31 312c 3235  | b'$GPGSV,3,3,11,25' |
016: 2c32 342c 3134 312c 3230 2c32 382c 3237  | b',24,141,20,28,27' |
032: 2c32 3139 2c30 382c 3332 2c35 332c 3239  | b',219,08,32,53,29' |
048: 302c 3331 2c31 2a35 300d 0a              | b'0,31,1*50\r\n' |
<NMEA(GPGSV, numMsg=1, msgNum=1, numSV=3, svid_01=10, elv_01=85.0, az_01=227, cno_01=17, svid_02=23, elv_02=48.0, az_02=143, cno_02=14, svid_03=32, elv_03=53.0, az_03=290, cno_03=15, signalID=6)>000: 2447 5047 5356 2c31 2c31 2c30 332c 3130  | b'$GPGSV,1,1,03,10' |
016: 2c38 352c 3232 372c 3137 2c32 332c 3438  | b',85,227,17,23,48' |
032: 2c31 3433 2c31 342c 3332 2c35 332c 3239  | b',143,14,32,53,29' |
048: 302c 3135 2c36 2a35 420d 0a              | b'0,15,6*5B\r\n' |
<NMEA(GPGSV, numMsg=1, msgNum=1, numSV=2, svid_01=44, elv_01=23.0, az_01=235, cno_01=, svid_02=46, elv_02=15.0, az_02=246, cno_02=, signalID=0)>000: 2447 5047 5356 2c31 2c31 2c30 322c 3434  | b'$GPGSV,1,1,02,44' |
016: 2c32 332c 3233 352c 2c34 362c 3135 2c32  | b',23,235,,46,15,2' |
032: 3436 2c2c 302a 3634 0d0a                 | b'46,,0*64\r\n' |
<NMEA(GLGSV, numMsg=2, msgNum=1, numSV=7, svid_01=70, elv_01=48.0, az_01=81, cno_01=11, svid_02=71, elv_02=59.0, az_02=339, cno_02=33, svid_03=72, elv_03=18.0, az_03=301, cno_03=15, svid_04=73, elv_04=51.0, az_04=148, cno_04=31, signalID=1)>000: 2447 4c47 5356 2c32 2c31 2c30 372c 3730  | b'$GLGSV,2,1,07,70' |
016: 2c34 382c 3038 312c 3131 2c37 312c 3539  | b',48,081,11,71,59' |
032: 2c33 3339 2c33 332c 3732 2c31 382c 3330  | b',339,33,72,18,30' |
048: 312c 3135 2c37 332c 3531 2c31 3438 2c33  | b'1,15,73,51,148,3' |
064: 312c 312a 3738 0d0a                      | b'1,1*78\r\n' |
<NMEA(GLGSV, numMsg=2, msgNum=2, numSV=7, svid_01=74, elv_01=14.0, az_01=181, cno_01=10, svid_02=80, elv_02=46.0, az_02=52, cno_02=30, svid_03=87, elv_03=23.0, az_03=308, cno_03=18, signalID=1)>000: 2447 4c47 5356 2c32 2c32 2c30 372c 3734  | b'$GLGSV,2,2,07,74' |
016: 2c31 342c 3138 312c 3130 2c38 302c 3436  | b',14,181,10,80,46' |
032: 2c30 3532 2c33 302c 3837 2c32 332c 3330  | b',052,30,87,23,30' |
048: 382c 3138 2c31 2a34 320d 0a              | b'8,18,1*42\r\n' |
<NMEA(GLGSV, numMsg=1, msgNum=1, numSV=3, svid_01=79, elv_01=3.0, az_01=21, cno_01=, svid_02=86, elv_02=20.0, az_02=250, cno_02=, svid_03=88, elv_03=3.0, az_03=353, cno_03=, signalID=0)>000: 2447 4c47 5356 2c31 2c31 2c30 332c 3739  | b'$GLGSV,1,1,03,79' |
016: 2c30 332c 3032 312c 2c38 362c 3230 2c32  | b',03,021,,86,20,2' |
032: 3530 2c2c 3838 2c30 332c 3335 332c 2c30  | b'50,,88,03,353,,0' |
048: 2a34 390d 0a                             | b'*49\r\n' |
<NMEA(GAGSV, numMsg=2, msgNum=1, numSV=8, svid_01=3, elv_01=10.0, az_01=273, cno_01=10, svid_02=5, elv_02=59.0, az_02=294, cno_02=22, svid_03=9, elv_03=57.0, az_03=65, cno_03=23, svid_04=15, elv_04=18.0, az_04=321, cno_04=18, signalID=7)>000: 2447 4147 5356 2c32 2c31 2c30 382c 3033  | b'$GAGSV,2,1,08,03' |
016: 2c31 302c 3237 332c 3130 2c30 352c 3539  | b',10,273,10,05,59' |
032: 2c32 3934 2c32 322c 3039 2c35 372c 3036  | b',294,22,09,57,06' |
048: 352c 3233 2c31 352c 3138 2c33 3231 2c31  | b'5,23,15,18,321,1' |
064: 382c 372a 3736 0d0a                      | b'8,7*76\r\n' |
<NMEA(GAGSV, numMsg=2, msgNum=2, numSV=8, svid_01=24, elv_01=23.0, az_01=145, cno_01=23, svid_02=31, elv_02=34.0, az_02=88, cno_02=15, svid_03=34, elv_03=38.0, az_03=268, cno_03=20, svid_04=36, elv_04=23.0, az_04=209, cno_04=11, signalID=7)>000: 2447 4147 5356 2c32 2c32 2c30 382c 3234  | b'$GAGSV,2,2,08,24' |
016: 2c32 332c 3134 352c 3233 2c33 312c 3334  | b',23,145,23,31,34' |
032: 2c30 3838 2c31 352c 3334 2c33 382c 3236  | b',088,15,34,38,26' |
048: 382c 3230 2c33 362c 3233 2c32 3039 2c31  | b'8,20,36,23,209,1' |
064: 312c 372a 3731 0d0a                      | b'1,7*71\r\n' |
<NMEA(GAGSV, numMsg=1, msgNum=1, numSV=1, svid_01=4, elv_01=9.0, az_01=84, cno_01=, signalID=0)>000: 2447 4147 5356 2c31 2c31 2c30 312c 3034  | b'$GAGSV,1,1,01,04' |
016: 2c30 392c 3038 342c 2c30 2a34 340d 0a    | b',09,084,,0*44\r\n' |
<NMEA(GBGSV, numMsg=2, msgNum=1, numSV=6, svid_01=19, elv_01=29.0, az_01=302, cno_01=18, svid_02=20, elv_02=78.0, az_02=343, cno_02=34, svid_03=23, elv_03=30.0, az_03=50, cno_03=25, svid_04=32, elv_04=38.0, az_04=108, cno_04=20, signalID=1)>000: 2447 4247 5356 2c32 2c31 2c30 362c 3139  | b'$GBGSV,2,1,06,19' |
016: 2c32 392c 3330 322c 3138 2c32 302c 3738  | b',29,302,18,20,78' |
032: 2c33 3433 2c33 342c 3233 2c33 302c 3035  | b',343,34,23,30,05' |
048: 302c 3235 2c33 322c 3338 2c31 3038 2c32  | b'0,25,32,38,108,2' |
064: 302c 312a 3737 0d0a                      | b'0,1*77\r\n' |
<NMEA(GBGSV, numMsg=2, msgNum=2, numSV=6, svid_01=35, elv_01=9.0, az_01=299, cno_01=9, svid_02=37, elv_02=60.0, az_02=120, cno_02=34, signalID=1)>000: 2447 4247 5356 2c32 2c32 2c30 362c 3335  | b'$GBGSV,2,2,06,35' |
016: 2c30 392c 3239 392c 3039 2c33 372c 3630  | b',09,299,09,37,60' |
032: 2c31 3230 2c33 342c 312a 3732 0d0a       | b',120,34,1*72\r\n' |
<NMEA(GBGSV, numMsg=1, msgNum=1, numSV=1, svid_01=29, elv_01=5.0, az_01=247, cno_01=, signalID=0)>000: 2447 4247 5356 2c31 2c31 2c30 312c 3239  | b'$GBGSV,1,1,01,29' |
016: 2c30 352c 3234 372c 2c30 2a34 390d 0a    | b',05,247,,0*49\r\n' |
<NMEA(GNGLL, lat=43.8828245083, NS=N, lon=-72.15826836, EW=W, time=20:22:27.500000, status=A, posMode=A)>000: 2447 4e47 4c4c 2c34 3335 322e 3936 3934  | b'$GNGLL,4352.9694' |
016: 3730 352c 4e2c 3037 3230 392e 3439 3631  | b'705,N,07209.4961' |
032: 3031 362c 572c 3230 3232 3237 2e35 302c  | b'016,W,202227.50,' |
048: 412c 412a 3636 0d0a                      | b'A,A*66\r\n' |
<NMEA(GNRMC, time=20:22:27.750000, status=A, lat=43.8828245383, NS=N, lon=-72.1582686567, EW=W, spd=0.108, cog=, date=2023-09-05, mv=, mvEW=, posMode=A, navStatus=V)>000: 2447 4e52 4d43 2c32 3032 3232 372e 3735  | b'$GNRMC,202227.75' |
016: 2c41 2c34 3335 322e 3936 3934 3732 332c  | b',A,4352.9694723,' |
032: 4e2c 3037 3230 392e 3439 3631 3139 342c  | b'N,07209.4961194,' |
048: 572c 302e 3130 382c 2c30 3530 3932 332c  | b'W,0.108,,050923,' |
064: 2c2c 412c 562a 3039 0d0a                 | b',,A,V*09\r\n' |
<NMEA(GNVTG, cogt=, cogtUnit=T, cogm=, cogmUnit=M, sogn=0.108, sognUnit=N, sogk=0.199, sogkUnit=K, posMode=A)>000: 2447 4e56 5447 2c2c 542c 2c4d 2c30 2e31  | b'$GNVTG,,T,,M,0.1' |
016: 3038 2c4e 2c30 2e31 3939 2c4b 2c41 2a33  | b'08,N,0.199,K,A*3' |
032: 350d 0a                                  | b'5\r\n' |
<NMEA(GNGGA, time=20:22:27.750000, lat=43.8828245383, NS=N, lon=-72.1582686567, EW=W, quality=1, numSV=12, HDOP=0.55, alt=136.92, altUnit=M, sep=-32.547, sepUnit=M, diffAge=, diffStation=)>000: 2447 4e47 4741 2c32 3032 3232 372e 3735  | b'$GNGGA,202227.75' |
016: 2c34 3335 322e 3936 3934 3732 332c 4e2c  | b',4352.9694723,N,' |
032: 3037 3230 392e 3439 3631 3139 342c 572c  | b'07209.4961194,W,' |
048: 312c 3132 2c30 2e35 352c 3133 362e 3932  | b'1,12,0.55,136.92' |
064: 302c 4d2c 2d33 322e 3534 372c 4d2c 2c2a  | b'0,M,-32.547,M,,*' |
080: 3744 0d0a                                | b'7D\r\n' |
<NMEA(GNGSA, opMode=A, navMode=3, svid_01=25, svid_02=2, svid_03=21, svid_04=28, svid_05=10, svid_06=12, svid_07=24, svid_08=23, svid_09=32, svid_10=, svid_11=, svid_12=, PDOP=1.08, HDOP=0.55, VDOP=0.93, systemId=1)>000: 2447 4e47 5341 2c41 2c33 2c32 352c 3032  | b'$GNGSA,A,3,25,02' |
016: 2c32 312c 3238 2c31 302c 3132 2c32 342c  | b',21,28,10,12,24,' |
032: 3233 2c33 322c 2c2c 2c31 2e30 382c 302e  | b'23,32,,,,1.08,0.' |
048: 3535 2c30 2e39 332c 312a 3041 0d0a       | b'55,0.93,1*0A\r\n' |
<NMEA(GNGSA, opMode=A, navMode=3, svid_01=87, svid_02=72, svid_03=80, svid_04=71, svid_05=70, svid_06=73, svid_07=, svid_08=, svid_09=, svid_10=, svid_11=, svid_12=, PDOP=1.08, HDOP=0.55, VDOP=0.93, systemId=2)>000: 2447 4e47 5341 2c41 2c33 2c38 372c 3732  | b'$GNGSA,A,3,87,72' |
016: 2c38 302c 3731 2c37 302c 3733 2c2c 2c2c  | b',80,71,70,73,,,,' |
032: 2c2c 2c31 2e30 382c 302e 3535 2c30 2e39  | b',,,1.08,0.55,0.9' |
048: 332c 322a 3036 0d0a                      | b'3,2*06\r\n' |
<NMEA(GNGSA, opMode=A, navMode=3, svid_01=36, svid_02=15, svid_03=5, svid_04=31, svid_05=34, svid_06=3, svid_07=9, svid_08=24, svid_09=, svid_10=, svid_11=, svid_12=, PDOP=1.08, HDOP=0.55, VDOP=0.93, systemId=3)>000: 2447 4e47 5341 2c41 2c33 2c33 362c 3135  | b'$GNGSA,A,3,36,15' |
016: 2c30 352c 3331 2c33 342c 3033 2c30 392c  | b',05,31,34,03,09,' |
032: 3234 2c2c 2c2c 2c31 2e30 382c 302e 3535  | b'24,,,,,1.08,0.55' |
048: 2c30 2e39 332c 332a 3044 0d0a            | b',0.93,3*0D\r\n' |
<NMEA(GNGSA, opMode=A, navMode=3, svid_01=37, svid_02=23, svid_03=32, svid_04=20, svid_05=19, svid_06=, svid_07=, svid_08=, svid_09=, svid_10=, svid_11=, svid_12=, PDOP=1.08, HDOP=0.55, VDOP=0.93, systemId=4)>000: 2447 4e47 5341 2c41 2c33 2c33 372c 3233  | b'$GNGSA,A,3,37,23' |
016: 2c33 322c 3230 2c31 392c 2c2c 2c2c 2c2c  | b',32,20,19,,,,,,,' |
032: 2c31 2e30 382c 302e 3535 2c30 2e39 332c  | b',1.08,0.55,0.93,' |
048: 342a 3039 0d0a                           | b'4*09\r\n' |
<NMEA(GPGSV, numMsg=3, msgNum=1, numSV=11, svid_01=2, elv_01=17.0, az_01=316, cno_01=16, svid_02=10, elv_02=85.0, az_02=227, cno_02=33, svid_03=12, elv_03=30.0, az_03=94, cno_03=15, svid_04=15, elv_04=3.0, az_04=92, cno_04=14, signalID=1)>000: 2447 5047 5356 2c33 2c31 2c31 312c 3032  | b'$GPGSV,3,1,11,02' |
016: 2c31 372c 3331 362c 3136 2c31 302c 3835  | b',17,316,16,10,85' |
032: 2c32 3237 2c33 332c 3132 2c33 302c 3039  | b',227,33,12,30,09' |
048: 342c 3135 2c31 352c 3033 2c30 3932 2c31  | b'4,15,15,03,092,1' |
064: 342c 312a 3641 0d0a                      | b'4,1*6A\r\n' |
<NMEA(GPGSV, numMsg=3, msgNum=2, numSV=11, svid_01=18, elv_01=1.0, az_01=183, cno_01=9, svid_02=21, elv_02=21.0, az_02=308, cno_02=19, svid_03=23, elv_03=48.0, az_03=143, cno_03=26, svid_04=24, elv_04=30.0, az_04=52, cno_04=24, signalID=1)>000: 2447 5047 5356 2c33 2c32 2c31 312c 3138  | b'$GPGSV,3,2,11,18' |
016: 2c30 312c 3138 332c 3039 2c32 312c 3231  | b',01,183,09,21,21' |
032: 2c33 3038 2c31 392c 3233 2c34 382c 3134  | b',308,19,23,48,14' |
048: 332c 3236 2c32 342c 3330 2c30 3532 2c32  | b'3,26,24,30,052,2' |
064: 342c 312a 3636 0d0a                      | b'4,1*66\r\n' |
<NMEA(GPGSV, numMsg=3, msgNum=3, numSV=11, svid_01=25, elv_01=24.0, az_01=141, cno_01=20, svid_02=28, elv_02=27.0, az_02=219, cno_02=8, svid_03=32, elv_03=53.0, az_03=290, cno_03=30, signalID=1)>000: 2447 5047 5356 2c33 2c33 2c31 312c 3235  | b'$GPGSV,3,3,11,25' |
016: 2c32 342c 3134 312c 3230 2c32 382c 3237  | b',24,141,20,28,27' |
032: 2c32 3139 2c30 382c 3332 2c35 332c 3239  | b',219,08,32,53,29' |
048: 302c 3330 2c31 2a35 310d 0a              | b'0,30,1*51\r\n' |
<NMEA(GPGSV, numMsg=1, msgNum=1, numSV=3, svid_01=10, elv_01=85.0, az_01=227, cno_01=17, svid_02=23, elv_02=48.0, az_02=143, cno_02=14, svid_03=32, elv_03=53.0, az_03=290, cno_03=15, signalID=6)>000: 2447 5047 5356 2c31 2c31 2c30 332c 3130  | b'$GPGSV,1,1,03,10' |
016: 2c38 352c 3232 372c 3137 2c32 332c 3438  | b',85,227,17,23,48' |
032: 2c31 3433 2c31 342c 3332 2c35 332c 3239  | b',143,14,32,53,29' |
048: 302c 3135 2c36 2a35 420d 0a              | b'0,15,6*5B\r\n' |
<NMEA(GPGSV, numMsg=1, msgNum=1, numSV=2, svid_01=44, elv_01=23.0, az_01=235, cno_01=, svid_02=46, elv_02=15.0, az_02=246, cno_02=, signalID=0)>000: 2447 5047 5356 2c31 2c31 2c30 322c 3434  | b'$GPGSV,1,1,02,44' |
016: 2c32 332c 3233 352c 2c34 362c 3135 2c32  | b',23,235,,46,15,2' |
032: 3436 2c2c 302a 3634 0d0a                 | b'46,,0*64\r\n' |
<NMEA(GLGSV, numMsg=2, msgNum=1, numSV=7, svid_01=70, elv_01=48.0, az_01=81, cno_01=11, svid_02=71, elv_02=59.0, az_02=339, cno_02=32, svid_03=72, elv_03=18.0, az_03=301, cno_03=15, svid_04=73, elv_04=51.0, az_04=148, cno_04=31, signalID=1)>000: 2447 4c47 5356 2c32 2c31 2c30 372c 3730  | b'$GLGSV,2,1,07,70' |
016: 2c34 382c 3038 312c 3131 2c37 312c 3539  | b',48,081,11,71,59' |
032: 2c33 3339 2c33 322c 3732 2c31 382c 3330  | b',339,32,72,18,30' |
048: 312c 3135 2c37 332c 3531 2c31 3438 2c33  | b'1,15,73,51,148,3' |
064: 312c 312a 3739 0d0a                      | b'1,1*79\r\n' |
<NMEA(GLGSV, numMsg=2, msgNum=2, numSV=7, svid_01=74, elv_01=14.0, az_01=181, cno_01=10, svid_02=80, elv_02=46.0, az_02=52, cno_02=30, svid_03=87, elv_03=23.0, az_03=308, cno_03=18, signalID=1)>000: 2447 4c47 5356 2c32 2c32 2c30 372c 3734  | b'$GLGSV,2,2,07,74' |
016: 2c31 342c 3138 312c 3130 2c38 302c 3436  | b',14,181,10,80,46' |
032: 2c30 3532 2c33 302c 3837 2c32 332c 3330  | b',052,30,87,23,30' |
048: 382c 3138 2c31 2a34 320d 0a              | b'8,18,1*42\r\n' |
<NMEA(GLGSV, numMsg=1, msgNum=1, numSV=3, svid_01=79, elv_01=3.0, az_01=21, cno_01=, svid_02=86, elv_02=20.0, az_02=250, cno_02=, svid_03=88, elv_03=3.0, az_03=353, cno_03=, signalID=0)>000: 2447 4c47 5356 2c31 2c31 2c30 332c 3739  | b'$GLGSV,1,1,03,79' |
016: 2c30 332c 3032 312c 2c38 362c 3230 2c32  | b',03,021,,86,20,2' |
032: 3530 2c2c 3838 2c30 332c 3335 332c 2c30  | b'50,,88,03,353,,0' |
048: 2a34 390d 0a                             | b'*49\r\n' |
<NMEA(GAGSV, numMsg=2, msgNum=1, numSV=8, svid_01=3, elv_01=10.0, az_01=273, cno_01=8, svid_02=5, elv_02=59.0, az_02=294, cno_02=21, svid_03=9, elv_03=57.0, az_03=65, cno_03=21, svid_04=15, elv_04=18.0, az_04=321, cno_04=17, signalID=7)>000: 2447 4147 5356 2c32 2c31 2c30 382c 3033  | b'$GAGSV,2,1,08,03' |
016: 2c31 302c 3237 332c 3038 2c30 352c 3539  | b',10,273,08,05,59' |
032: 2c32 3934 2c32 312c 3039 2c35 372c 3036  | b',294,21,09,57,06' |
048: 352c 3231 2c31 352c 3138 2c33 3231 2c31  | b'5,21,15,18,321,1' |
064: 372c 372a 3731 0d0a                      | b'7,7*71\r\n' |
<NMEA(GAGSV, numMsg=2, msgNum=2, numSV=8, svid_01=24, elv_01=23.0, az_01=145, cno_01=21, svid_02=31, elv_02=34.0, az_02=88, cno_02=14, svid_03=34, elv_03=38.0, az_03=268, cno_03=19, svid_04=36, elv_04=23.0, az_04=209, cno_04=10, signalID=7)>000: 2447 4147 5356 2c32 2c32 2c30 382c 3234  | b'$GAGSV,2,2,08,24' |
016: 2c32 332c 3134 352c 3231 2c33 312c 3334  | b',23,145,21,31,34' |
032: 2c30 3838 2c31 342c 3334 2c33 382c 3236  | b',088,14,34,38,26' |
048: 382c 3139 2c33 362c 3233 2c32 3039 2c31  | b'8,19,36,23,209,1' |
064: 302c 372a 3739 0d0a                      | b'0,7*79\r\n' |
<NMEA(GAGSV, numMsg=1, msgNum=1, numSV=1, svid_01=4, elv_01=9.0, az_01=84, cno_01=, signalID=0)>000: 2447 4147 5356 2c31 2c31 2c30 312c 3034  | b'$GAGSV,1,1,01,04' |
016: 2c30 392c 3038 342c 2c30 2a34 340d 0a    | b',09,084,,0*44\r\n' |
<NMEA(GBGSV, numMsg=2, msgNum=1, numSV=7, svid_01=19, elv_01=29.0, az_01=302, cno_01=18, svid_02=20, elv_02=78.0, az_02=343, cno_02=34, svid_03=23, elv_03=30.0, az_03=50, cno_03=26, svid_04=32, elv_04=38.0, az_04=108, cno_04=20, signalID=1)>000: 2447 4247 5356 2c32 2c31 2c30 372c 3139  | b'$GBGSV,2,1,07,19' |
016: 2c32 392c 3330 322c 3138 2c32 302c 3738  | b',29,302,18,20,78' |
032: 2c33 3433 2c33 342c 3233 2c33 302c 3035  | b',343,34,23,30,05' |
048: 302c 3236 2c33 322c 3338 2c31 3038 2c32  | b'0,26,32,38,108,2' |
064: 302c 312a 3735 0d0a                      | b'0,1*75\r\n' |
<NMEA(GBGSV, numMsg=2, msgNum=2, numSV=7, svid_01=33, elv_01=, az_01=, cno_01=19, svid_02=35, elv_02=9.0, az_02=299, cno_02=9, svid_03=37, elv_03=60.0, az_03=120, cno_03=34, signalID=1)>000: 2447 4247 5356 2c32 2c32 2c30 372c 3333  | b'$GBGSV,2,2,07,33' |
016: 2c2c 2c31 392c 3335 2c30 392c 3239 392c  | b',,,19,35,09,299,' |
032: 3039 2c33 372c 3630 2c31 3230 2c33 342c  | b'09,37,60,120,34,' |
048: 312a 3742 0d0a                           | b'1*7B\r\n' |
<NMEA(GBGSV, numMsg=1, msgNum=1, numSV=1, svid_01=29, elv_01=5.0, az_01=247, cno_01=, signalID=0)>000: 2447 4247 5356 2c31 2c31 2c30 312c 3239  | b'$GBGSV,1,1,01,29' |
016: 2c30 352c 3234 372c 2c30 2a34 390d 0a    | b',05,247,,0*49\r\n' |
<NMEA(GNGLL, lat=43.8828245383, NS=N, lon=-72.1582686567, EW=W, time=20:22:27.750000, status=A, posMode=A)>000: 2447 4e47 4c4c 2c34 3335 322e 3936 3934  | b'$GNGLL,4352.9694' |
016: 3732 332c 4e2c 3037 3230 392e 3439 3631  | b'723,N,07209.4961' |
032: 3139 342c 572c 3230 3232 3237 2e37 352c  | b'194,W,202227.75,' |
048: 412c 412a 3645 0d0a                      | b'A,A*6E\r\n' |
<NMEA(GNRMC, time=20:22:28, status=A, lat=43.8828245067, NS=N, lon=-72.158268645, EW=W, spd=0.04, cog=, date=2023-09-05, mv=, mvEW=, posMode=A, navStatus=V)>000: 2447 4e52 4d43 2c32 3032 3232 382e 3030  | b'$GNRMC,202228.00' |
016: 2c41 2c34 3335 322e 3936 3934 3730 342c  | b',A,4352.9694704,' |
032: 4e2c 3037 3230 392e 3439 3631 3138 372c  | b'N,07209.4961187,' |
048: 572c 302e 3034 302c 2c30 3530 3932 332c  | b'W,0.040,,050923,' |
064: 2c2c 412c 562a 3045 0d0a                 | b',,A,V*0E\r\n' |
<NMEA(GNVTG, cogt=, cogtUnit=T, cogm=, cogmUnit=M, sogn=0.04, sognUnit=N, sogk=0.073, sogkUnit=K, posMode=A)>000: 2447 4e56 5447 2c2c 542c 2c4d 2c30 2e30  | b'$GNVTG,,T,,M,0.0' |
016: 3430 2c4e 2c30 2e30 3733 2c4b 2c41 2a33  | b'40,N,0.073,K,A*3' |
032: 440d 0a                                  | b'D\r\n' |
<NMEA(GNGGA, time=20:22:28, lat=43.8828245067, NS=N, lon=-72.158268645, EW=W, quality=1, numSV=12, HDOP=0.55, alt=136.914, altUnit=M, sep=-32.547, sepUnit=M, diffAge=, diffStation=)>000: 2447 4e47 4741 2c32 3032 3232 382e 3030  | b'$GNGGA,202228.00' |
016: 2c34 3335 322e 3936 3934 3730 342c 4e2c  | b',4352.9694704,N,' |
032: 3037 3230 392e 3439 3631 3138 372c 572c  | b'07209.4961187,W,' |
048: 312c 3132 2c30 2e35 352c 3133 362e 3931  | b'1,12,0.55,136.91' |
064: 342c 4d2c 2d33 322e 3534 372c 4d2c 2c2a  | b'4,M,-32.547,M,,*' |
080: 3730 0d0a                                | b'70\r\n' |
<NMEA(GNGSA, opMode=A, navMode=3, svid_01=25, svid_02=2, svid_03=21, svid_04=28, svid_05=10, svid_06=12, svid_07=24, svid_08=23, svid_09=32, svid_10=, svid_11=, svid_12=, PDOP=1.08, HDOP=0.55, VDOP=0.93, systemId=1)>000: 2447 4e47 5341 2c41 2c33 2c32 352c 3032  | b'$GNGSA,A,3,25,02' |
016: 2c32 312c 3238 2c31 302c 3132 2c32 342c  | b',21,28,10,12,24,' |
032: 3233 2c33 322c 2c2c 2c31 2e30 382c 302e  | b'23,32,,,,1.08,0.' |
048: 3535 2c30 2e39 332c 312a 3041 0d0a       | b'55,0.93,1*0A\r\n' |
<NMEA(GNGSA, opMode=A, navMode=3, svid_01=87, svid_02=72, svid_03=80, svid_04=71, svid_05=70, svid_06=73, svid_07=, svid_08=, svid_09=, svid_10=, svid_11=, svid_12=, PDOP=1.08, HDOP=0.55, VDOP=0.93, systemId=2)>000: 2447 4e47 5341 2c41 2c33 2c38 372c 3732  | b'$GNGSA,A,3,87,72' |
016: 2c38 302c 3731 2c37 302c 3733 2c2c 2c2c  | b',80,71,70,73,,,,' |
032: 2c2c 2c31 2e30 382c 302e 3535 2c30 2e39  | b',,,1.08,0.55,0.9' |
048: 332c 322a 3036 0d0a                      | b'3,2*06\r\n' |
<NMEA(GNGSA, opMode=A, navMode=3, svid_01=36, svid_02=15, svid_03=5, svid_04=31, svid_05=34, svid_06=3, svid_07=9, svid_08=24, svid_09=, svid_10=, svid_11=, svid_12=, PDOP=1.08, HDOP=0.55, VDOP=0.93, systemId=3)>000: 2447 4e47 5341 2c41 2c33 2c33 362c 3135  | b'$GNGSA,A,3,36,15' |
016: 2c30 352c 3331 2c33 342c 3033 2c30 392c  | b',05,31,34,03,09,' |
032: 3234 2c2c 2c2c 2c31 2e30 382c 302e 3535  | b'24,,,,,1.08,0.55' |
048: 2c30 2e39 332c 332a 3044 0d0a            | b',0.93,3*0D\r\n' |
<NMEA(GNGSA, opMode=A, navMode=3, svid_01=37, svid_02=23, svid_03=32, svid_04=20, svid_05=19, svid_06=, svid_07=, svid_08=, svid_09=, svid_10=, svid_11=, svid_12=, PDOP=1.08, HDOP=0.55, VDOP=0.93, systemId=4)>000: 2447 4e47 5341 2c41 2c33 2c33 372c 3233  | b'$GNGSA,A,3,37,23' |
016: 2c33 322c 3230 2c31 392c 2c2c 2c2c 2c2c  | b',32,20,19,,,,,,,' |
032: 2c31 2e30 382c 302e 3535 2c30 2e39 332c  | b',1.08,0.55,0.93,' |
048: 342a 3039 0d0a                           | b'4*09\r\n' |
<NMEA(GPGSV, numMsg=3, msgNum=1, numSV=11, svid_01=2, elv_01=17.0, az_01=316, cno_01=16, svid_02=10, elv_02=85.0, az_02=227, cno_02=33, svid_03=12, elv_03=30.0, az_03=94, cno_03=15, svid_04=15, elv_04=3.0, az_04=92, cno_04=14, signalID=1)>000: 2447 5047 5356 2c33 2c31 2c31 312c 3032  | b'$GPGSV,3,1,11,02' |
016: 2c31 372c 3331 362c 3136 2c31 302c 3835  | b',17,316,16,10,85' |
032: 2c32 3237 2c33 332c 3132 2c33 302c 3039  | b',227,33,12,30,09' |
048: 342c 3135 2c31 352c 3033 2c30 3932 2c31  | b'4,15,15,03,092,1' |
064: 342c 312a 3641 0d0a                      | b'4,1*6A\r\n' |
<NMEA(GPGSV, numMsg=3, msgNum=2, numSV=11, svid_01=18, elv_01=1.0, az_01=183, cno_01=12, svid_02=21, elv_02=21.0, az_02=308, cno_02=19, svid_03=23, elv_03=48.0, az_03=143, cno_03=26, svid_04=24, elv_04=30.0, az_04=52, cno_04=25, signalID=1)>000: 2447 5047 5356 2c33 2c32 2c31 312c 3138  | b'$GPGSV,3,2,11,18' |
016: 2c30 312c 3138 332c 3132 2c32 312c 3231  | b',01,183,12,21,21' |
032: 2c33 3038 2c31 392c 3233 2c34 382c 3134  | b',308,19,23,48,14' |
048: 332c 3236 2c32 342c 3330 2c30 3532 2c32  | b'3,26,24,30,052,2' |
064: 352c 312a 3644 0d0a                      | b'5,1*6D\r\n' |
<NMEA(GPGSV, numMsg=3, msgNum=3, numSV=11, svid_01=25, elv_01=24.0, az_01=141, cno_01=20, svid_02=28, elv_02=27.0, az_02=219, cno_02=13, svid_03=32, elv_03=53.0, az_03=290, cno_03=30, signalID=1)>000: 2447 5047 5356 2c33 2c33 2c31 312c 3235  | b'$GPGSV,3,3,11,25' |
016: 2c32 342c 3134 312c 3230 2c32 382c 3237  | b',24,141,20,28,27' |
032: 2c32 3139 2c31 332c 3332 2c35 332c 3239  | b',219,13,32,53,29' |
048: 302c 3330 2c31 2a35 420d 0a              | b'0,30,1*5B\r\n' |
<NMEA(GPGSV, numMsg=1, msgNum=1, numSV=3, svid_01=10, elv_01=85.0, az_01=227, cno_01=17, svid_02=23, elv_02=48.0, az_02=143, cno_02=14, svid_03=32, elv_03=53.0, az_03=290, cno_03=15, signalID=6)>000: 2447 5047 5356 2c31 2c31 2c30 332c 3130  | b'$GPGSV,1,1,03,10' |
016: 2c38 352c 3232 372c 3137 2c32 332c 3438  | b',85,227,17,23,48' |
032: 2c31 3433 2c31 342c 3332 2c35 332c 3239  | b',143,14,32,53,29' |
048: 302c 3135 2c36 2a35 420d 0a              | b'0,15,6*5B\r\n' |
<NMEA(GPGSV, numMsg=1, msgNum=1, numSV=2, svid_01=44, elv_01=23.0, az_01=235, cno_01=, svid_02=46, elv_02=15.0, az_02=246, cno_02=, signalID=0)>000: 2447 5047 5356 2c31 2c31 2c30 322c 3434  | b'$GPGSV,1,1,02,44' |
016: 2c32 332c 3233 352c 2c34 362c 3135 2c32  | b',23,235,,46,15,2' |
032: 3436 2c2c 302a 3634 0d0a                 | b'46,,0*64\r\n' |
<NMEA(GLGSV, numMsg=2, msgNum=1, numSV=7, svid_01=70, elv_01=48.0, az_01=81, cno_01=10, svid_02=71, elv_02=59.0, az_02=339, cno_02=32, svid_03=72, elv_03=18.0, az_03=301, cno_03=15, svid_04=73, elv_04=51.0, az_04=148, cno_04=31, signalID=1)>000: 2447 4c47 5356 2c32 2c31 2c30 372c 3730  | b'$GLGSV,2,1,07,70' |
016: 2c34 382c 3038 312c 3130 2c37 312c 3539  | b',48,081,10,71,59' |
032: 2c33 3339 2c33 322c 3732 2c31 382c 3330  | b',339,32,72,18,30' |
048: 312c 3135 2c37 332c 3531 2c31 3438 2c33  | b'1,15,73,51,148,3' |
064: 312c 312a 3738 0d0a                      | b'1,1*78\r\n' |
<NMEA(GLGSV, numMsg=2, msgNum=2, numSV=7, svid_01=74, elv_01=14.0, az_01=181, cno_01=9, svid_02=80, elv_02=46.0, az_02=52, cno_02=29, svid_03=87, elv_03=23.0, az_03=308, cno_03=18, signalID=1)>000: 2447 4c47 5356 2c32 2c32 2c30 372c 3734  | b'$GLGSV,2,2,07,74' |
016: 2c31 342c 3138 312c 3039 2c38 302c 3436  | b',14,181,09,80,46' |
032: 2c30 3532 2c32 392c 3837 2c32 332c 3330  | b',052,29,87,23,30' |
048: 382c 3138 2c31 2a34 320d 0a              | b'8,18,1*42\r\n' |
<NMEA(GLGSV, numMsg=1, msgNum=1, numSV=3, svid_01=79, elv_01=3.0, az_01=21, cno_01=, svid_02=86, elv_02=20.0, az_02=250, cno_02=, svid_03=88, elv_03=3.0, az_03=353, cno_03=, signalID=0)>000: 2447 4c47 5356 2c31 2c31 2c30 332c 3739  | b'$GLGSV,1,1,03,79' |
016: 2c30 332c 3032 312c 2c38 362c 3230 2c32  | b',03,021,,86,20,2' |
032: 3530 2c2c 3838 2c30 332c 3335 332c 2c30  | b'50,,88,03,353,,0' |
048: 2a34 390d 0a                             | b'*49\r\n' |
<NMEA(GAGSV, numMsg=2, msgNum=1, numSV=8, svid_01=3, elv_01=10.0, az_01=273, cno_01=11, svid_02=5, elv_02=59.0, az_02=294, cno_02=20, svid_03=9, elv_03=57.0, az_03=65, cno_03=21, svid_04=15, elv_04=18.0, az_04=321, cno_04=17, signalID=7)>000: 2447 4147 5356 2c32 2c31 2c30 382c 3033  | b'$GAGSV,2,1,08,03' |
016: 2c31 302c 3237 332c 3131 2c30 352c 3539  | b',10,273,11,05,59' |
032: 2c32 3934 2c32 302c 3039 2c35 372c 3036  | b',294,20,09,57,06' |
048: 352c 3231 2c31 352c 3138 2c33 3231 2c31  | b'5,21,15,18,321,1' |
064: 372c 372a 3738 0d0a                      | b'7,7*78\r\n' |
<NMEA(GAGSV, numMsg=2, msgNum=2, numSV=8, svid_01=24, elv_01=23.0, az_01=145, cno_01=21, svid_02=31, elv_02=34.0, az_02=88, cno_02=14, svid_03=34, elv_03=38.0, az_03=268, cno_03=19, svid_04=36, elv_04=23.0, az_04=209, cno_04=10, signalID=7)>000: 2447 4147 5356 2c32 2c32 2c30 382c 3234  | b'$GAGSV,2,2,08,24' |
016: 2c32 332c 3134 352c 3231 2c33 312c 3334  | b',23,145,21,31,34' |
032: 2c30 3838 2c31 342c 3334 2c33 382c 3236  | b',088,14,34,38,26' |
048: 382c 3139 2c33 362c 3233 2c32 3039 2c31  | b'8,19,36,23,209,1' |
064: 302c 372a 3739 0d0a                      | b'0,7*79\r\n' |
<NMEA(GAGSV, numMsg=1, msgNum=1, numSV=1, svid_01=4, elv_01=9.0, az_01=84, cno_01=, signalID=0)>000: 2447 4147 5356 2c31 2c31 2c30 312c 3034  | b'$GAGSV,1,1,01,04' |
016: 2c30 392c 3038 342c 2c30 2a34 340d 0a    | b',09,084,,0*44\r\n' |
<NMEA(GBGSV, numMsg=2, msgNum=1, numSV=8, svid_01=19, elv_01=29.0, az_01=302, cno_01=17, svid_02=20, elv_02=78.0, az_02=343, cno_02=35, svid_03=23, elv_03=30.0, az_03=50, cno_03=26, svid_04=29, elv_04=5.0, az_04=247, cno_04=17, signalID=1)>000: 2447 4247 5356 2c32 2c31 2c30 382c 3139  | b'$GBGSV,2,1,08,19' |
016: 2c32 392c 3330 322c 3137 2c32 302c 3738  | b',29,302,17,20,78' |
032: 2c33 3433 2c33 352c 3233 2c33 302c 3035  | b',343,35,23,30,05' |
048: 302c 3236 2c32 392c 3035 2c32 3437 2c31  | b'0,26,29,05,247,1' |
064: 372c 312a 3743 0d0a                      | b'7,1*7C\r\n' |
<NMEA(GBGSV, numMsg=2, msgNum=2, numSV=8, svid_01=32, elv_01=38.0, az_01=108, cno_01=20, svid_02=33, elv_02=, az_02=, cno_02=20, svid_03=35, elv_03=9.0, az_03=299, cno_03=9, svid_04=37, elv_04=60.0, az_04=120, cno_04=34, signalID=1)>000: 2447 4247 5356 2c32 2c32 2c30 382c 3332  | b'$GBGSV,2,2,08,32' |
016: 2c33 382c 3130 382c 3230 2c33 332c 2c2c  | b',38,108,20,33,,,' |
032: 3230 2c33 352c 3039 2c32 3939 2c30 392c  | b'20,35,09,299,09,' |
048: 3337 2c36 302c 3132 302c 3334 2c31 2a34  | b'37,60,120,34,1*4' |
064: 460d 0a                                  | b'F\r\n' |
<NMEA(GNGLL, lat=43.8828245067, NS=N, lon=-72.158268645, EW=W, time=20:22:28, status=A, posMode=A)>000: 2447 4e47 4c4c 2c34 3335 322e 3936 3934  | b'$GNGLL,4352.9694' |
016: 3730 342c 4e2c 3037 3230 392e 3439 3631  | b'704,N,07209.4961' |
032: 3138 372c 572c 3230 3232 3238 2e30 302c  | b'187,W,202228.00,' |
048: 412c 412a 3634 0d0a                      | b'A,A*64\r\n' |
<NMEA(GNRMC, time=20:22:28.250000, status=A, lat=43.882824545, NS=N, lon=-72.1582684417, EW=W, spd=0.061, cog=, date=2023-09-05, mv=, mvEW=, posMode=A, navStatus=V)>000: 2447 4e52 4d43 2c32 3032 3232 382e 3235  | b'$GNRMC,202228.25' |
016: 2c41 2c34 3335 322e 3936 3934 3732 372c  | b',A,4352.9694727,' |
032: 4e2c 3037 3230 392e 3439 3631 3036 352c  | b'N,07209.4961065,' |
048: 572c 302e 3036 312c 2c30 3530 3932 332c  | b'W,0.061,,050923,' |
064: 2c2c 412c 562a 3036 0d0a                 | b',,A,V*06\r\n' |
<NMEA(GNVTG, cogt=, cogtUnit=T, cogm=, cogmUnit=M, sogn=0.061, sognUnit=N, sogk=0.114, sogkUnit=K, posMode=A)>000: 2447 4e56 5447 2c2c 542c 2c4d 2c30 2e30  | b'$GNVTG,,T,,M,0.0' |
016: 3631 2c4e 2c30 2e31 3134 2c4b 2c41 2a33  | b'61,N,0.114,K,A*3' |
032: 450d 0a                                  | b'E\r\n' |
<NMEA(GNGGA, time=20:22:28.250000, lat=43.882824545, NS=N, lon=-72.1582684417, EW=W, quality=1, numSV=12, HDOP=0.55, alt=137.035, altUnit=M, sep=-32.547, sepUnit=M, diffAge=, diffStation=)>000: 2447 4e47 4741 2c32 3032 3232 382e 3235  | b'$GNGGA,202228.25' |
016: 2c34 3335 322e 3936 3934 3732 372c 4e2c  | b',4352.9694727,N,' |
032: 3037 3230 392e 3439 3631 3036 352c 572c  | b'07209.4961065,W,' |
048: 312c 3132 2c30 2e35 352c 3133 372e 3033  | b'1,12,0.55,137.03' |
064: 352c 4d2c 2d33 322e 3534 372c 4d2c 2c2a  | b'5,M,-32.547,M,,*' |
080: 3730 0d0a                                | b'70\r\n' |
<NMEA(GNGSA, opMode=A, navMode=3, svid_01=25, svid_02=2, svid_03=21, svid_04=28, svid_05=10, svid_06=12, svid_07=24, svid_08=23, svid_09=32, svid_10=, svid_11=, svid_12=, PDOP=1.08, HDOP=0.55, VDOP=0.93, systemId=1)>000: 2447 4e47 5341 2c41 2c33 2c32 352c 3032  | b'$GNGSA,A,3,25,02' |
016: 2c32 312c 3238 2c31 302c 3132 2c32 342c  | b',21,28,10,12,24,' |
032: 3233 2c33 322c 2c2c 2c31 2e30 382c 302e  | b'23,32,,,,1.08,0.' |
048: 3535 2c30 2e39 332c 312a 3041 0d0a       | b'55,0.93,1*0A\r\n' |
<NMEA(GNGSA, opMode=A, navMode=3, svid_01=87, svid_02=72, svid_03=80, svid_04=71, svid_05=70, svid_06=73, svid_07=, svid_08=, svid_09=, svid_10=, svid_11=, svid_12=, PDOP=1.08, HDOP=0.55, VDOP=0.93, systemId=2)>000: 2447 4e47 5341 2c41 2c33 2c38 372c 3732  | b'$GNGSA,A,3,87,72' |
016: 2c38 302c 3731 2c37 302c 3733 2c2c 2c2c  | b',80,71,70,73,,,,' |
032: 2c2c 2c31 2e30 382c 302e 3535 2c30 2e39  | b',,,1.08,0.55,0.9' |
048: 332c 322a 3036 0d0a                      | b'3,2*06\r\n' |
<NMEA(GNGSA, opMode=A, navMode=3, svid_01=36, svid_02=15, svid_03=5, svid_04=31, svid_05=34, svid_06=3, svid_07=9, svid_08=24, svid_09=, svid_10=, svid_11=, svid_12=, PDOP=1.08, HDOP=0.55, VDOP=0.93, systemId=3)>000: 2447 4e47 5341 2c41 2c33 2c33 362c 3135  | b'$GNGSA,A,3,36,15' |
016: 2c30 352c 3331 2c33 342c 3033 2c30 392c  | b',05,31,34,03,09,' |
032: 3234 2c2c 2c2c 2c31 2e30 382c 302e 3535  | b'24,,,,,1.08,0.55' |
048: 2c30 2e39 332c 332a 3044 0d0a            | b',0.93,3*0D\r\n' |
<NMEA(GNGSA, opMode=A, navMode=3, svid_01=37, svid_02=23, svid_03=32, svid_04=20, svid_05=19, svid_06=, svid_07=, svid_08=, svid_09=, svid_10=, svid_11=, svid_12=, PDOP=1.08, HDOP=0.55, VDOP=0.93, systemId=4)>000: 2447 4e47 5341 2c41 2c33 2c33 372c 3233  | b'$GNGSA,A,3,37,23' |
016: 2c33 322c 3230 2c31 392c 2c2c 2c2c 2c2c  | b',32,20,19,,,,,,,' |
032: 2c31 2e30 382c 302e 3535 2c30 2e39 332c  | b',1.08,0.55,0.93,' |
048: 342a 3039 0d0a                           | b'4*09\r\n' |
<NMEA(GPGSV, numMsg=3, msgNum=1, numSV=11, svid_01=2, elv_01=17.0, az_01=316, cno_01=16, svid_02=10, elv_02=85.0, az_02=227, cno_02=36, svid_03=12, elv_03=30.0, az_03=94, cno_03=15, svid_04=15, elv_04=3.0, az_04=92, cno_04=14, signalID=1)>000: 2447 5047 5356 2c33 2c31 2c31 312c 3032  | b'$GPGSV,3,1,11,02' |
016: 2c31 372c 3331 362c 3136 2c31 302c 3835  | b',17,316,16,10,85' |
032: 2c32 3237 2c33 362c 3132 2c33 302c 3039  | b',227,36,12,30,09' |
048: 342c 3135 2c31 352c 3033 2c30 3932 2c31  | b'4,15,15,03,092,1' |
064: 342c 312a 3646 0d0a                      | b'4,1*6F\r\n' |
<NMEA(GPGSV, numMsg=3, msgNum=2, numSV=11, svid_01=18, elv_01=1.0, az_01=183, cno_01=12, svid_02=21, elv_02=21.0, az_02=308, cno_02=20, svid_03=23, elv_03=48.0, az_03=143, cno_03=26, svid_04=24, elv_04=30.0, az_04=52, cno_04=25, signalID=1)>000: 2447 5047 5356 2c33 2c32 2c31 312c 3138  | b'$GPGSV,3,2,11,18' |
016: 2c30 312c 3138 332c 3132 2c32 312c 3231  | b',01,183,12,21,21' |
032: 2c33 3038 2c32 302c 3233 2c34 382c 3134  | b',308,20,23,48,14' |
048: 332c 3236 2c32 342c 3330 2c30 3532 2c32  | b'3,26,24,30,052,2' |
064: 352c 312a 3637 0d0a                      | b'5,1*67\r\n' |
<NMEA(GPGSV, numMsg=3, msgNum=3, numSV=11, svid_01=25, elv_01=24.0, az_01=141, cno_01=20, svid_02=28, elv_02=27.0, az_02=219, cno_02=13, svid_03=32, elv_03=53.0, az_03=290, cno_03=30, signalID=1)>000: 2447 5047 5356 2c33 2c33 2c31 312c 3235  | b'$GPGSV,3,3,11,25' |
016: 2c32 342c 3134 312c 3230 2c32 382c 3237  | b',24,141,20,28,27' |
032: 2c32 3139 2c31 332c 3332 2c35 332c 3239  | b',219,13,32,53,29' |
048: 302c 3330 2c31 2a35 420d 0a              | b'0,30,1*5B\r\n' |
<NMEA(GPGSV, numMsg=1, msgNum=1, numSV=3, svid_01=10, elv_01=85.0, az_01=227, cno_01=17, svid_02=23, elv_02=48.0, az_02=143, cno_02=14, svid_03=32, elv_03=53.0, az_03=290, cno_03=14, signalID=6)>000: 2447 5047 5356 2c31 2c31 2c30 332c 3130  | b'$GPGSV,1,1,03,10' |
016: 2c38 352c 3232 372c 3137 2c32 332c 3438  | b',85,227,17,23,48' |
032: 2c31 3433 2c31 342c 3332 2c35 332c 3239  | b',143,14,32,53,29' |
048: 302c 3134 2c36 2a35 410d 0a              | b'0,14,6*5A\r\n' |
<NMEA(GPGSV, numMsg=1, msgNum=1, numSV=2, svid_01=44, elv_01=23.0, az_01=235, cno_01=, svid_02=46, elv_02=15.0, az_02=246, cno_02=, signalID=0)>000: 2447 5047 5356 2c31 2c31 2c30 322c 3434  | b'$GPGSV,1,1,02,44' |
016: 2c32 332c 3233 352c 2c34 362c 3135 2c32  | b',23,235,,46,15,2' |
032: 3436 2c2c 302a 3634 0d0a                 | b'46,,0*64\r\n' |
<NMEA(GLGSV, numMsg=2, msgNum=1, numSV=7, svid_01=70, elv_01=48.0, az_01=81, cno_01=10, svid_02=71, elv_02=59.0, az_02=339, cno_02=32, svid_03=72, elv_03=18.0, az_03=301, cno_03=15, svid_04=73, elv_04=51.0, az_04=148, cno_04=30, signalID=1)>000: 2447 4c47 5356 2c32 2c31 2c30 372c 3730  | b'$GLGSV,2,1,07,70' |
016: 2c34 382c 3038 312c 3130 2c37 312c 3539  | b',48,081,10,71,59' |
032: 2c33 3339 2c33 322c 3732 2c31 382c 3330  | b',339,32,72,18,30' |
048: 312c 3135 2c37 332c 3531 2c31 3438 2c33  | b'1,15,73,51,148,3' |
064: 302c 312a 3739 0d0a                      | b'0,1*79\r\n' |
<NMEA(GLGSV, numMsg=2, msgNum=2, numSV=7, svid_01=74, elv_01=14.0, az_01=181, cno_01=9, svid_02=80, elv_02=46.0, az_02=52, cno_02=29, svid_03=87, elv_03=23.0, az_03=308, cno_03=18, signalID=1)>000: 2447 4c47 5356 2c32 2c32 2c30 372c 3734  | b'$GLGSV,2,2,07,74' |
016: 2c31 342c 3138 312c 3039 2c38 302c 3436  | b',14,181,09,80,46' |
032: 2c30 3532 2c32 392c 3837 2c32 332c 3330  | b',052,29,87,23,30' |
048: 382c 3138 2c31 2a34 320d 0a              | b'8,18,1*42\r\n' |
<NMEA(GLGSV, numMsg=1, msgNum=1, numSV=3, svid_01=79, elv_01=3.0, az_01=21, cno_01=, svid_02=86, elv_02=20.0, az_02=250, cno_02=, svid_03=88, elv_03=3.0, az_03=353, cno_03=, signalID=0)>000: 2447 4c47 5356 2c31 2c31 2c30 332c 3739  | b'$GLGSV,1,1,03,79' |
016: 2c30 332c 3032 312c 2c38 362c 3230 2c32  | b',03,021,,86,20,2' |
032: 3530 2c2c 3838 2c30 332c 3335 332c 2c30  | b'50,,88,03,353,,0' |
048: 2a34 390d 0a                             | b'*49\r\n' |
<NMEA(GAGSV, numMsg=2, msgNum=1, numSV=8, svid_01=3, elv_01=10.0, az_01=273, cno_01=10, svid_02=5, elv_02=59.0, az_02=294, cno_02=20, svid_03=9, elv_03=57.0, az_03=65, cno_03=21, svid_04=15, elv_04=18.0, az_04=321, cno_04=16, signalID=7)>000: 2447 4147 5356 2c32 2c31 2c30 382c 3033  | b'$GAGSV,2,1,08,03' |
016: 2c31 302c 3237 332c 3130 2c30 352c 3539  | b',10,273,10,05,59' |
032: 2c32 3934 2c32 302c 3039 2c35 372c 3036  | b',294,20,09,57,06' |
048: 352c 3231 2c31 352c 3138 2c33 3231 2c31  | b'5,21,15,18,321,1' |
064: 362c 372a 3738 0d0a                      | b'6,7*78\r\n' |
<NMEA(GAGSV, numMsg=2, msgNum=2, numSV=8, svid_01=24, elv_01=23.0, az_01=145, cno_01=21, svid_02=31, elv_02=34.0, az_02=88, cno_02=14, svid_03=34, elv_03=38.0, az_03=268, cno_03=19, svid_04=36, elv_04=23.0, az_04=209, cno_04=10, signalID=7)>000: 2447 4147 5356 2c32 2c32 2c30 382c 3234  | b'$GAGSV,2,2,08,24' |
016: 2c32 332c 3134 352c 3231 2c33 312c 3334  | b',23,145,21,31,34' |
032: 2c30 3838 2c31 342c 3334 2c33 382c 3236  | b',088,14,34,38,26' |
048: 382c 3139 2c33 362c 3233 2c32 3039 2c31  | b'8,19,36,23,209,1' |
064: 302c 372a 3739 0d0a                      | b'0,7*79\r\n' |
<NMEA(GAGSV, numMsg=1, msgNum=1, numSV=1, svid_01=4, elv_01=9.0, az_01=84, cno_01=, signalID=0)>000: 2447 4147 5356 2c31 2c31 2c30 312c 3034  | b'$GAGSV,1,1,01,04' |
016: 2c30 392c 3038 342c 2c30 2a34 340d 0a    | b',09,084,,0*44\r\n' |
<NMEA(GBGSV, numMsg=2, msgNum=1, numSV=8, svid_01=19, elv_01=29.0, az_01=302, cno_01=17, svid_02=20, elv_02=78.0, az_02=343, cno_02=37, svid_03=23, elv_03=30.0, az_03=50, cno_03=27, svid_04=29, elv_04=5.0, az_04=247, cno_04=17, signalID=1)>000: 2447 4247 5356 2c32 2c31 2c30 382c 3139  | b'$GBGSV,2,1,08,19' |
016: 2c32 392c 3330 322c 3137 2c32 302c 3738  | b',29,302,17,20,78' |
032: 2c33 3433 2c33 372c 3233 2c33 302c 3035  | b',343,37,23,30,05' |
048: 302c 3237 2c32 392c 3035 2c32 3437 2c31  | b'0,27,29,05,247,1' |
064: 372c 312a 3746 0d0a                      | b'7,1*7F\r\n' |
<NMEA(GBGSV, numMsg=2, msgNum=2, numSV=8, svid_01=32, elv_01=38.0, az_01=108, cno_01=19, svid_02=33, elv_02=, az_02=, cno_02=21, svid_03=35, elv_03=9.0, az_03=299, cno_03=9, svid_04=37, elv_04=60.0, az_04=120, cno_04=33, signalID=1)>000: 2447 4247 5356 2c32 2c32 2c30 382c 3332  | b'$GBGSV,2,2,08,32' |
016: 2c33 382c 3130 382c 3139 2c33 332c 2c2c  | b',38,108,19,33,,,' |
032: 3231 2c33 352c 3039 2c32 3939 2c30 392c  | b'21,35,09,299,09,' |
048: 3337 2c36 302c 3132 302c 3333 2c31 2a34  | b'37,60,120,33,1*4' |
064: 330d 0a                                  | b'3\r\n' |
<NMEA(GNGLL, lat=43.882824545, NS=N, lon=-72.1582684417, EW=W, time=20:22:28.250000, status=A, posMode=A)>000: 2447 4e47 4c4c 2c34 3335 322e 3936 3934  | b'$GNGLL,4352.9694' |
016: 3732 372c 4e2c 3037 3230 392e 3439 3631  | b'727,N,07209.4961' |
032: 3036 352c 572c 3230 3232 3238 2e32 352c  | b'065,W,202228.25,' |
048: 412c 412a 3646 0d0a                      | b'A,A*6F\r\n' |
<NMEA(GNRMC, time=20:22:28.500000, status=A, lat=43.8828243733, NS=N, lon=-72.158268415, EW=W, spd=0.16, cog=, date=2023-09-05, mv=, mvEW=, posMode=A, navStatus=V)>000: 2447 4e52 4d43 2c32 3032 3232 382e 3530  | b'$GNRMC,202228.50' |
016: 2c41 2c34 3335 322e 3936 3934 3632 342c  | b',A,4352.9694624,' |
032: 4e2c 3037 3230 392e 3439 3631 3034 392c  | b'N,07209.4961049,' |
048: 572c 302e 3136 302c 2c30 3530 3932 332c  | b'W,0.160,,050923,' |
064: 2c2c 412c 562a 3038 0d0a                 | b',,A,V*08\r\n' |
<NMEA(GNVTG, cogt=, cogtUnit=T, cogm=, cogmUnit=M, sogn=0.16, sognUnit=N, sogk=0.296, sogkUnit=K, posMode=A)>000: 2447 4e56 5447 2c2c 542c 2c4d 2c30 2e31  | b'$GNVTG,,T,,M,0.1' |
016: 3630 2c4e 2c30 2e32 3936 2c4b 2c41 2a33  | b'60,N,0.296,K,A*3' |
032: 370d 0a                                  | b'7\r\n' |
<NMEA(GNGGA, time=20:22:28.500000, lat=43.8828243733, NS=N, lon=-72.158268415, EW=W, quality=1, numSV=12, HDOP=0.55, alt=137.116, altUnit=M, sep=-32.547, sepUnit=M, diffAge=, diffStation=)>000: 2447 4e47 4741 2c32 3032 3232 382e 3530  | b'$GNGGA,202228.50' |
016: 2c34 3335 322e 3936 3934 3632 342c 4e2c  | b',4352.9694624,N,' |
032: 3037 3230 392e 3439 3631 3034 392c 572c  | b'07209.4961049,W,' |
048: 312c 3132 2c30 2e35 352c 3133 372e 3131  | b'1,12,0.55,137.11' |
064: 362c 4d2c 2d33 322e 3534 372c 4d2c 2c2a  | b'6,M,-32.547,M,,*' |
080: 3745 0d0a                                | b'7E\r\n' |
<NMEA(GNGSA, opMode=A, navMode=3, svid_01=25, svid_02=2, svid_03=21, svid_04=28, svid_05=10, svid_06=12, svid_07=24, svid_08=23, svid_09=32, svid_10=, svid_11=, svid_12=, PDOP=1.08, HDOP=0.55, VDOP=0.93, systemId=1)>000: 2447 4e47 5341 2c41 2c33 2c32 352c 3032  | b'$GNGSA,A,3,25,02' |
016: 2c32 312c 3238 2c31 302c 3132 2c32 342c  | b',21,28,10,12,24,' |
032: 3233 2c33 322c 2c2c 2c31 2e30 382c 302e  | b'23,32,,,,1.08,0.' |
048: 3535 2c30 2e39 332c 312a 3041 0d0a       | b'55,0.93,1*0A\r\n' |
<NMEA(GNGSA, opMode=A, navMode=3, svid_01=87, svid_02=72, svid_03=80, svid_04=71, svid_05=70, svid_06=73, svid_07=, svid_08=, svid_09=, svid_10=, svid_11=, svid_12=, PDOP=1.08, HDOP=0.55, VDOP=0.93, systemId=2)>000: 2447 4e47 5341 2c41 2c33 2c38 372c 3732  | b'$GNGSA,A,3,87,72' |
016: 2c38 302c 3731 2c37 302c 3733 2c2c 2c2c  | b',80,71,70,73,,,,' |
032: 2c2c 2c31 2e30 382c 302e 3535 2c30 2e39  | b',,,1.08,0.55,0.9' |
048: 332c 322a 3036 0d0a                      | b'3,2*06\r\n' |
<NMEA(GNGSA, opMode=A, navMode=3, svid_01=36, svid_02=15, svid_03=5, svid_04=31, svid_05=34, svid_06=3, svid_07=9, svid_08=24, svid_09=, svid_10=, svid_11=, svid_12=, PDOP=1.08, HDOP=0.55, VDOP=0.93, systemId=3)>000: 2447 4e47 5341 2c41 2c33 2c33 362c 3135  | b'$GNGSA,A,3,36,15' |
016: 2c30 352c 3331 2c33 342c 3033 2c30 392c  | b',05,31,34,03,09,' |
032: 3234 2c2c 2c2c 2c31 2e30 382c 302e 3535  | b'24,,,,,1.08,0.55' |
048: 2c30 2e39 332c 332a 3044 0d0a            | b',0.93,3*0D\r\n' |
<NMEA(GNGSA, opMode=A, navMode=3, svid_01=37, svid_02=23, svid_03=32, svid_04=20, svid_05=19, svid_06=, svid_07=, svid_08=, svid_09=, svid_10=, svid_11=, svid_12=, PDOP=1.08, HDOP=0.55, VDOP=0.93, systemId=4)>000: 2447 4e47 5341 2c41 2c33 2c33 372c 3233  | b'$GNGSA,A,3,37,23' |
016: 2c33 322c 3230 2c31 392c 2c2c 2c2c 2c2c  | b',32,20,19,,,,,,,' |
032: 2c31 2e30 382c 302e 3535 2c30 2e39 332c  | b',1.08,0.55,0.93,' |
048: 342a 3039 0d0a                           | b'4*09\r\n' |
<NMEA(GPGSV, numMsg=3, msgNum=1, numSV=11, svid_01=2, elv_01=17.0, az_01=316, cno_01=17, svid_02=10, elv_02=85.0, az_02=227, cno_02=34, svid_03=12, elv_03=30.0, az_03=94, cno_03=10, svid_04=15, elv_04=3.0, az_04=92, cno_04=14, signalID=1)>000: 2447 5047 5356 2c33 2c31 2c31 312c 3032  | b'$GPGSV,3,1,11,02' |
016: 2c31 372c 3331 362c 3137 2c31 302c 3835  | b',17,316,17,10,85' |
032: 2c32 3237 2c33 342c 3132 2c33 302c 3039  | b',227,34,12,30,09' |
048: 342c 3130 2c31 352c 3033 2c30 3932 2c31  | b'4,10,15,03,092,1' |
064: 342c 312a 3639 0d0a                      | b'4,1*69\r\n' |
<NMEA(GPGSV, numMsg=3, msgNum=2, numSV=11, svid_01=18, elv_01=1.0, az_01=183, cno_01=8, svid_02=21, elv_02=21.0, az_02=308, cno_02=20, svid_03=23, elv_03=48.0, az_03=143, cno_03=25, svid_04=24, elv_04=30.0, az_04=52, cno_04=26, signalID=1)>000: 2447 5047 5356 2c33 2c32 2c31 312c 3138  | b'$GPGSV,3,2,11,18' |
016: 2c30 312c 3138 332c 3038 2c32 312c 3231  | b',01,183,08,21,21' |
032: 2c33 3038 2c32 302c 3233 2c34 382c 3134  | b',308,20,23,48,14' |
048: 332c 3235 2c32 342c 3330 2c30 3532 2c32  | b'3,25,24,30,052,2' |
064: 362c 312a 3643 0d0a                      | b'6,1*6C\r\n' |
<NMEA(GPGSV, numMsg=3, msgNum=3, numSV=11, svid_01=25, elv_01=24.0, az_01=141, cno_01=19, svid_02=28, elv_02=27.0, az_02=219, cno_02=12, svid_03=32, elv_03=53.0, az_03=290, cno_03=30, signalID=1)>000: 2447 5047 5356 2c33 2c33 2c31 312c 3235  | b'$GPGSV,3,3,11,25' |
016: 2c32 342c 3134 312c 3139 2c32 382c 3237  | b',24,141,19,28,27' |
032: 2c32 3139 2c31 322c 3332 2c35 332c 3239  | b',219,12,32,53,29' |
048: 302c 3330 2c31 2a35 300d 0a              | b'0,30,1*50\r\n' |
<NMEA(GPGSV, numMsg=1, msgNum=1, numSV=3, svid_01=10, elv_01=85.0, az_01=227, cno_01=16, svid_02=23, elv_02=48.0, az_02=143, cno_02=14, svid_03=32, elv_03=53.0, az_03=290, cno_03=13, signalID=6)>000: 2447 5047 5356 2c31 2c31 2c30 332c 3130  | b'$GPGSV,1,1,03,10' |
016: 2c38 352c 3232 372c 3136 2c32 332c 3438  | b',85,227,16,23,48' |
032: 2c31 3433 2c31 342c 3332 2c35 332c 3239  | b',143,14,32,53,29' |
048: 302c 3133 2c36 2a35 430d 0a              | b'0,13,6*5C\r\n' |
<NMEA(GPGSV, numMsg=1, msgNum=1, numSV=2, svid_01=44, elv_01=23.0, az_01=235, cno_01=, svid_02=46, elv_02=15.0, az_02=246, cno_02=, signalID=0)>000: 2447 5047 5356 2c31 2c31 2c30 322c 3434  | b'$GPGSV,1,1,02,44' |
016: 2c32 332c 3233 352c 2c34 362c 3135 2c32  | b',23,235,,46,15,2' |
032: 3436 2c2c 302a 3634 0d0a                 | b'46,,0*64\r\n' |
<NMEA(GLGSV, numMsg=2, msgNum=1, numSV=7, svid_01=70, elv_01=48.0, az_01=81, cno_01=10, svid_02=71, elv_02=59.0, az_02=339, cno_02=31, svid_03=72, elv_03=18.0, az_03=301, cno_03=15, svid_04=73, elv_04=51.0, az_04=148, cno_04=29, signalID=1)>000: 2447 4c47 5356 2c32 2c31 2c30 372c 3730  | b'$GLGSV,2,1,07,70' |
016: 2c34 382c 3038 312c 3130 2c37 312c 3539  | b',48,081,10,71,59' |
032: 2c33 3339 2c33 312c 3732 2c31 382c 3330  | b',339,31,72,18,30' |
048: 312c 3135 2c37 332c 3531 2c31 3438 2c32  | b'1,15,73,51,148,2' |
064: 392c 312a 3732 0d0a                      | b'9,1*72\r\n' |
<NMEA(GLGSV, numMsg=2, msgNum=2, numSV=7, svid_01=74, elv_01=14.0, az_01=181, cno_01=7, svid_02=80, elv_02=46.0, az_02=52, cno_02=33, svid_03=87, elv_03=23.0, az_03=308, cno_03=17, signalID=1)>000: 2447 4c47 5356 2c32 2c32 2c30 372c 3734  | b'$GLGSV,2,2,07,74' |
016: 2c31 342c 3138 312c 3037 2c38 302c 3436  | b',14,181,07,80,46' |
032: 2c30 3532 2c33 332c 3837 2c32 332c 3330  | b',052,33,87,23,30' |
048: 382c 3137 2c31 2a34 380d 0a              | b'8,17,1*48\r\n' |
<NMEA(GLGSV, numMsg=1, msgNum=1, numSV=3, svid_01=79, elv_01=3.0, az_01=21, cno_01=, svid_02=86, elv_02=20.0, az_02=250, cno_02=, svid_03=88, elv_03=3.0, az_03=353, cno_03=, signalID=0)>000: 2447 4c47 5356 2c31 2c31 2c30 332c 3739  | b'$GLGSV,1,1,03,79' |
016: 2c30 332c 3032 312c 2c38 362c 3230 2c32  | b',03,021,,86,20,2' |
032: 3530 2c2c 3838 2c30 332c 3335 332c 2c30  | b'50,,88,03,353,,0' |
048: 2a34 390d 0a                             | b'*49\r\n' |
<NMEA(GAGSV, numMsg=2, msgNum=1, numSV=8, svid_01=3, elv_01=10.0, az_01=273, cno_01=10, svid_02=5, elv_02=59.0, az_02=294, cno_02=21, svid_03=9, elv_03=57.0, az_03=65, cno_03=21, svid_04=15, elv_04=18.0, az_04=321, cno_04=16, signalID=7)>000: 2447 4147 5356 2c32 2c31 2c30 382c 3033  | b'$GAGSV,2,1,08,03' |
016: 2c31 302c 3237 332c 3130 2c30 352c 3539  | b',10,273,10,05,59' |
032: 2c32 3934 2c32 312c 3039 2c35 372c 3036  | b',294,21,09,57,06' |
048: 352c 3231 2c31 352c 3138 2c33 3231 2c31  | b'5,21,15,18,321,1' |
064: 362c 372a 3739 0d0a                      | b'6,7*79\r\n' |
