<NMEA(GPGSV, numMsg=2, msgNum=1, numSV=7, svid_01=10, elv_01=84.0, az_01=272, cno_01=39, svid_02=12, elv_02=28.0, az_02=98, cno_02=27, svid_03=23, elv_03=52.0, az_03=141, cno_03=36, svid_04=24, elv_04=33.0, az_04=53, cno_04=27, signalID=6)>000: 2447 5047 5356 2c32 2c31 2c30 372c 3130  | b'$GPGSV,2,1,07,10' |
016: 2c38 342c 3237 322c 3339 2c31 322c 3238  | b',84,272,39,12,28' |
032: 2c30 3938 2c32 372c 3233 2c35 322c 3134  | b',098,27,23,52,14' |
048: 312c 3336 2c32 342c 3333 2c30 3533 2c32  | b'1,36,24,33,053,2' |
064: 372c 362a 3638 0d0a                      | b'7,6*68\r\n' |
<NMEA(GPGSV, numMsg=2, msgNum=2, numSV=7, svid_01=25, elv_01=21.0, az_01=143, cno_01=25, svid_02=28, elv_02=23.0, az_02=218, cno_02=31, svid_03=32, elv_03=50.0, az_03=286, cno_03=37, signalID=6)>000: 2447 5047 5356 2c32 2c32 2c30 372c 3235  | b'$GPGSV,2,2,07,25' |
016: 2c32 312c 3134 332c 3235 2c32 382c 3233  | b',21,143,25,28,23' |
032: 2c32 3138 2c33 312c 3332 2c35 302c 3238  | b',218,31,32,50,28' |
048: 362c 3337 2c36 2a35 460d 0a              | b'6,37,6*5F\r\n' |
<NMEA(GPGSV, numMsg=1, msgNum=1, numSV=3, svid_01=15, elv_01=6.0, az_01=90, cno_01=, svid_02=18, elv_02=5.0, az_02=184, cno_02=, svid_03=46, elv_03=15.0, az_03=246, cno_03=, signalID=0)>000: 2447 5047 5356 2c31 2c31 2c30 332c 3135  | b'$GPGSV,1,1,03,15' |
016: 2c30 362c 3039 302c 2c31 382c 3035 2c31  | b',06,090,,18,05,1' |
032: 3834 2c2c 3436 2c31 352c 3234 362c 2c30  | b'84,,46,15,246,,0' |
048: 2a35 410d 0a                             | b'*5A\r\n' |
<NMEA(GLGSV, numMsg=3, msgNum=1, numSV=9, svid_01=70, elv_01=51.0, az_01=75, cno_01=32, svid_02=71, elv_02=56.0, az_02=333, cno_02=45, svid_03=72, elv_03=15.0, az_03=299, cno_03=28, svid_04=73, elv_04=46.0, az_04=150, cno_04=45, signalID=1)>000: 2447 4c47 5356 2c33 2c31 2c30 392c 3730  | b'$GLGSV,3,1,09,70' |
016: 2c35 312c 3037 352c 3332 2c37 312c 3536  | b',51,075,32,71,56' |
032: 2c33 3333 2c34 352c 3732 2c31 352c 3239  | b',333,45,72,15,29' |
048: 392c 3238 2c37 332c 3436 2c31 3530 2c34  | b'9,28,73,46,150,4' |
064: 352c 312a 3745 0d0a                      | b'5,1*7E\r\n' |
<NMEA(GLGSV, numMsg=3, msgNum=2, numSV=9, svid_01=74, elv_01=10.0, az_01=181, cno_01=27, svid_02=79, elv_02=6.0, az_02=22, cno_02=22, svid_03=80, elv_03=48.0, az_03=58, cno_03=48, svid_04=86, elv_04=23.0, az_04=253, cno_04=39, signalID=1)>000: 2447 4c47 5356 2c33 2c32 2c30 392c 3734  | b'$GLGSV,3,2,09,74' |
016: 2c31 302c 3138 312c 3237 2c37 392c 3036  | b',10,181,27,79,06' |
032: 2c30 3232 2c32 322c 3830 2c34 382c 3035  | b',022,22,80,48,05' |
048: 382c 3438 2c38 362c 3233 2c32 3533 2c33  | b'8,48,86,23,253,3' |
064: 392c 312a 3733 0d0a                      | b'9,1*73\r\n' |
<NMEA(GLGSV, numMsg=3, msgNum=3, numSV=9, svid_01=87, elv_01=24.0, az_01=312, cno_01=37, signalID=1)>000: 2447 4c47 5356 2c33 2c33 2c30 392c 3837  | b'$GLGSV,3,3,09,87' |
016: 2c32 342c 3331 322c 3337 2c31 2a34 430d  | b',24,312,37,1*4C\r' |
032: 0a                                       | b'\n' |
<NMEA(GLGSV, numMsg=1, msgNum=1, numSV=2, svid_01=71, elv_01=56.0, az_01=333, cno_01=27, svid_02=85, elv_02=0.0, az_02=214, cno_02=6, signalID=3)>000: 2447 4c47 5356 2c31 2c31 2c30 322c 3731  | b'$GLGSV,1,1,02,71' |
016: 2c35 362c 3333 332c 3237 2c38 352c 3030  | b',56,333,27,85,00' |
032: 2c32 3134 2c30 362c 332a 3737 0d0a       | b',214,06,3*77\r\n' |
<NMEA(GLGSV, numMsg=1, msgNum=1, numSV=1, svid_01=88, elv_01=0.0, az_01=356, cno_01=, signalID=0)>000: 2447 4c47 5356 2c31 2c31 2c30 312c 3838  | b'$GLGSV,1,1,01,88' |
016: 2c30 302c 3335 362c 2c30 2a34 380d 0a    | b',00,356,,0*48\r\n' |
<NMEA(GAGSV, numMsg=3, msgNum=1, numSV=9, svid_01=3, elv_01=9.0, az_01=272, cno_01=22, svid_02=4, elv_02=10.0, az_02=83, cno_02=21, svid_03=5, elv_03=58.0, az_03=291, cno_03=41, svid_04=9, elv_04=58.0, az_04=62, cno_04=39, signalID=2)>000: 2447 4147 5356 2c33 2c31 2c30 392c 3033  | b'$GAGSV,3,1,09,03' |
016: 2c30 392c 3237 322c 3232 2c30 342c 3130  | b',09,272,22,04,10' |
032: 2c30 3833 2c32 312c 3035 2c35 382c 3239  | b',083,21,05,58,29' |
048: 312c 3431 2c30 392c 3538 2c30 3632 2c33  | b'1,41,09,58,062,3' |
064: 392c 322a 3730 0d0a                      | b'9,2*70\r\n' |
<NMEA(GAGSV, numMsg=3, msgNum=2, numSV=9, svid_01=15, elv_01=17.0, az_01=323, cno_01=31, svid_02=24, elv_02=21.0, az_02=146, cno_02=28, svid_03=31, elv_03=34.0, az_03=91, cno_03=27, svid_04=34, elv_04=39.0, az_04=270, cno_04=42, signalID=2)>000: 2447 4147 5356 2c33 2c32 2c30 392c 3135  | b'$GAGSV,3,2,09,15' |
016: 2c31 372c 3332 332c 3331 2c32 342c 3231  | b',17,323,31,24,21' |
032: 2c31 3436 2c32 382c 3331 2c33 342c 3039  | b',146,28,31,34,09' |
048: 312c 3237 2c33 342c 3339 2c32 3730 2c34  | b'1,27,34,39,270,4' |
064: 322c 322a 3736 0d0a                      | b'2,2*76\r\n' |
<NMEA(GAGSV, numMsg=3, msgNum=3, numSV=9, svid_01=36, elv_01=25.0, az_01=210, cno_01=37, signalID=2)>000: 2447 4147 5356 2c33 2c33 2c30 392c 3336  | b'$GAGSV,3,3,09,36' |
016: 2c32 352c 3231 302c 3337 2c32 2a34 410d  | b',25,210,37,2*4A\r' |
032: 0a                                       | b'\n' |
<NMEA(GAGSV, numMsg=2, msgNum=1, numSV=7, svid_01=5, elv_01=58.0, az_01=291, cno_01=44, svid_02=9, elv_02=58.0, az_02=62, cno_02=48, svid_03=15, elv_03=17.0, az_03=323, cno_03=32, svid_04=24, elv_04=21.0, az_04=146, cno_04=28, signalID=7)>000: 2447 4147 5356 2c32 2c31 2c30 372c 3035  | b'$GAGSV,2,1,07,05' |
016: 2c35 382c 3239 312c 3434 2c30 392c 3538  | b',58,291,44,09,58' |
032: 2c30 3632 2c34 382c 3135 2c31 372c 3332  | b',062,48,15,17,32' |
048: 332c 3332 2c32 342c 3231 2c31 3436 2c32  | b'3,32,24,21,146,2' |
064: 382c 372a 3734 0d0a                      | b'8,7*74\r\n' |
<NMEA(GAGSV, numMsg=2, msgNum=2, numSV=7, svid_01=31, elv_01=34.0, az_01=91, cno_01=40, svid_02=34, elv_02=39.0, az_02=270, cno_02=46, svid_03=36, elv_03=25.0, az_03=210, cno_03=36, signalID=7)>000: 2447 4147 5356 2c32 2c32 2c30 372c 3331  | b'$GAGSV,2,2,07,31' |
016: 2c33 342c 3039 312c 3430 2c33 342c 3339  | b',34,091,40,34,39' |
032: 2c32 3730 2c34 362c 3336 2c32 352c 3231  | b',270,46,36,25,21' |
048: 302c 3336 2c37 2a34 330d 0a              | b'0,36,7*43\r\n' |
<NMEA(GBGSV, numMsg=2, msgNum=1, numSV=7, svid_01=19, elv_01=27.0, az_01=300, cno_01=42, svid_02=20, elv_02=76.0, az_02=336, cno_02=49, svid_03=23, elv_03=31.0, az_03=52, cno_03=42, svid_04=29, elv_04=7.0, az_04=249, cno_04=20, signalID=1)>000: 2447 4247 5356 2c32 2c31 2c30 372c 3139  | b'$GBGSV,2,1,07,19' |
016: 2c32 372c 3330 302c 3432 2c32 302c 3736  | b',27,300,42,20,76' |
032: 2c33 3336 2c34 392c 3233 2c33 312c 3035  | b',336,49,23,31,05' |
048: 322c 3432 2c32 392c 3037 2c32 3439 2c32  | b'2,42,29,07,249,2' |
064: 302c 312a 3731 0d0a                      | b'0,1*71\r\n' |
<NMEA(GBGSV, numMsg=2, msgNum=2, numSV=7, svid_01=32, elv_01=41.0, az_01=105, cno_01=42, svid_02=35, elv_02=10.0, az_02=302, cno_02=23, svid_03=37, elv_03=58.0, az_03=126, cno_03=48, signalID=1)>000: 2447 4247 5356 2c32 2c32 2c30 372c 3332  | b'$GBGSV,2,2,07,32' |
016: 2c34 312c 3130 352c 3432 2c33 352c 3130  | b',41,105,42,35,10' |
032: 2c33 3032 2c32 332c 3337 2c35 382c 3132  | b',302,23,37,58,12' |
048: 362c 3438 2c31 2a34 300d 0a              | b'6,48,1*40\r\n' |
<NMEA(GBGSV, numMsg=2, msgNum=1, numSV=5, svid_01=19, elv_01=27.0, az_01=300, cno_01=9, svid_02=20, elv_02=76.0, az_02=336, cno_02=8, svid_03=29, elv_03=7.0, az_03=249, cno_03=8, svid_04=32, elv_04=41.0, az_04=105, cno_04=8, signalID=3)>000: 2447 4247 5356 2c32 2c31 2c30 352c 3139  | b'$GBGSV,2,1,05,19' |
016: 2c32 372c 3330 302c 3039 2c32 302c 3736  | b',27,300,09,20,76' |
032: 2c33 3336 2c30 382c 3239 2c30 372c 3234  | b',336,08,29,07,24' |
048: 392c 3038 2c33 322c 3431 2c31 3035 2c30  | b'9,08,32,41,105,0' |
064: 382c 332a 3742 0d0a                      | b'8,3*7B\r\n' |
<NMEA(GBGSV, numMsg=2, msgNum=2, numSV=5, svid_01=35, elv_01=10.0, az_01=302, cno_01=11, signalID=3)>000: 2447 4247 5356 2c32 2c32 2c30 352c 3335  | b'$GBGSV,2,2,05,35' |
016: 2c31 302c 3330 322c 3131 2c33 2a34 370d  | b',10,302,11,3*47\r' |
032: 0a                                       | b'\n' |
<NMEA(GNGLL, lat=43.8827041117, NS=N, lon=-72.1579769867, EW=W, time=20:15:14.250000, status=A, posMode=D)>000: 2447 4e47 4c4c 2c34 3335 322e 3936 3232  | b'$GNGLL,4352.9622' |
016: 3436 372c 4e2c 3037 3230 392e 3437 3836  | b'467,N,07209.4786' |
032: 3139 322c 572c 3230 3135 3134 2e32 352c  | b'192,W,201514.25,' |
048: 412c 442a 3635 0d0a                      | b'A,D*65\r\n' |
<NMEA(GNRMC, time=20:15:14.500000, status=A, lat=43.8827044417, NS=N, lon=-72.157978125, EW=W, spd=0.693, cog=288.99, date=2023-09-05, mv=, mvEW=, posMode=R, navStatus=V)>000: 2447 4e52 4d43 2c32 3031 3531 342e 3530  | b'$GNRMC,201514.50' |
016: 2c41 2c34 3335 322e 3936 3232 3636 352c  | b',A,4352.9622665,' |
032: 4e2c 3037 3230 392e 3437 3836 3837 352c  | b'N,07209.4786875,' |
048: 572c 302e 3639 332c 3238 382e 3939 2c30  | b'W,0.693,288.99,0' |
064: 3530 3932 332c 2c2c 522c 562a 3046 0d0a  | b'50923,,,R,V*0F\r\n' |
<NMEA(GNRMC, time=20:15:14.750000, status=A, lat=43.8827040833, NS=N, lon=-72.157977805, EW=W, spd=0.509, cog=156.22, date=2023-09-05, mv=, mvEW=, posMode=R, navStatus=V)>000: 2447 4e52 4d43 2c32 3031 3531 342e 3735  | b'$GNRMC,201514.75' |
016: 2c41 2c34 3335 322e 3936 3232 3435 302c  | b',A,4352.9622450,' |
032: 4e2c 3037 3230 392e 3437 3836 3638 332c  | b'N,07209.4786683,' |
048: 572c 302e 3530 392c 3135 362e 3232 2c30  | b'W,0.509,156.22,0' |
064: 3530 3932 332c 2c2c 522c 562a 3042 0d0a  | b'50923,,,R,V*0B\r\n' |
<NMEA(GNVTG, cogt=156.22, cogtUnit=T, cogm=, cogmUnit=M, sogn=0.509, sognUnit=N, sogk=0.943, sogkUnit=K, posMode=D)>000: 2447 4e56 5447 2c31 3536 2e32 322c 542c  | b'$GNVTG,156.22,T,' |
016: 2c4d 2c30 2e35 3039 2c4e 2c30 2e39 3433  | b',M,0.509,N,0.943' |
032: 2c4b 2c44 2a32 360d 0a                   | b',K,D*26\r\n' |
<NMEA(GNGGA, time=20:15:14.750000, lat=43.8827040833, NS=N, lon=-72.157977805, EW=W, quality=4, numSV=12, HDOP=0.57, alt=141.28, altUnit=M, sep=-32.547, sepUnit=M, diffAge=, diffStation=0)>000: 2447 4e47 4741 2c32 3031 3531 342e 3735  | b'$GNGGA,201514.75' |
016: 2c34 3335 322e 3936 3232 3435 302c 4e2c  | b',4352.9622450,N,' |
032: 3037 3230 392e 3437 3836 3638 332c 572c  | b'07209.4786683,W,' |
048: 342c 3132 2c30 2e35 372c 3134 312e 3238  | b'4,12,0.57,141.28' |
064: 302c 4d2c 2d33 322e 3534 372c 4d2c 2c30  | b'0,M,-32.547,M,,0' |
080: 3030 302a 3733 0d0a                      | b'000*73\r\n' |
<NMEA(GNGSA, opMode=A, navMode=3, svid_01=44, svid_02=25, svid_03=28, svid_04=21, svid_05=24, svid_06=10, svid_07=12, svid_08=23, svid_09=32, svid_10=, svid_11=, svid_12=, PDOP=1.12, HDOP=0.57, VDOP=0.97, systemId=1)>000: 2447 4e47 5341 2c41 2c33 2c34 342c 3235  | b'$GNGSA,A,3,44,25' |
016: 2c32 382c 3231 2c32 342c 3130 2c31 322c  | b',28,21,24,10,12,' |
032: 3233 2c33 322c 2c2c 2c31 2e31 322c 302e  | b'23,32,,,,1.12,0.' |
048: 3537 2c30 2e39 372c 312a 3035 0d0a       | b'57,0.97,1*05\r\n' |
<NMEA(GNGSA, opMode=A, navMode=3, svid_01=87, svid_02=80, svid_03=70, svid_04=71, svid_05=74, svid_06=73, svid_07=, svid_08=, svid_09=, svid_10=, svid_11=, svid_12=, PDOP=1.12, HDOP=0.57, VDOP=0.97, systemId=2)>000: 2447 4e47 5341 2c41 2c33 2c38 372c 3830  | b'$GNGSA,A,3,87,80' |
016: 2c37 302c 3731 2c37 342c 3733 2c2c 2c2c  | b',70,71,74,73,,,,' |
032: 2c2c 2c31 2e31 322c 302e 3537 2c30 2e39  | b',,,1.12,0.57,0.9' |
048: 372c 322a 3044 0d0a                      | b'7,2*0D\r\n' |
<NMEA(GNGSA, opMode=A, navMode=3, svid_01=36, svid_02=15, svid_03=5, svid_04=31, svid_05=34, svid_06=4, svid_07=9, svid_08=24, svid_09=, svid_10=, svid_11=, svid_12=, PDOP=1.12, HDOP=0.57, VDOP=0.97, systemId=3)>000: 2447 4e47 5341 2c41 2c33 2c33 362c 3135  | b'$GNGSA,A,3,36,15' |
016: 2c30 352c 3331 2c33 342c 3034 2c30 392c  | b',05,31,34,04,09,' |
032: 3234 2c2c 2c2c 2c31 2e31 322c 302e 3537  | b'24,,,,,1.12,0.57' |
048: 2c30 2e39 372c 332a 3037 0d0a            | b',0.97,3*07\r\n' |
<NMEA(GNGSA, opMode=A, navMode=3, svid_01=37, svid_02=19, svid_03=32, svid_04=20, svid_05=23, svid_06=, svid_07=, svid_08=, svid_09=, svid_10=, svid_11=, svid_12=, PDOP=1.12, HDOP=0.57, VDOP=0.97, systemId=4)>000: 2447 4e47 5341 2c41 2c33 2c33 372c 3139  | b'$GNGSA,A,3,37,19' |
016: 2c33 322c 3230 2c32 332c 2c2c 2c2c 2c2c  | b',32,20,23,,,,,,,' |
032: 2c31 2e31 322c 302e 3537 2c30 2e39 372c  | b',1.12,0.57,0.97,' |
048: 342a 3034 0d0a                           | b'4*04\r\n' |
<NMEA(GPGSV, numMsg=3, msgNum=1, numSV=9, svid_01=10, elv_01=84.0, az_01=272, cno_01=49, svid_02=12, elv_02=28.0, az_02=98, cno_02=29, svid_03=21, elv_03=20.0, az_03=311, cno_03=36, svid_04=23, elv_04=52.0, az_04=141, cno_04=40, signalID=1)>000: 2447 5047 5356 2c33 2c31 2c30 392c 3130  | b'$GPGSV,3,1,09,10' |
016: 2c38 342c 3237 322c 3439 2c31 322c 3238  | b',84,272,49,12,28' |
032: 2c30 3938 2c32 392c 3231 2c32 302c 3331  | b',098,29,21,20,31' |
048: 312c 3336 2c32 332c 3532 2c31 3431 2c34  | b'1,36,23,52,141,4' |
064: 302c 312a 3641 0d0a                      | b'0,1*6A\r\n' |
<NMEA(GPGSV, numMsg=3, msgNum=2, numSV=9, svid_01=24, elv_01=33.0, az_01=53, cno_01=35, svid_02=25, elv_02=21.0, az_02=143, cno_02=29, svid_03=28, elv_03=23.0, az_03=218, cno_03=37, svid_04=32, elv_04=50.0, az_04=286, cno_04=47, signalID=1)>000: 2447 5047 5356 2c33 2c32 2c30 392c 3234  | b'$GPGSV,3,2,09,24' |
016: 2c33 332c 3035 332c 3335 2c32 352c 3231  | b',33,053,35,25,21' |
032: 2c31 3433 2c32 392c 3238 2c32 332c 3231  | b',143,29,28,23,21' |
048: 382c 3337 2c33 322c 3530 2c32 3836 2c34  | b'8,37,32,50,286,4' |
064: 372c 312a 3643 0d0a                      | b'7,1*6C\r\n' |
<NMEA(GPGSV, numMsg=3, msgNum=3, numSV=9, svid_01=44, elv_01=23.0, az_01=235, cno_01=41, signalID=1)>000: 2447 5047 5356 2c33 2c33 2c30 392c 3434  | b'$GPGSV,3,3,09,44' |
016: 2c32 332c 3233 352c 3431 2c31 2a35 440d  | b',23,235,41,1*5D\r' |
032: 0a                                       | b'\n' |
<NMEA(GPGSV, numMsg=2, msgNum=1, numSV=7, svid_01=10, elv_01=84.0, az_01=272, cno_01=38, svid_02=12, elv_02=28.0, az_02=98, cno_02=25, svid_03=23, elv_03=52.0, az_03=141, cno_03=32, svid_04=24, elv_04=33.0, az_04=53, cno_04=32, signalID=6)>000: 2447 5047 5356 2c32 2c31 2c30 372c 3130  | b'$GPGSV,2,1,07,10' |
016: 2c38 342c 3237 322c 3338 2c31 322c 3238  | b',84,272,38,12,28' |
032: 2c30 3938 2c32 352c 3233 2c35 322c 3134  | b',098,25,23,52,14' |
048: 312c 3332 2c32 342c 3333 2c30 3533 2c33  | b'1,32,24,33,053,3' |
064: 322c 362a 3642 0d0a                      | b'2,6*6B\r\n' |
<NMEA(GPGSV, numMsg=2, msgNum=2, numSV=7, svid_01=25, elv_01=21.0, az_01=143, cno_01=24, svid_02=28, elv_02=23.0, az_02=218, cno_02=30, svid_03=32, elv_03=50.0, az_03=286, cno_03=37, signalID=6)>000: 2447 5047 5356 2c32 2c32 2c30 372c 3235  | b'$GPGSV,2,2,07,25' |
016: 2c32 312c 3134 332c 3234 2c32 382c 3233  | b',21,143,24,28,23' |
032: 2c32 3138 2c33 302c 3332 2c35 302c 3238  | b',218,30,32,50,28' |
048: 362c 3337 2c36 2a35 460d 0a              | b'6,37,6*5F\r\n' |
<NMEA(GPGSV, numMsg=1, msgNum=1, numSV=4, svid_01=2, elv_01=16.0, az_01=319, cno_01=, svid_02=15, elv_02=6.0, az_02=90, cno_02=, svid_03=18, elv_03=5.0, az_03=184, cno_03=, svid_04=46, elv_04=15.0, az_04=246, cno_04=, signalID=0)>000: 2447 5047 5356 2c31 2c31 2c30 342c 3032  | b'$GPGSV,1,1,04,02' |
016: 2c31 362c 3331 392c 2c31 352c 3036 2c30  | b',16,319,,15,06,0' |
032: 3930 2c2c 3138 2c30 352c 3138 342c 2c34  | b'90,,18,05,184,,4' |
048: 362c 3135 2c32 3436 2c2c 302a 3633 0d0a  | b'6,15,246,,0*63\r\n' |
<NMEA(GLGSV, numMsg=2, msgNum=1, numSV=8, svid_01=70, elv_01=51.0, az_01=75, cno_01=35, svid_02=71, elv_02=56.0, az_02=333, cno_02=50, svid_03=73, elv_03=46.0, az_03=150, cno_03=45, svid_04=74, elv_04=10.0, az_04=181, cno_04=26, signalID=1)>000: 2447 4c47 5356 2c32 2c31 2c30 382c 3730  | b'$GLGSV,2,1,08,70' |
016: 2c35 312c 3037 352c 3335 2c37 312c 3536  | b',51,075,35,71,56' |
032: 2c33 3333 2c35 302c 3733 2c34 362c 3135  | b',333,50,73,46,15' |
048: 302c 3435 2c37 342c 3130 2c31 3831 2c32  | b'0,45,74,10,181,2' |
064: 362c 312a 3741 0d0a                      | b'6,1*7A\r\n' |
<NMEA(GLGSV, numMsg=1, msgNum=1, numSV=3, svid_01=71, elv_01=56.0, az_01=333, cno_01=29, svid_02=80, elv_02=48.0, az_02=58, cno_02=33, svid_03=85, elv_03=0.0, az_03=214, cno_03=8, signalID=3)>000: 2447 4c47 5356 2c31 2c31 2c30 332c 3731  | b'$GLGSV,1,1,03,71' |
016: 2c35 362c 3333 332c 3239 2c38 302c 3438  | b',56,333,29,80,48' |
032: 2c30 3538 2c33 332c 3835 2c30 302c 3231  | b',058,33,85,00,21' |
048: 342c 3038 2c33 2a34 460d 0a              | b'4,08,3*4F\r\n' |
<NMEA(GLGSV, numMsg=1, msgNum=1, numSV=2, svid_01=72, elv_01=15.0, az_01=299, cno_01=, svid_02=88, elv_02=0.0, az_02=356, cno_02=, signalID=0)>000: 2447 4c47 5356 2c31 2c31 2c30 322c 3732  | b'$GLGSV,1,1,02,72' |
016: 2c31 352c 3239 392c 2c38 382c 3030 2c33  | b',15,299,,88,00,3' |
032: 3536 2c2c 302a 3738 0d0a                 | b'56,,0*78\r\n' |
<NMEA(GAGSV, numMsg=3, msgNum=1, numSV=9, svid_01=3, elv_01=9.0, az_01=272, cno_01=23, svid_02=4, elv_02=10.0, az_02=83, cno_02=19, svid_03=5, elv_03=58.0, az_03=291, cno_03=41, svid_04=9, elv_04=58.0, az_04=62, cno_04=36, signalID=2)>000: 2447 4147 5356 2c33 2c31 2c30 392c 3033  | b'$GAGSV,3,1,09,03' |
016: 2c30 392c 3237 322c 3233 2c30 342c 3130  | b',09,272,23,04,10' |
032: 2c30 3833 2c31 392c 3035 2c35 382c 3239  | b',083,19,05,58,29' |
048: 312c 3431 2c30 392c 3538 2c30 3632 2c33  | b'1,41,09,58,062,3' |
064: 362c 322a 3735 0d0a                      | b'6,2*75\r\n' |
<NMEA(GAGSV, numMsg=3, msgNum=2, numSV=9, svid_01=15, elv_01=17.0, az_01=323, cno_01=23, svid_02=24, elv_02=21.0, az_02=146, cno_02=27, svid_03=31, elv_03=34.0, az_03=91, cno_03=25, svid_04=34, elv_04=39.0, az_04=270, cno_04=41, signalID=2)>000: 2447 4147 5356 2c33 2c32 2c30 392c 3135  | b'$GAGSV,3,2,09,15' |
016: 2c31 372c 3332 332c 3233 2c32 342c 3231  | b',17,323,23,24,21' |
032: 2c31 3436 2c32 372c 3331 2c33 342c 3039  | b',146,27,31,34,09' |
048: 312c 3235 2c33 342c 3339 2c32 3730 2c34  | b'1,25,34,39,270,4' |
064: 312c 322a 3742 0d0a                      | b'1,2*7B\r\n' |
<NMEA(GAGSV, numMsg=3, msgNum=3, numSV=9, svid_01=36, elv_01=25.0, az_01=210, cno_01=36, signalID=2)>000: 2447 4147 5356 2c33 2c33 2c30 392c 3336  | b'$GAGSV,3,3,09,36' |
016: 2c32 352c 3231 302c 3336 2c32 2a34 420d  | b',25,210,36,2*4B\r' |
032: 0a                                       | b'\n' |
<NMEA(GAGSV, numMsg=2, msgNum=1, numSV=7, svid_01=5, elv_01=58.0, az_01=291, cno_01=47, svid_02=9, elv_02=58.0, az_02=62, cno_02=46, svid_03=15, elv_03=17.0, az_03=323, cno_03=31, svid_04=24, elv_04=21.0, az_04=146, cno_04=28, signalID=7)>000: 2447 4147 5356 2c32 2c31 2c30 372c 3035  | b'$GAGSV,2,1,07,05' |
016: 2c35 382c 3239 312c 3437 2c30 392c 3538  | b',58,291,47,09,58' |
032: 2c30 3632 2c34 362c 3135 2c31 372c 3332  | b',062,46,15,17,32' |
048: 332c 3331 2c32 342c 3231 2c31 3436 2c32  | b'3,31,24,21,146,2' |
064: 382c 372a 3741 0d0a                      | b'8,7*7A\r\n' |
<NMEA(GAGSV, numMsg=2, msgNum=2, numSV=7, svid_01=31, elv_01=34.0, az_01=91, cno_01=29, svid_02=34, elv_02=39.0, az_02=270, cno_02=41, svid_03=36, elv_03=25.0, az_03=210, cno_03=41, signalID=7)>000: 2447 4147 5356 2c32 2c32 2c30 372c 3331  | b'$GAGSV,2,2,07,31' |
016: 2c33 342c 3039 312c 3239 2c33 342c 3339  | b',34,091,29,34,39' |
032: 2c32 3730 2c34 312c 3336 2c32 352c 3231  | b',270,41,36,25,21' |
048: 302c 3431 2c37 2a34 420d 0a              | b'0,41,7*4B\r\n' |
<NMEA(GBGSV, numMsg=2, msgNum=1, numSV=7, svid_01=19, elv_01=27.0, az_01=300, cno_01=41, svid_02=20, elv_02=76.0, az_02=336, cno_02=52, svid_03=23, elv_03=31.0, az_03=52, cno_03=39, svid_04=29, elv_04=7.0, az_04=249, cno_04=21, signalID=1)>000: 2447 4247 5356 2c32 2c31 2c30 372c 3139  | b'$GBGSV,2,1,07,19' |
016: 2c32 372c 3330 302c 3431 2c32 302c 3736  | b',27,300,41,20,76' |
032: 2c33 3336 2c35 322c 3233 2c33 312c 3035  | b',336,52,23,31,05' |
048: 322c 3339 2c32 392c 3037 2c32 3439 2c32  | b'2,39,29,07,249,2' |
064: 312c 312a 3735 0d0a                      | b'1,1*75\r\n' |
<NMEA(GBGSV, numMsg=2, msgNum=2, numSV=7, svid_01=32, elv_01=41.0, az_01=105, cno_01=39, svid_02=35, elv_02=10.0, az_02=302, cno_02=29, svid_03=37, elv_03=58.0, az_03=126, cno_03=46, signalID=1)>000: 2447 4247 5356 2c32 2c32 2c30 372c 3332  | b'$GBGSV,2,2,07,32' |
016: 2c34 312c 3130 352c 3339 2c33 352c 3130  | b',41,105,39,35,10' |
032: 2c33 3032 2c32 392c 3337 2c35 382c 3132  | b',302,29,37,58,12' |
048: 362c 3436 2c31 2a34 380d 0a              | b'6,46,1*48\r\n' |
<NMEA(GBGSV, numMsg=2, msgNum=1, numSV=5, svid_01=19, elv_01=27.0, az_01=300, cno_01=9, svid_02=20, elv_02=76.0, az_02=336, cno_02=8, svid_03=29, elv_03=7.0, az_03=249, cno_03=9, svid_04=32, elv_04=41.0, az_04=105, cno_04=8, signalID=3)>000: 2447 4247 5356 2c32 2c31 2c30 352c 3139  | b'$GBGSV,2,1,05,19' |
016: 2c32 372c 3330 302c 3039 2c32 302c 3736  | b',27,300,09,20,76' |
032: 2c33 3336 2c30 382c 3239 2c30 372c 3234  | b',336,08,29,07,24' |
048: 392c 3039 2c33 322c 3431 2c31 3035 2c30  | b'9,09,32,41,105,0' |
064: 382c 332a 3741 0d0a                      | b'8,3*7A\r\n' |
<NMEA(GBGSV, numMsg=2, msgNum=2, numSV=5, svid_01=35, elv_01=10.0, az_01=302, cno_01=11, signalID=3)>000: 2447 4247 5356 2c32 2c32 2c30 352c 3335  | b'$GBGSV,2,2,05,35' |
016: 2c31 302c 3330 322c 3131 2c33 2a34 370d  | b',10,302,11,3*47\r' |
032: 0a                                       | b'\n' |
<NMEA(GNGLL, lat=43.8827040833, NS=N, lon=-72.157977805, EW=W, time=20:15:14.750000, status=A, posMode=D)>000: 2447 4e47 4c4c 2c34 3335 322e 3936 3232  | b'$GNGLL,4352.9622' |
016: 3435 302c 4e2c 3037 3230 392e 3437 3836  | b'450,N,07209.4786' |
032: 3638 332c 572c 3230 3135 3134 2e37 352c  | b'683,W,201514.75,' |
048: 412c 442a 3633 0d0a                      | b'A,D*63\r\n' |
<NMEA(GNRMC, time=20:15:15, status=A, lat=43.8827045367, NS=N, lon=-72.15797922, EW=W, spd=1.007, cog=292.6, date=2023-09-05, mv=, mvEW=, posMode=R, navStatus=V)>000: 2447 4e52 4d43 2c32 3031 3531 352e 3030  | b'$GNRMC,201515.00' |
016: 2c41 2c34 3335 322e 3936 3232 3732 322c  | b',A,4352.9622722,' |
032: 4e2c 3037 3230 392e 3437 3837 3533 322c  | b'N,07209.4787532,' |
048: 572c 312e 3030 372c 3239 322e 3630 2c30  | b'W,1.007,292.60,0' |
064: 3530 3932 332c 2c2c 522c 562a 3031 0d0a  | b'50923,,,R,V*01\r\n' |
<NMEA(GNVTG, cogt=292.6, cogtUnit=T, cogm=, cogmUnit=M, sogn=1.007, sognUnit=N, sogk=1.866, sogkUnit=K, posMode=D)>000: 2447 4e56 5447 2c32 3932 2e36 302c 542c  | b'$GNVTG,292.60,T,' |
016: 2c4d 2c31 2e30 3037 2c4e 2c31 2e38 3636  | b',M,1.007,N,1.866' |
032: 2c4b 2c44 2a32 360d 0a                   | b',K,D*26\r\n' |
<NMEA(GNGGA, time=20:15:15, lat=43.8827045367, NS=N, lon=-72.15797922, EW=W, quality=4, numSV=12, HDOP=0.57, alt=141.264, altUnit=M, sep=-32.547, sepUnit=M, diffAge=, diffStation=0)>000: 2447 4e47 4741 2c32 3031 3531 352e 3030  | b'$GNGGA,201515.00' |
016: 2c34 3335 322e 3936 3232 3732 322c 4e2c  | b',4352.9622722,N,' |
032: 3037 3230 392e 3437 3837 3533 322c 572c  | b'07209.4787532,W,' |
048: 342c 3132 2c30 2e35 372c 3134 312e 3236  | b'4,12,0.57,141.26' |
064: 342c 4d2c 2d33 322e 3534 372c 4d2c 2c30  | b'4,M,-32.547,M,,0' |
080: 3030 302a 3734 0d0a                      | b'000*74\r\n' |
<NMEA(GNGSA, opMode=A, navMode=3, svid_01=44, svid_02=25, svid_03=28, svid_04=21, svid_05=24, svid_06=10, svid_07=12, svid_08=23, svid_09=32, svid_10=, svid_11=, svid_12=, PDOP=1.12, HDOP=0.57, VDOP=0.97, systemId=1)>000: 2447 4e47 5341 2c41 2c33 2c34 342c 3235  | b'$GNGSA,A,3,44,25' |
016: 2c32 382c 3231 2c32 342c 3130 2c31 322c  | b',28,21,24,10,12,' |
032: 3233 2c33 322c 2c2c 2c31 2e31 322c 302e  | b'23,32,,,,1.12,0.' |
048: 3537 2c30 2e39 372c 312a 3035 0d0a       | b'57,0.97,1*05\r\n' |
<NMEA(GNGSA, opMode=A, navMode=3, svid_01=87, svid_02=80, svid_03=70, svid_04=71, svid_05=74, svid_06=73, svid_07=, svid_08=, svid_09=, svid_10=, svid_11=, svid_12=, PDOP=1.12, HDOP=0.57, VDOP=0.97, systemId=2)>000: 2447 4e47 5341 2c41 2c33 2c38 372c 3830  | b'$GNGSA,A,3,87,80' |
016: 2c37 302c 3731 2c37 342c 3733 2c2c 2c2c  | b',70,71,74,73,,,,' |
032: 2c2c 2c31 2e31 322c 302e 3537 2c30 2e39  | b',,,1.12,0.57,0.9' |
048: 372c 322a 3044 0d0a                      | b'7,2*0D\r\n' |
<NMEA(GNGSA, opMode=A, navMode=3, svid_01=36, svid_02=15, svid_03=5, svid_04=31, svid_05=34, svid_06=4, svid_07=9, svid_08=24, svid_09=, svid_10=, svid_11=, svid_12=, PDOP=1.12, HDOP=0.57, VDOP=0.97, systemId=3)>000: 2447 4e47 5341 2c41 2c33 2c33 362c 3135  | b'$GNGSA,A,3,36,15' |
016: 2c30 352c 3331 2c33 342c 3034 2c30 392c  | b',05,31,34,04,09,' |
032: 3234 2c2c 2c2c 2c31 2e31 322c 302e 3537  | b'24,,,,,1.12,0.57' |
048: 2c30 2e39 372c 332a 3037 0d0a            | b',0.97,3*07\r\n' |
<NMEA(GNGSA, opMode=A, navMode=3, svid_01=37, svid_02=19, svid_03=32, svid_04=20, svid_05=23, svid_06=, svid_07=, svid_08=, svid_09=, svid_10=, svid_11=, svid_12=, PDOP=1.12, HDOP=0.57, VDOP=0.97, systemId=4)>000: 2447 4e47 5341 2c41 2c33 2c33 372c 3139  | b'$GNGSA,A,3,37,19' |
016: 2c33 322c 3230 2c32 332c 2c2c 2c2c 2c2c  | b',32,20,23,,,,,,,' |
032: 2c31 2e31 322c 302e 3537 2c30 2e39 372c  | b',1.12,0.57,0.97,' |
048: 342a 3034 0d0a                           | b'4*04\r\n' |
<NMEA(GPGSV, numMsg=3, msgNum=1, numSV=9, svid_01=2, elv_01=16.0, az_01=319, cno_01=31, svid_02=10, elv_02=84.0, az_02=272, cno_02=50, svid_03=12, elv_03=28.0, az_03=98, cno_03=36, svid_04=21, elv_04=20.0, az_04=311, cno_04=39, signalID=1)>000: 2447 5047 5356 2c33 2c31 2c30 392c 3032  | b'$GPGSV,3,1,09,02' |
016: 2c31 362c 3331 392c 3331 2c31 302c 3834  | b',16,319,31,10,84' |
032: 2c32 3732 2c35 302c 3132 2c32 382c 3039  | b',272,50,12,28,09' |
048: 382c 3336 2c32 312c 3230 2c33 3131 2c33  | b'8,36,21,20,311,3' |
064: 392c 312a 3639 0d0a                      | b'9,1*69\r\n' |
<NMEA(GPGSV, numMsg=3, msgNum=2, numSV=9, svid_01=23, elv_01=52.0, az_01=141, cno_01=38, svid_02=24, elv_02=33.0, az_02=53, cno_02=42, svid_03=28, elv_03=23.0, az_03=218, cno_03=40, svid_04=32, elv_04=50.0, az_04=286, cno_04=48, signalID=1)>000: 2447 5047 5356 2c33 2c32 2c30 392c 3233  | b'$GPGSV,3,2,09,23' |
016: 2c35 322c 3134 312c 3338 2c32 342c 3333  | b',52,141,38,24,33' |
032: 2c30 3533 2c34 322c 3238 2c32 332c 3231  | b',053,42,28,23,21' |
048: 382c 3430 2c33 322c 3530 2c32 3836 2c34  | b'8,40,32,50,286,4' |
064: 382c 312a 3633 0d0a                      | b'8,1*63\r\n' |
<NMEA(GPGSV, numMsg=3, msgNum=3, numSV=9, svid_01=44, elv_01=23.0, az_01=235, cno_01=36, signalID=1)>000: 2447 5047 5356 2c33 2c33 2c30 392c 3434  | b'$GPGSV,3,3,09,44' |
016: 2c32 332c 3233 352c 3336 2c31 2a35 440d  | b',23,235,36,1*5D\r' |
032: 0a                                       | b'\n' |
<NMEA(GPGSV, numMsg=2, msgNum=1, numSV=7, svid_01=10, elv_01=84.0, az_01=272, cno_01=38, svid_02=12, elv_02=28.0, az_02=98, cno_02=24, svid_03=23, elv_03=52.0, az_03=141, cno_03=32, svid_04=24, elv_04=33.0, az_04=53, cno_04=32, signalID=6)>000: 2447 5047 5356 2c32 2c31 2c30 372c 3130  | b'$GPGSV,2,1,07,10' |
016: 2c38 342c 3237 322c 3338 2c31 322c 3238  | b',84,272,38,12,28' |
032: 2c30 3938 2c32 342c 3233 2c35 322c 3134  | b',098,24,23,52,14' |
048: 312c 3332 2c32 342c 3333 2c30 3533 2c33  | b'1,32,24,33,053,3' |
064: 322c 362a 3641 0d0a                      | b'2,6*6A\r\n' |
<NMEA(GPGSV, numMsg=2, msgNum=2, numSV=7, svid_01=25, elv_01=21.0, az_01=143, cno_01=25, svid_02=28, elv_02=23.0, az_02=218, cno_02=30, svid_03=32, elv_03=50.0, az_03=286, cno_03=37, signalID=6)>000: 2447 5047 5356 2c32 2c32 2c30 372c 3235  | b'$GPGSV,2,2,07,25' |
016: 2c32 312c 3134 332c 3235 2c32 382c 3233  | b',21,143,25,28,23' |
032: 2c32 3138 2c33 302c 3332 2c35 302c 3238  | b',218,30,32,50,28' |
048: 362c 3337 2c36 2a35 450d 0a              | b'6,37,6*5E\r\n' |
<NMEA(GPGSV, numMsg=1, msgNum=1, numSV=3, svid_01=15, elv_01=6.0, az_01=90, cno_01=, svid_02=18, elv_02=5.0, az_02=184, cno_02=, svid_03=46, elv_03=15.0, az_03=246, cno_03=, signalID=0)>000: 2447 5047 5356 2c31 2c31 2c30 332c 3135  | b'$GPGSV,1,1,03,15' |
016: 2c30 362c 3039 302c 2c31 382c 3035 2c31  | b',06,090,,18,05,1' |
032: 3834 2c2c 3436 2c31 352c 3234 362c 2c30  | b'84,,46,15,246,,0' |
048: 2a35 410d 0a                             | b'*5A\r\n' |
<NMEA(GLGSV, numMsg=3, msgNum=1, numSV=9, svid_01=70, elv_01=51.0, az_01=75, cno_01=34, svid_02=71, elv_02=56.0, az_02=333, cno_02=48, svid_03=72, elv_03=15.0, az_03=299, cno_03=30, svid_04=73, elv_04=46.0, az_04=150, cno_04=41, signalID=1)>000: 2447 4c47 5356 2c33 2c31 2c30 392c 3730  | b'$GLGSV,3,1,09,70' |
016: 2c35 312c 3037 352c 3334 2c37 312c 3536  | b',51,075,34,71,56' |
032: 2c33 3333 2c34 382c 3732 2c31 352c 3239  | b',333,48,72,15,29' |
048: 392c 3330 2c37 332c 3436 2c31 3530 2c34  | b'9,30,73,46,150,4' |
064: 312c 312a 3738 0d0a                      | b'1,1*78\r\n' |
<NMEA(GLGSV, numMsg=3, msgNum=2, numSV=9, svid_01=74, elv_01=10.0, az_01=181, cno_01=26, svid_02=79, elv_02=6.0, az_02=22, cno_02=30, svid_03=80, elv_03=48.0, az_03=58, cno_03=49, svid_04=86, elv_04=23.0, az_04=253, cno_04=36, signalID=1)>000: 2447 4c47 5356 2c33 2c32 2c30 392c 3734  | b'$GLGSV,3,2,09,74' |
016: 2c31 302c 3138 312c 3236 2c37 392c 3036  | b',10,181,26,79,06' |
032: 2c30 3232 2c33 302c 3830 2c34 382c 3035  | b',022,30,80,48,05' |
048: 382c 3439 2c38 362c 3233 2c32 3533 2c33  | b'8,49,86,23,253,3' |
064: 362c 312a 3746 0d0a                      | b'6,1*7F\r\n' |
<NMEA(GLGSV, numMsg=3, msgNum=3, numSV=9, svid_01=87, elv_01=24.0, az_01=312, cno_01=39, signalID=1)>000: 2447 4c47 5356 2c33 2c33 2c30 392c 3837  | b'$GLGSV,3,3,09,87' |
016: 2c32 342c 3331 322c 3339 2c31 2a34 320d  | b',24,312,39,1*42\r' |
032: 0a                                       | b'\n' |
<NMEA(GLGSV, numMsg=1, msgNum=1, numSV=3, svid_01=71, elv_01=56.0, az_01=333, cno_01=30, svid_02=80, elv_02=48.0, az_02=58, cno_02=33, svid_03=85, elv_03=0.0, az_03=214, cno_03=10, signalID=3)>000: 2447 4c47 5356 2c31 2c31 2c30 332c 3731  | b'$GLGSV,1,1,03,71' |
016: 2c35 362c 3333 332c 3330 2c38 302c 3438  | b',56,333,30,80,48' |
032: 2c30 3538 2c33 332c 3835 2c30 302c 3231  | b',058,33,85,00,21' |
048: 342c 3130 2c33 2a34 450d 0a              | b'4,10,3*4E\r\n' |
<NMEA(GLGSV, numMsg=1, msgNum=1, numSV=1, svid_01=88, elv_01=0.0, az_01=356, cno_01=, signalID=0)>000: 2447 4c47 5356 2c31 2c31 2c30 312c 3838  | b'$GLGSV,1,1,01,88' |
016: 2c30 302c 3335 362c 2c30 2a34 380d 0a    | b',00,356,,0*48\r\n' |
<NMEA(GAGSV, numMsg=3, msgNum=1, numSV=9, svid_01=3, elv_01=9.0, az_01=272, cno_01=24, svid_02=4, elv_02=10.0, az_02=83, cno_02=20, svid_03=5, elv_03=58.0, az_03=291, cno_03=44, svid_04=9, elv_04=58.0, az_04=62, cno_04=37, signalID=2)>000: 2447 4147 5356 2c33 2c31 2c30 392c 3033  | b'$GAGSV,3,1,09,03' |
016: 2c30 392c 3237 322c 3234 2c30 342c 3130  | b',09,272,24,04,10' |
032: 2c30 3833 2c32 302c 3035 2c35 382c 3239  | b',083,20,05,58,29' |
048: 312c 3434 2c30 392c 3538 2c30 3632 2c33  | b'1,44,09,58,062,3' |
064: 372c 322a 3743 0d0a                      | b'7,2*7C\r\n' |
<NMEA(GAGSV, numMsg=3, msgNum=2, numSV=9, svid_01=15, elv_01=17.0, az_01=323, cno_01=30, svid_02=24, elv_02=21.0, az_02=146, cno_02=29, svid_03=31, elv_03=34.0, az_03=91, cno_03=26, svid_04=34, elv_04=39.0, az_04=270, cno_04=41, signalID=2)>000: 2447 4147 5356 2c33 2c32 2c30 392c 3135  | b'$GAGSV,3,2,09,15' |
016: 2c31 372c 3332 332c 3330 2c32 342c 3231  | b',17,323,30,24,21' |
032: 2c31 3436 2c32 392c 3331 2c33 342c 3039  | b',146,29,31,34,09' |
048: 312c 3236 2c33 342c 3339 2c32 3730 2c34  | b'1,26,34,39,270,4' |
064: 312c 322a 3734 0d0a                      | b'1,2*74\r\n' |
<NMEA(GAGSV, numMsg=3, msgNum=3, numSV=9, svid_01=36, elv_01=25.0, az_01=210, cno_01=35, signalID=2)>000: 2447 4147 5356 2c33 2c33 2c30 392c 3336  | b'$GAGSV,3,3,09,36' |
016: 2c32 352c 3231 302c 3335 2c32 2a34 380d  | b',25,210,35,2*48\r' |
032: 0a                                       | b'\n' |
<NMEA(GAGSV, numMsg=2, msgNum=1, numSV=7, svid_01=5, elv_01=58.0, az_01=291, cno_01=45, svid_02=9, elv_02=58.0, az_02=62, cno_02=41, svid_03=15, elv_03=17.0, az_03=323, cno_03=31, svid_04=24, elv_04=21.0, az_04=146, cno_04=27, signalID=7)>000: 2447 4147 5356 2c32 2c31 2c30 372c 3035  | b'$GAGSV,2,1,07,05' |
016: 2c35 382c 3239 312c 3435 2c30 392c 3538  | b',58,291,45,09,58' |
032: 2c30 3632 2c34 312c 3135 2c31 372c 3332  | b',062,41,15,17,32' |
048: 332c 3331 2c32 342c 3231 2c31 3436 2c32  | b'3,31,24,21,146,2' |
064: 372c 372a 3730 0d0a                      | b'7,7*70\r\n' |
<NMEA(GAGSV, numMsg=2, msgNum=2, numSV=7, svid_01=31, elv_01=34.0, az_01=91, cno_01=36, svid_02=34, elv_02=39.0, az_02=270, cno_02=42, svid_03=36, elv_03=25.0, az_03=210, cno_03=34, signalID=7)>000: 2447 4147 5356 2c32 2c32 2c30 372c 3331  | b'$GAGSV,2,2,07,31' |
016: 2c33 342c 3039 312c 3336 2c33 342c 3339  | b',34,091,36,34,39' |
032: 2c32 3730 2c34 322c 3336 2c32 352c 3231  | b',270,42,36,25,21' |
048: 302c 3334 2c37 2a34 340d 0a              | b'0,34,7*44\r\n' |
<NMEA(GBGSV, numMsg=2, msgNum=1, numSV=7, svid_01=19, elv_01=27.0, az_01=300, cno_01=41, svid_02=20, elv_02=76.0, az_02=336, cno_02=50, svid_03=23, elv_03=31.0, az_03=52, cno_03=45, svid_04=29, elv_04=7.0, az_04=249, cno_04=21, signalID=1)>000: 2447 4247 5356 2c32 2c31 2c30 372c 3139  | b'$GBGSV,2,1,07,19' |
016: 2c32 372c 3330 302c 3431 2c32 302c 3736  | b',27,300,41,20,76' |
032: 2c33 3336 2c35 302c 3233 2c33 312c 3035  | b',336,50,23,31,05' |
048: 322c 3435 2c32 392c 3037 2c32 3439 2c32  | b'2,45,29,07,249,2' |
064: 312c 312a 3743 0d0a                      | b'1,1*7C\r\n' |
<NMEA(GBGSV, numMsg=2, msgNum=2, numSV=7, svid_01=32, elv_01=41.0, az_01=105, cno_01=32, svid_02=35, elv_02=10.0, az_02=302, cno_02=29, svid_03=37, elv_03=58.0, az_03=126, cno_03=49, signalID=1)>000: 2447 4247 5356 2c32 2c32 2c30 372c 3332  | b'$GBGSV,2,2,07,32' |
016: 2c34 312c 3130 352c 3332 2c33 352c 3130  | b',41,105,32,35,10' |
032: 2c33 3032 2c32 392c 3337 2c35 382c 3132  | b',302,29,37,58,12' |
048: 362c 3439 2c31 2a34 430d 0a              | b'6,49,1*4C\r\n' |
<NMEA(GBGSV, numMsg=2, msgNum=1, numSV=5, svid_01=19, elv_01=27.0, az_01=300, cno_01=8, svid_02=20, elv_02=76.0, az_02=336, cno_02=8, svid_03=29, elv_03=7.0, az_03=249, cno_03=8, svid_04=32, elv_04=41.0, az_04=105, cno_04=8, signalID=3)>000: 2447 4247 5356 2c32 2c31 2c30 352c 3139  | b'$GBGSV,2,1,05,19' |
016: 2c32 372c 3330 302c 3038 2c32 302c 3736  | b',27,300,08,20,76' |
032: 2c33 3336 2c30 382c 3239 2c30 372c 3234  | b',336,08,29,07,24' |
048: 392c 3038 2c33 322c 3431 2c31 3035 2c30  | b'9,08,32,41,105,0' |
064: 382c 332a 3741 0d0a                      | b'8,3*7A\r\n' |
<NMEA(GBGSV, numMsg=2, msgNum=2, numSV=5, svid_01=35, elv_01=10.0, az_01=302, cno_01=11, signalID=3)>000: 2447 4247 5356 2c32 2c32 2c30 352c 3335  | b'$GBGSV,2,2,05,35' |
016: 2c31 302c 3330 322c 3131 2c33 2a34 370d  | b',10,302,11,3*47\r' |
032: 0a                                       | b'\n' |
<NMEA(GNGLL, lat=43.8827045367, NS=N, lon=-72.15797922, EW=W, time=20:15:15, status=A, posMode=D)>000: 2447 4e47 4c4c 2c34 3335 322e 3936 3232  | b'$GNGLL,4352.9622' |
016: 3732 322c 4e2c 3037 3230 392e 3437 3837  | b'722,N,07209.4787' |
032: 3533 322c 572c 3230 3135 3135 2e30 302c  | b'532,W,201515.00,' |
048: 412c 442a 3645 0d0a                      | b'A,D*6E\r\n' |
<NMEA(GNTXT, numMsg=1, msgNum=1, msgType=0, text=txbuf alloc)>000: 2447 4e54 5854 2c30 312c 3031 2c30 302c  | b'$GNTXT,01,01,00,' |
016: 7478 6275 6620 616c 6c6f 632a 3631 0d0a  | b'txbuf alloc*61\r\n' |
<NMEA(GNRMC, time=20:15:15.250000, status=A, lat=43.8827046767, NS=N, lon=-72.15797984, EW=W, spd=0.559, cog=309.63, date=2023-09-05, mv=, mvEW=, posMode=R, navStatus=V)>000: 2447 4e52 4d43 2c32 3031 3531 352e 3235  | b'$GNRMC,201515.25' |
016: 2c41 2c34 3335 322e 3936 3232 3830 362c  | b',A,4352.9622806,' |
032: 4e2c 3037 3230 392e 3437 3837 3930 342c  | b'N,07209.4787904,' |
048: 572c 302e 3535 392c 3330 392e 3633 2c30  | b'W,0.559,309.63,0' |
064: 3530 3932 332c 2c2c 522c 562a 3039 0d0a  | b'50923,,,R,V*09\r\n' |
<NMEA(GNVTG, cogt=309.63, cogtUnit=T, cogm=, cogmUnit=M, sogn=0.559, sognUnit=N, sogk=1.035, sogkUnit=K, posMode=D)>000: 2447 4e56 5447 2c33 3039 2e36 332c 542c  | b'$GNVTG,309.63,T,' |
016: 2c4d 2c30 2e35 3539 2c4e 2c31 2e30 3335  | b',M,0.559,N,1.035' |
032: 2c4b 2c44 2a32 370d 0a                   | b',K,D*27\r\n' |
<NMEA(GNGGA, time=20:15:15.250000, lat=43.8827046767, NS=N, lon=-72.15797984, EW=W, quality=4, numSV=12, HDOP=0.56, alt=141.268, altUnit=M, sep=-32.547, sepUnit=M, diffAge=, diffStation=0)>000: 2447 4e47 4741 2c32 3031 3531 352e 3235  | b'$GNGGA,201515.25' |
016: 2c34 3335 322e 3936 3232 3830 362c 4e2c  | b',4352.9622806,N,' |
032: 3037 3230 392e 3437 3837 3930 342c 572c  | b'07209.4787904,W,' |
048: 342c 3132 2c30 2e35 362c 3134 312e 3236  | b'4,12,0.56,141.26' |
064: 382c 4d2c 2d33 322e 3534 372c 4d2c 2c30  | b'8,M,-32.547,M,,0' |
080: 3030 302a 3745 0d0a                      | b'000*7E\r\n' |
<NMEA(GNGSA, opMode=A, navMode=3, svid_01=44, svid_02=25, svid_03=28, svid_04=21, svid_05=24, svid_06=10, svid_07=2, svid_08=12, svid_09=23, svid_10=32, svid_11=, svid_12=, PDOP=1.09, HDOP=0.56, VDOP=0.93, systemId=1)>000: 2447 4e47 5341 2c41 2c33 2c34 342c 3235  | b'$GNGSA,A,3,44,25' |
016: 2c32 382c 3231 2c32 342c 3130 2c30 322c  | b',28,21,24,10,02,' |
032: 3132 2c32 332c 3332 2c2c 2c31 2e30 392c  | b'12,23,32,,,1.09,' |
048: 302e 3536 2c30 2e39 332c 312a 3038 0d0a  | b'0.56,0.93,1*08\r\n' |
<NMEA(GNGSA, opMode=A, navMode=3, svid_01=87, svid_02=80, svid_03=70, svid_04=71, svid_05=74, svid_06=73, svid_07=, svid_08=, svid_09=, svid_10=, svid_11=, svid_12=, PDOP=1.09, HDOP=0.56, VDOP=0.93, systemId=2)>000: 2447 4e47 5341 2c41 2c33 2c38 372c 3830  | b'$GNGSA,A,3,87,80' |
016: 2c37 302c 3731 2c37 342c 3733 2c2c 2c2c  | b',70,71,74,73,,,,' |
032: 2c2c 2c31 2e30 392c 302e 3536 2c30 2e39  | b',,,1.09,0.56,0.9' |
048: 332c 322a 3032 0d0a                      | b'3,2*02\r\n' |
<NMEA(GNGSA, opMode=A, navMode=3, svid_01=36, svid_02=15, svid_03=5, svid_04=31, svid_05=34, svid_06=4, svid_07=9, svid_08=24, svid_09=, svid_10=, svid_11=, svid_12=, PDOP=1.09, HDOP=0.56, VDOP=0.93, systemId=3)>000: 2447 4e47 5341 2c41 2c33 2c33 362c 3135  | b'$GNGSA,A,3,36,15' |
016: 2c30 352c 3331 2c33 342c 3034 2c30 392c  | b',05,31,34,04,09,' |
032: 3234 2c2c 2c2c 2c31 2e30 392c 302e 3536  | b'24,,,,,1.09,0.56' |
048: 2c30 2e39 332c 332a 3038 0d0a            | b',0.93,3*08\r\n' |
<NMEA(GNGSA, opMode=A, navMode=3, svid_01=37, svid_02=19, svid_03=32, svid_04=20, svid_05=23, svid_06=, svid_07=, svid_08=, svid_09=, svid_10=, svid_11=, svid_12=, PDOP=1.09, HDOP=0.56, VDOP=0.93, systemId=4)>000: 2447 4e47 5341 2c41 2c33 2c33 372c 3139  | b'$GNGSA,A,3,37,19' |
016: 2c33 322c 3230 2c32 332c 2c2c 2c2c 2c2c  | b',32,20,23,,,,,,,' |
032: 2c31 2e30 392c 302e 3536 2c30 2e39 332c  | b',1.09,0.56,0.93,' |
048: 342a 3042 0d0a                           | b'4*0B\r\n' |
<NMEA(GPGSV, numMsg=3, msgNum=1, numSV=10, svid_01=2, elv_01=16.0, az_01=319, cno_01=37, svid_02=10, elv_02=84.0, az_02=272, cno_02=51, svid_03=12, elv_03=28.0, az_03=98, cno_03=40, svid_04=21, elv_04=20.0, az_04=311, cno_04=39, signalID=1)>000: 2447 5047 5356 2c33 2c31 2c31 302c 3032  | b'$GPGSV,3,1,10,02' |
016: 2c31 362c 3331 392c 3337 2c31 302c 3834  | b',16,319,37,10,84' |
032: 2c32 3732 2c35 312c 3132 2c32 382c 3039  | b',272,51,12,28,09' |
048: 382c 3430 2c32 312c 3230 2c33 3131 2c33  | b'8,40,21,20,311,3' |
064: 392c 312a 3637 0d0a                      | b'9,1*67\r\n' |
<NMEA(GPGSV, numMsg=3, msgNum=2, numSV=10, svid_01=23, elv_01=52.0, az_01=141, cno_01=34, svid_02=24, elv_02=33.0, az_02=53, cno_02=39, svid_03=25, elv_03=21.0, az_03=143, cno_03=30, svid_04=28, elv_04=23.0, az_04=218, cno_04=39, signalID=1)>000: 2447 5047 5356 2c33 2c32 2c31 302c 3233  | b'$GPGSV,3,2,10,23' |
016: 2c35 322c 3134 312c 3334 2c32 342c 3333  | b',52,141,34,24,33' |
032: 2c30 3533 2c33 392c 3235 2c32 312c 3134  | b',053,39,25,21,14' |
048: 332c 3330 2c32 382c 3233 2c32 3138 2c33  | b'3,30,28,23,218,3' |
064: 392c 312a 3630 0d0a                      | b'9,1*60\r\n' |
<NMEA(GPGSV, numMsg=3, msgNum=3, numSV=10, svid_01=32, elv_01=50.0, az_01=286, cno_01=48, svid_02=44, elv_02=23.0, az_02=235, cno_02=36, signalID=1)>000: 2447 5047 5356 2c33 2c33 2c31 302c 3332  | b'$GPGSV,3,3,10,32' |
016: 2c35 302c 3238 362c 3438 2c34 342c 3233  | b',50,286,48,44,23' |
032: 2c32 3335 2c33 362c 312a 3631 0d0a       | b',235,36,1*61\r\n' |
<NMEA(GPGSV, numMsg=2, msgNum=1, numSV=7, svid_01=10, elv_01=84.0, az_01=272, cno_01=38, svid_02=12, elv_02=28.0, az_02=98, cno_02=24, svid_03=23, elv_03=52.0, az_03=141, cno_03=32, svid_04=24, elv_04=33.0, az_04=53, cno_04=28, signalID=6)>000: 2447 5047 5356 2c32 2c31 2c30 372c 3130  | b'$GPGSV,2,1,07,10' |
016: 2c38 342c 3237 322c 3338 2c31 322c 3238  | b',84,272,38,12,28' |
032: 2c30 3938 2c32 342c 3233 2c35 322c 3134  | b',098,24,23,52,14' |
048: 312c 3332 2c32 342c 3333 2c30 3533 2c32  | b'1,32,24,33,053,2' |
064: 382c 362a 3631 0d0a                      | b'8,6*61\r\n' |
<NMEA(GPGSV, numMsg=2, msgNum=2, numSV=7, svid_01=25, elv_01=21.0, az_01=143, cno_01=25, svid_02=28, elv_02=23.0, az_02=218, cno_02=30, svid_03=32, elv_03=50.0, az_03=286, cno_03=36, signalID=6)>000: 2447 5047 5356 2c32 2c32 2c30 372c 3235  | b'$GPGSV,2,2,07,25' |
016: 2c32 312c 3134 332c 3235 2c32 382c 3233  | b',21,143,25,28,23' |
032: 2c32 3138 2c33 302c 3332 2c35 302c 3238  | b',218,30,32,50,28' |
048: 362c 3336 2c36 2a35 460d 0a              | b'6,36,6*5F\r\n' |
<NMEA(GPGSV, numMsg=1, msgNum=1, numSV=3, svid_01=15, elv_01=6.0, az_01=90, cno_01=, svid_02=18, elv_02=5.0, az_02=184, cno_02=, svid_03=46, elv_03=15.0, az_03=246, cno_03=, signalID=0)>000: 2447 5047 5356 2c31 2c31 2c30 332c 3135  | b'$GPGSV,1,1,03,15' |
016: 2c30 362c 3039 302c 2c31 382c 3035 2c31  | b',06,090,,18,05,1' |
032: 3834 2c2c 3436 2c31 352c 3234 362c 2c30  | b'84,,46,15,246,,0' |
048: 2a35 410d 0a                             | b'*5A\r\n' |
<NMEA(GLGSV, numMsg=3, msgNum=1, numSV=9, svid_01=70, elv_01=51.0, az_01=75, cno_01=35, svid_02=71, elv_02=56.0, az_02=333, cno_02=48, svid_03=72, elv_03=15.0, az_03=299, cno_03=30, svid_04=73, elv_04=46.0, az_04=150, cno_04=30, signalID=1)>000: 2447 4c47 5356 2c33 2c31 2c30 392c 3730  | b'$GLGSV,3,1,09,70' |
016: 2c35 312c 3037 352c 3335 2c37 312c 3536  | b',51,075,35,71,56' |
032: 2c33 3333 2c34 382c 3732 2c31 352c 3239  | b',333,48,72,15,29' |
048: 392c 3330 2c37 332c 3436 2c31 3530 2c33  | b'9,30,73,46,150,3' |
064: 302c 312a 3746 0d0a                      | b'0,1*7F\r\n' |
<NMEA(GLGSV, numMsg=3, msgNum=2, numSV=9, svid_01=74, elv_01=10.0, az_01=181, cno_01=26, svid_02=79, elv_02=6.0, az_02=22, cno_02=23, svid_03=80, elv_03=48.0, az_03=58, cno_03=44, svid_04=86, elv_04=23.0, az_04=253, cno_04=37, signalID=1)>000: 2447 4c47 5356 2c33 2c32 2c30 392c 3734  | b'$GLGSV,3,2,09,74' |
016: 2c31 302c 3138 312c 3236 2c37 392c 3036  | b',10,181,26,79,06' |
032: 2c30 3232 2c32 332c 3830 2c34 382c 3035  | b',022,23,80,48,05' |
048: 382c 3434 2c38 362c 3233 2c32 3533 2c33  | b'8,44,86,23,253,3' |
064: 372c 312a 3731 0d0a                      | b'7,1*71\r\n' |
<NMEA(GLGSV, numMsg=3, msgNum=3, numSV=9, svid_01=87, elv_01=24.0, az_01=312, cno_01=37, signalID=1)>000: 2447 4c47 5356 2c33 2c33 2c30 392c 3837  | b'$GLGSV,3,3,09,87' |
016: 2c32 342c 3331 322c 3337 2c31 2a34 430d  | b',24,312,37,1*4C\r' |
032: 0a                                       | b'\n' |
<NMEA(GLGSV, numMsg=1, msgNum=1, numSV=3, svid_01=71, elv_01=56.0, az_01=333, cno_01=31, svid_02=80, elv_02=48.0, az_02=58, cno_02=33, svid_03=85, elv_03=0.0, az_03=214, cno_03=10, signalID=3)>000: 2447 4c47 5356 2c31 2c31 2c30 332c 3731  | b'$GLGSV,1,1,03,71' |
016: 2c35 362c 3333 332c 3331 2c38 302c 3438  | b',56,333,31,80,48' |
032: 2c30 3538 2c33 332c 3835 2c30 302c 3231  | b',058,33,85,00,21' |
048: 342c 3130 2c33 2a34 460d 0a              | b'4,10,3*4F\r\n' |
<NMEA(GLGSV, numMsg=1, msgNum=1, numSV=1, svid_01=88, elv_01=0.0, az_01=356, cno_01=, signalID=0)>000: 2447 4c47 5356 2c31 2c31 2c30 312c 3838  | b'$GLGSV,1,1,01,88' |
016: 2c30 302c 3335 362c 2c30 2a34 380d 0a    | b',00,356,,0*48\r\n' |
<NMEA(GAGSV, numMsg=3, msgNum=1, numSV=9, svid_01=3, elv_01=9.0, az_01=272, cno_01=24, svid_02=4, elv_02=10.0, az_02=83, cno_02=21, svid_03=5, elv_03=58.0, az_03=291, cno_03=43, svid_04=9, elv_04=58.0, az_04=62, cno_04=38, signalID=2)>000: 2447 4147 5356 2c33 2c31 2c30 392c 3033  | b'$GAGSV,3,1,09,03' |
016: 2c30 392c 3237 322c 3234 2c30 342c 3130  | b',09,272,24,04,10' |
032: 2c30 3833 2c32 312c 3035 2c35 382c 3239  | b',083,21,05,58,29' |
048: 312c 3433 2c30 392c 3538 2c30 3632 2c33  | b'1,43,09,58,062,3' |
064: 382c 322a 3735 0d0a                      | b'8,2*75\r\n' |
<NMEA(GAGSV, numMsg=3, msgNum=2, numSV=9, svid_01=15, elv_01=17.0, az_01=323, cno_01=31, svid_02=24, elv_02=21.0, az_02=146, cno_02=30, svid_03=31, elv_03=34.0, az_03=91, cno_03=31, svid_04=34, elv_04=39.0, az_04=270, cno_04=43, signalID=2)>000: 2447 4147 5356 2c33 2c32 2c30 392c 3135  | b'$GAGSV,3,2,09,15' |
016: 2c31 372c 3332 332c 3331 2c32 342c 3231  | b',17,323,31,24,21' |
032: 2c31 3436 2c33 302c 3331 2c33 342c 3039  | b',146,30,31,34,09' |
048: 312c 3331 2c33 342c 3339 2c32 3730 2c34  | b'1,31,34,39,270,4' |
064: 332c 322a 3739 0d0a                      | b'3,2*79\r\n' |
<NMEA(GAGSV, numMsg=3, msgNum=3, numSV=9, svid_01=36, elv_01=25.0, az_01=210, cno_01=27, signalID=2)>000: 2447 4147 5356 2c33 2c33 2c30 392c 3336  | b'$GAGSV,3,3,09,36' |
016: 2c32 352c 3231 302c 3237 2c32 2a34 420d  | b',25,210,27,2*4B\r' |
032: 0a                                       | b'\n' |
<NMEA(GAGSV, numMsg=2, msgNum=1, numSV=7, svid_01=5, elv_01=58.0, az_01=291, cno_01=43, svid_02=9, elv_02=58.0, az_02=62, cno_02=43, svid_03=15, elv_03=17.0, az_03=323, cno_03=35, svid_04=24, elv_04=21.0, az_04=146, cno_04=27, signalID=7)>000: 2447 4147 5356 2c32 2c31 2c30 372c 3035  | b'$GAGSV,2,1,07,05' |
016: 2c35 382c 3239 312c 3433 2c30 392c 3538  | b',58,291,43,09,58' |
032: 2c30 3632 2c34 332c 3135 2c31 372c 3332  | b',062,43,15,17,32' |
048: 332c 3335 2c32 342c 3231 2c31 3436 2c32  | b'3,35,24,21,146,2' |
064: 372c 372a 3730 0d0a                      | b'7,7*70\r\n' |
<NMEA(GAGSV, numMsg=2, msgNum=2, numSV=7, svid_01=31, elv_01=34.0, az_01=91, cno_01=36, svid_02=34, elv_02=39.0, az_02=270, cno_02=41, svid_03=36, elv_03=25.0, az_03=210, cno_03=34, signalID=7)>000: 2447 4147 5356 2c32 2c32 2c30 372c 3331  | b'$GAGSV,2,2,07,31' |
016: 2c33 342c 3039 312c 3336 2c33 342c 3339  | b',34,091,36,34,39' |
032: 2c32 3730 2c34 312c 3336 2c32 352c 3231  | b',270,41,36,25,21' |
048: 302c 3334 2c37 2a34 370d 0a              | b'0,34,7*47\r\n' |
<NMEA(GBGSV, numMsg=2, msgNum=1, numSV=7, svid_01=19, elv_01=27.0, az_01=300, cno_01=44, svid_02=20, elv_02=76.0, az_02=336, cno_02=51, svid_03=23, elv_03=31.0, az_03=52, cno_03=43, svid_04=29, elv_04=7.0, az_04=249, cno_04=21, signalID=1)>000: 2447 4247 5356 2c32 2c31 2c30 372c 3139  | b'$GBGSV,2,1,07,19' |
016: 2c32 372c 3330 302c 3434 2c32 302c 3736  | b',27,300,44,20,76' |
032: 2c33 3336 2c35 312c 3233 2c33 312c 3035  | b',336,51,23,31,05' |
048: 322c 3433 2c32 392c 3037 2c32 3439 2c32  | b'2,43,29,07,249,2' |
064: 312c 312a 3745 0d0a                      | b'1,1*7E\r\n' |
<NMEA(GBGSV, numMsg=2, msgNum=2, numSV=7, svid_01=32, elv_01=41.0, az_01=105, cno_01=32, svid_02=35, elv_02=10.0, az_02=302, cno_02=29, svid_03=37, elv_03=58.0, az_03=126, cno_03=46, signalID=1)>000: 2447 4247 5356 2c32 2c32 2c30 372c 3332  | b'$GBGSV,2,2,07,32' |
016: 2c34 312c 3130 352c 3332 2c33 352c 3130  | b',41,105,32,35,10' |
032: 2c33 3032 2c32 392c 3337 2c35 382c 3132  | b',302,29,37,58,12' |
048: 362c 3436 2c31 2a34 330d 0a              | b'6,46,1*43\r\n' |
<NMEA(GBGSV, numMsg=2, msgNum=1, numSV=5, svid_01=19, elv_01=27.0, az_01=300, cno_01=8, svid_02=20, elv_02=76.0, az_02=336, cno_02=8, svid_03=29, elv_03=7.0, az_03=249, cno_03=8, svid_04=32, elv_04=41.0, az_04=105, cno_04=8, signalID=3)>000: 2447 4247 5356 2c32 2c31 2c30 352c 3139  | b'$GBGSV,2,1,05,19' |
016: 2c32 372c 3330 302c 3038 2c32 302c 3736  | b',27,300,08,20,76' |
032: 2c33 3336 2c30 382c 3239 2c30 372c 3234  | b',336,08,29,07,24' |
048: 392c 3038 2c33 322c 3431 2c31 3035 2c30  | b'9,08,32,41,105,0' |
064: 382c 332a 3741 0d0a                      | b'8,3*7A\r\n' |
<NMEA(GNRMC, time=20:15:15.750000, status=A, lat=43.8827050633, NS=N, lon=-72.157980925, EW=W, spd=0.099, cog=, date=2023-09-05, mv=, mvEW=, posMode=R, navStatus=V)>000: 2447 4e52 4d43 2c32 3031 3531 352e 3735  | b'$GNRMC,201515.75' |
016: 2c41 2c34 3335 322e 3936 3233 3033 382c  | b',A,4352.9623038,' |
032: 4e2c 3037 3230 392e 3437 3838 3535 352c  | b'N,07209.4788555,' |
048: 572c 302e 3039 392c 2c30 3530 3932 332c  | b'W,0.099,,050923,' |
064: 2c2c 522c 562a 3137 0d0a                 | b',,R,V*17\r\n' |
<NMEA(GNVTG, cogt=, cogtUnit=T, cogm=, cogmUnit=M, sogn=0.099, sognUnit=N, sogk=0.183, sogkUnit=K, posMode=D)>000: 2447 4e56 5447 2c2c 542c 2c4d 2c30 2e30  | b'$GNVTG,,T,,M,0.0' |
016: 3939 2c4e 2c30 2e31 3833 2c4b 2c44 2a33  | b'99,N,0.183,K,D*3' |
032: 320d 0a                                  | b'2\r\n' |
<NMEA(GNGGA, time=20:15:15.750000, lat=43.8827050633, NS=N, lon=-72.157980925, EW=W, quality=4, numSV=12, HDOP=0.55, alt=141.278, altUnit=M, sep=-32.547, sepUnit=M, diffAge=, diffStation=0)>000: 2447 4e47 4741 2c32 3031 3531 352e 3735  | b'$GNGGA,201515.75' |
016: 2c34 3335 322e 3936 3233 3033 382c 4e2c  | b',4352.9623038,N,' |
032: 3037 3230 392e 3437 3838 3535 352c 572c  | b'07209.4788555,W,' |
048: 342c 3132 2c30 2e35 352c 3134 312e 3237  | b'4,12,0.55,141.27' |
064: 382c 4d2c 2d33 322e 3534 372c 4d2c 2c30  | b'8,M,-32.547,M,,0' |
080: 3030 302a 3741 0d0a                      | b'000*7A\r\n' |
<NMEA(GNGSA, opMode=A, navMode=3, svid_01=44, svid_02=25, svid_03=28, svid_04=21, svid_05=24, svid_06=10, svid_07=2, svid_08=12, svid_09=23, svid_10=32, svid_11=, svid_12=, PDOP=1.06, HDOP=0.55, VDOP=0.91, systemId=1)>000: 2447 4e47 5341 2c41 2c33 2c34 342c 3235  | b'$GNGSA,A,3,44,25' |
016: 2c32 382c 3231 2c32 342c 3130 2c30 322c  | b',28,21,24,10,02,' |
032: 3132 2c32 332c 3332 2c2c 2c31 2e30 362c  | b'12,23,32,,,1.06,' |
048: 302e 3535 2c30 2e39 312c 312a 3036 0d0a  | b'0.55,0.91,1*06\r\n' |
<NMEA(GNGSA, opMode=A, navMode=3, svid_01=87, svid_02=80, svid_03=70, svid_04=71, svid_05=74, svid_06=72, svid_07=73, svid_08=, svid_09=, svid_10=, svid_11=, svid_12=, PDOP=1.06, HDOP=0.55, VDOP=0.91, systemId=2)>000: 2447 4e47 5341 2c41 2c33 2c38 372c 3830  | b'$GNGSA,A,3,87,80' |
016: 2c37 302c 3731 2c37 342c 3732 2c37 332c  | b',70,71,74,72,73,' |
032: 2c2c 2c2c 2c31 2e30 362c 302e 3535 2c30  | b',,,,,1.06,0.55,0' |
048: 2e39 312c 322a 3039 0d0a                 | b'.91,2*09\r\n' |
<NMEA(GNGSA, opMode=A, navMode=3, svid_01=36, svid_02=15, svid_03=5, svid_04=31, svid_05=34, svid_06=4, svid_07=9, svid_08=24, svid_09=, svid_10=, svid_11=, svid_12=, PDOP=1.06, HDOP=0.55, VDOP=0.91, systemId=3)>000: 2447 4e47 5341 2c41 2c33 2c33 362c 3135  | b'$GNGSA,A,3,36,15' |
016: 2c30 352c 3331 2c33 342c 3034 2c30 392c  | b',05,31,34,04,09,' |
032: 3234 2c2c 2c2c 2c31 2e30 362c 302e 3535  | b'24,,,,,1.06,0.55' |
048: 2c30 2e39 312c 332a 3036 0d0a            | b',0.91,3*06\r\n' |
<NMEA(GNGSA, opMode=A, navMode=3, svid_01=37, svid_02=19, svid_03=32, svid_04=20, svid_05=23, svid_06=, svid_07=, svid_08=, svid_09=, svid_10=, svid_11=, svid_12=, PDOP=1.06, HDOP=0.55, VDOP=0.91, systemId=4)>000: 2447 4e47 5341 2c41 2c33 2c33 372c 3139  | b'$GNGSA,A,3,37,19' |
016: 2c33 322c 3230 2c32 332c 2c2c 2c2c 2c2c  | b',32,20,23,,,,,,,' |
032: 2c31 2e30 362c 302e 3535 2c30 2e39 312c  | b',1.06,0.55,0.91,' |
048: 342a 3035 0d0a                           | b'4*05\r\n' |
<NMEA(GPGSV, numMsg=3, msgNum=1, numSV=10, svid_01=2, elv_01=16.0, az_01=319, cno_01=35, svid_02=10, elv_02=84.0, az_02=272, cno_02=52, svid_03=12, elv_03=28.0, az_03=98, cno_03=26, svid_04=21, elv_04=20.0, az_04=311, cno_04=40, signalID=1)>000: 2447 5047 5356 2c33 2c31 2c31 302c 3032  | b'$GPGSV,3,1,10,02' |
016: 2c31 362c 3331 392c 3335 2c31 302c 3834  | b',16,319,35,10,84' |
032: 2c32 3732 2c35 322c 3132 2c32 382c 3039  | b',272,52,12,28,09' |
048: 382c 3236 2c32 312c 3230 2c33 3131 2c34  | b'8,26,21,20,311,4' |
064: 302c 312a 3638 0d0a                      | b'0,1*68\r\n' |
<NMEA(GPGSV, numMsg=3, msgNum=2, numSV=10, svid_01=23, elv_01=52.0, az_01=141, cno_01=42, svid_02=24, elv_02=33.0, az_02=53, cno_02=37, svid_03=25, elv_03=21.0, az_03=143, cno_03=36, svid_04=28, elv_04=23.0, az_04=218, cno_04=38, signalID=1)>000: 2447 5047 5356 2c33 2c32 2c31 302c 3233  | b'$GPGSV,3,2,10,23' |
016: 2c35 322c 3134 312c 3432 2c32 342c 3333  | b',52,141,42,24,33' |
032: 2c30 3533 2c33 372c 3235 2c32 312c 3134  | b',053,37,25,21,14' |
048: 332c 3336 2c32 382c 3233 2c32 3138 2c33  | b'3,36,28,23,218,3' |
064: 382c 312a 3638 0d0a                      | b'8,1*68\r\n' |
<NMEA(GPGSV, numMsg=3, msgNum=3, numSV=10, svid_01=32, elv_01=50.0, az_01=286, cno_01=49, svid_02=44, elv_02=23.0, az_02=235, cno_02=36, signalID=1)>000: 2447 5047 5356 2c33 2c33 2c31 302c 3332  | b'$GPGSV,3,3,10,32' |
016: 2c35 302c 3238 362c 3439 2c34 342c 3233  | b',50,286,49,44,23' |
032: 2c32 3335 2c33 362c 312a 3630 0d0a       | b',235,36,1*60\r\n' |
<NMEA(GPGSV, numMsg=2, msgNum=1, numSV=7, svid_01=10, elv_01=84.0, az_01=272, cno_01=37, svid_02=12, elv_02=28.0, az_02=98, cno_02=25, svid_03=23, elv_03=52.0, az_03=141, cno_03=32, svid_04=24, elv_04=33.0, az_04=53, cno_04=28, signalID=6)>000: 2447 5047 5356 2c32 2c31 2c30 372c 3130  | b'$GPGSV,2,1,07,10' |
016: 2c38 342c 3237 322c 3337 2c31 322c 3238  | b',84,272,37,12,28' |
032: 2c30 3938 2c32 352c 3233 2c35 322c 3134  | b',098,25,23,52,14' |
048: 312c 3332 2c32 342c 3333 2c30 3533 2c32  | b'1,32,24,33,053,2' |
064: 382c 362a 3646 0d0a                      | b'8,6*6F\r\n' |
<NMEA(GPGSV, numMsg=2, msgNum=2, numSV=7, svid_01=25, elv_01=21.0, az_01=143, cno_01=25, svid_02=28, elv_02=23.0, az_02=218, cno_02=30, svid_03=32, elv_03=50.0, az_03=286, cno_03=37, signalID=6)>000: 2447 5047 5356 2c32 2c32 2c30 372c 3235  | b'$GPGSV,2,2,07,25' |
016: 2c32 312c 3134 332c 3235 2c32 382c 3233  | b',21,143,25,28,23' |
032: 2c32 3138 2c33 302c 3332 2c35 302c 3238  | b',218,30,32,50,28' |
048: 362c 3337 2c36 2a35 450d 0a              | b'6,37,6*5E\r\n' |
<NMEA(GPGSV, numMsg=1, msgNum=1, numSV=3, svid_01=15, elv_01=6.0, az_01=90, cno_01=, svid_02=18, elv_02=5.0, az_02=184, cno_02=, svid_03=46, elv_03=15.0, az_03=246, cno_03=, signalID=0)>000: 2447 5047 5356 2c31 2c31 2c30 332c 3135  | b'$GPGSV,1,1,03,15' |
016: 2c30 362c 3039 302c 2c31 382c 3035 2c31  | b',06,090,,18,05,1' |
032: 3834 2c2c 3436 2c31 352c 3234 362c 2c30  | b'84,,46,15,246,,0' |
048: 2a35 410d 0a                             | b'*5A\r\n' |
<NMEA(GLGSV, numMsg=3, msgNum=1, numSV=9, svid_01=70, elv_01=51.0, az_01=75, cno_01=35, svid_02=71, elv_02=56.0, az_02=333, cno_02=49, svid_03=72, elv_03=15.0, az_03=299, cno_03=30, svid_04=73, elv_04=46.0, az_04=150, cno_04=40, signalID=1)>000: 2447 4c47 5356 2c33 2c31 2c30 392c 3730  | b'$GLGSV,3,1,09,70' |
016: 2c35 312c 3037 352c 3335 2c37 312c 3536  | b',51,075,35,71,56' |
032: 2c33 3333 2c34 392c 3732 2c31 352c 3239  | b',333,49,72,15,29' |
048: 392c 3330 2c37 332c 3436 2c31 3530 2c34  | b'9,30,73,46,150,4' |
064: 302c 312a 3739 0d0a                      | b'0,1*79\r\n' |
<NMEA(GLGSV, numMsg=3, msgNum=2, numSV=9, svid_01=74, elv_01=10.0, az_01=181, cno_01=25, svid_02=79, elv_02=6.0, az_02=22, cno_02=22, svid_03=80, elv_03=48.0, az_03=58, cno_03=42, svid_04=86, elv_04=23.0, az_04=253, cno_04=37, signalID=1)>000: 2447 4c47 5356 2c33 2c32 2c30 392c 3734  | b'$GLGSV,3,2,09,74' |
016: 2c31 302c 3138 312c 3235 2c37 392c 3036  | b',10,181,25,79,06' |
032: 2c30 3232 2c32 322c 3830 2c34 382c 3035  | b',022,22,80,48,05' |
048: 382c 3432 2c38 362c 3233 2c32 3533 2c33  | b'8,42,86,23,253,3' |
064: 372c 312a 3735 0d0a                      | b'7,1*75\r\n' |
<NMEA(GLGSV, numMsg=3, msgNum=3, numSV=9, svid_01=87, elv_01=24.0, az_01=312, cno_01=34, signalID=1)>000: 2447 4c47 5356 2c33 2c33 2c30 392c 3837  | b'$GLGSV,3,3,09,87' |
016: 2c32 342c 3331 322c 3334 2c31 2a34 460d  | b',24,312,34,1*4F\r' |
032: 0a                                       | b'\n' |
<NMEA(GLGSV, numMsg=1, msgNum=1, numSV=3, svid_01=71, elv_01=56.0, az_01=333, cno_01=30, svid_02=80, elv_02=48.0, az_02=58, cno_02=32, svid_03=85, elv_03=0.0, az_03=214, cno_03=8, signalID=3)>000: 2447 4c47 5356 2c31 2c31 2c30 332c 3731  | b'$GLGSV,1,1,03,71' |
016: 2c35 362c 3333 332c 3330 2c38 302c 3438  | b',56,333,30,80,48' |
032: 2c30 3538 2c33 322c 3835 2c30 302c 3231  | b',058,32,85,00,21' |
048: 342c 3038 2c33 2a34 360d 0a              | b'4,08,3*46\r\n' |
<NMEA(GLGSV, numMsg=1, msgNum=1, numSV=1, svid_01=88, elv_01=0.0, az_01=356, cno_01=, signalID=0)>000: 2447 4c47 5356 2c31 2c31 2c30 312c 3838  | b'$GLGSV,1,1,01,88' |
016: 2c30 302c 3335 362c 2c30 2a34 380d 0a    | b',00,356,,0*48\r\n' |
<NMEA(GAGSV, numMsg=3, msgNum=1, numSV=9, svid_01=3, elv_01=9.0, az_01=272, cno_01=22, svid_02=4, elv_02=10.0, az_02=83, cno_02=18, svid_03=5, elv_03=58.0, az_03=291, cno_03=39, svid_04=9, elv_04=58.0, az_04=62, cno_04=38, signalID=2)>000: 2447 4147 5356 2c33 2c31 2c30 392c 3033  | b'$GAGSV,3,1,09,03' |
016: 2c30 392c 3237 322c 3232 2c30 342c 3130  | b',09,272,22,04,10' |
032: 2c30 3833 2c31 382c 3035 2c35 382c 3239  | b',083,18,05,58,29' |
048: 312c 3339 2c30 392c 3538 2c30 3632 2c33  | b'1,39,09,58,062,3' |
064: 382c 322a 3734 0d0a                      | b'8,2*74\r\n' |
<NMEA(GAGSV, numMsg=3, msgNum=2, numSV=9, svid_01=15, elv_01=17.0, az_01=323, cno_01=29, svid_02=24, elv_02=21.0, az_02=146, cno_02=27, svid_03=31, elv_03=34.0, az_03=91, cno_03=34, svid_04=34, elv_04=39.0, az_04=270, cno_04=41, signalID=2)>000: 2447 4147 5356 2c33 2c32 2c30 392c 3135  | b'$GAGSV,3,2,09,15' |
016: 2c31 372c 3332 332c 3239 2c32 342c 3231  | b',17,323,29,24,21' |
032: 2c31 3436 2c32 372c 3331 2c33 342c 3039  | b',146,27,31,34,09' |
048: 312c 3334 2c33 342c 3339 2c32 3730 2c34  | b'1,34,34,39,270,4' |
064: 312c 322a 3731 0d0a                      | b'1,2*71\r\n' |
<NMEA(GAGSV, numMsg=3, msgNum=3, numSV=9, svid_01=36, elv_01=25.0, az_01=210, cno_01=32, signalID=2)>000: 2447 4147 5356 2c33 2c33 2c30 392c 3336  | b'$GAGSV,3,3,09,36' |
016: 2c32 352c 3231 302c 3332 2c32 2a34 460d  | b',25,210,32,2*4F\r' |
032: 0a                                       | b'\n' |
<NMEA(GAGSV, numMsg=2, msgNum=1, numSV=7, svid_01=5, elv_01=58.0, az_01=291, cno_01=42, svid_02=9, elv_02=58.0, az_02=62, cno_02=48, svid_03=15, elv_03=17.0, az_03=323, cno_03=31, svid_04=24, elv_04=21.0, az_04=146, cno_04=36, signalID=7)>000: 2447 4147 5356 2c32 2c31 2c30 372c 3035  | b'$GAGSV,2,1,07,05' |
016: 2c35 382c 3239 312c 3432 2c30 392c 3538  | b',58,291,42,09,58' |
032: 2c30 3632 2c34 382c 3135 2c31 372c 3332  | b',062,48,15,17,32' |
048: 332c 3331 2c32 342c 3231 2c31 3436 2c33  | b'3,31,24,21,146,3' |
064: 362c 372a 3745 0d0a                      | b'6,7*7E\r\n' |
<NMEA(GAGSV, numMsg=2, msgNum=2, numSV=7, svid_01=31, elv_01=34.0, az_01=91, cno_01=37, svid_02=34, elv_02=39.0, az_02=270, cno_02=45, svid_03=36, elv_03=25.0, az_03=210, cno_03=36, signalID=7)>000: 2447 4147 5356 2c32 2c32 2c30 372c 3331  | b'$GAGSV,2,2,07,31' |
016: 2c33 342c 3039 312c 3337 2c33 342c 3339  | b',34,091,37,34,39' |
032: 2c32 3730 2c34 352c 3336 2c32 352c 3231  | b',270,45,36,25,21' |
048: 302c 3336 2c37 2a34 300d 0a              | b'0,36,7*40\r\n' |
<NMEA(GBGSV, numMsg=2, msgNum=1, numSV=7, svid_01=19, elv_01=27.0, az_01=300, cno_01=43, svid_02=20, elv_02=76.0, az_02=336, cno_02=51, svid_03=23, elv_03=31.0, az_03=52, cno_03=40, svid_04=29, elv_04=7.0, az_04=249, cno_04=21, signalID=1)>000: 2447 4247 5356 2c32 2c31 2c30 372c 3139  | b'$GBGSV,2,1,07,19' |
016: 2c32 372c 3330 302c 3433 2c32 302c 3736  | b',27,300,43,20,76' |
032: 2c33 3336 2c35 312c 3233 2c33 312c 3035  | b',336,51,23,31,05' |
048: 322c 3430 2c32 392c 3037 2c32 3439 2c32  | b'2,40,29,07,249,2' |
064: 312c 312a 3741 0d0a                      | b'1,1*7A\r\n' |
