<NMEA(GNRMC, time=20:12:09, status=A, lat=43.8825247767, NS=N, lon=-72.1574707183, EW=W, spd=0.837, cog=305.97, date=2023-09-05, mv=, mvEW=, posMode=R, navStatus=V)>000: 2447 4e52 4d43 2c32 3031 3230 392e 3030  | b'$GNRMC,201209.00' |
016: 2c41 2c34 3335 322e 3935 3134 3836 362c  | b',A,4352.9514866,' |
032: 4e2c 3037 3230 392e 3434 3832 3433 312c  | b'N,07209.4482431,' |
048: 572c 302e 3833 372c 3330 352e 3937 2c30  | b'W,0.837,305.97,0' |
064: 3530 3932 332c 2c2c 522c 562a 3042 0d0a  | b'50923,,,R,V*0B\r\n' |
<NMEA(GNVTG, cogt=305.97, cogtUnit=T, cogm=, cogmUnit=M, sogn=0.837, sognUnit=N, sogk=1.55, sogkUnit=K, posMode=D)>000: 2447 4e56 5447 2c33 3035 2e39 372c 542c  | b'$GNVTG,305.97,T,' |
016: 2c4d 2c30 2e38 3337 2c4e 2c31 2e35 3530  | b',M,0.837,N,1.550' |
032: 2c4b 2c44 2a32 330d 0a                   | b',K,D*23\r\n' |
<NMEA(GNGGA, time=20:12:09, lat=43.8825247767, NS=N, lon=-72.1574707183, EW=W, quality=4, numSV=12, HDOP=0.6, alt=141.645, altUnit=M, sep=-32.546, sepUnit=M, diffAge=, diffStation=0)>000: 2447 4e47 4741 2c32 3031 3230 392e 3030  | b'$GNGGA,201209.00' |
016: 2c34 3335 322e 3935 3134 3836 362c 4e2c  | b',4352.9514866,N,' |
032: 3037 3230 392e 3434 3832 3433 312c 572c  | b'07209.4482431,W,' |
048: 342c 3132 2c30 2e36 302c 3134 312e 3634  | b'4,12,0.60,141.64' |
064: 352c 4d2c 2d33 322e 3534 362c 4d2c 2c30  | b'5,M,-32.546,M,,0' |
080: 3030 302a 3731 0d0a                      | b'000*71\r\n' |
<NMEA(GNGSA, opMode=A, navMode=3, svid_01=2, svid_02=25, svid_03=28, svid_04=21, svid_05=24, svid_06=44, svid_07=10, svid_08=46, svid_09=12, svid_10=23, svid_11=32, svid_12=, PDOP=1.16, HDOP=0.6, VDOP=0.99, systemId=1)>000: 2447 4e47 5341 2c41 2c33 2c30 322c 3235  | b'$GNGSA,A,3,02,25' |
016: 2c32 382c 3231 2c32 342c 3434 2c31 302c  | b',28,21,24,44,10,' |
032: 3436 2c31 322c 3233 2c33 322c 2c31 2e31  | b'46,12,23,32,,1.1' |
048: 362c 302e 3630 2c30 2e39 392c 312a 3042  | b'6,0.60,0.99,1*0B' |
064: 0d0a                                     | b'\r\n' |
<NMEA(GNGSA, opMode=A, navMode=3, svid_01=87, svid_02=80, svid_03=70, svid_04=71, svid_05=72, svid_06=73, svid_07=, svid_08=, svid_09=, svid_10=, svid_11=, svid_12=, PDOP=1.16, HDOP=0.6, VDOP=0.99, systemId=2)>000: 2447 4e47 5341 2c41 2c33 2c38 372c 3830  | b'$GNGSA,A,3,87,80' |
016: 2c37 302c 3731 2c37 322c 3733 2c2c 2c2c  | b',70,71,72,73,,,,' |
032: 2c2c 2c31 2e31 362c 302e 3630 2c30 2e39  | b',,,1.16,0.60,0.9' |
048: 392c 322a 3035 0d0a                      | b'9,2*05\r\n' |
<NMEA(GNGSA, opMode=A, navMode=3, svid_01=36, svid_02=15, svid_03=5, svid_04=31, svid_05=34, svid_06=9, svid_07=24, svid_08=, svid_09=, svid_10=, svid_11=, svid_12=, PDOP=1.16, HDOP=0.6, VDOP=0.99, systemId=3)>000: 2447 4e47 5341 2c41 2c33 2c33 362c 3135  | b'$GNGSA,A,3,36,15' |
016: 2c30 352c 3331 2c33 342c 3039 2c32 342c  | b',05,31,34,09,24,' |
032: 2c2c 2c2c 2c31 2e31 362c 302e 3630 2c30  | b',,,,,1.16,0.60,0' |
048: 2e39 392c 332a 3044 0d0a                 | b'.99,3*0D\r\n' |
<NMEA(GNGSA, opMode=A, navMode=3, svid_01=37, svid_02=19, svid_03=32, svid_04=20, svid_05=23, svid_06=, svid_07=, svid_08=, svid_09=, svid_10=, svid_11=, svid_12=, PDOP=1.16, HDOP=0.6, VDOP=0.99, systemId=4)>000: 2447 4e47 5341 2c41 2c33 2c33 372c 3139  | b'$GNGSA,A,3,37,19' |
016: 2c33 322c 3230 2c32 332c 2c2c 2c2c 2c2c  | b',32,20,23,,,,,,,' |
032: 2c31 2e31 362c 302e 3630 2c30 2e39 392c  | b',1.16,0.60,0.99,' |
048: 342a 3041 0d0a                           | b'4*0A\r\n' |
<NMEA(GPGSV, numMsg=3, msgNum=1, numSV=12, svid_01=2, elv_01=15.0, az_01=319, cno_01=36, svid_02=10, elv_02=84.0, az_02=280, cno_02=51, svid_03=12, elv_03=28.0, az_03=99, cno_03=40, svid_04=18, elv_04=5.0, az_04=184, cno_04=25, signalID=1)>000: 2447 5047 5356 2c33 2c31 2c31 322c 3032  | b'$GPGSV,3,1,12,02' |
016: 2c31 352c 3331 392c 3336 2c31 302c 3834  | b',15,319,36,10,84' |
032: 2c32 3830 2c35 312c 3132 2c32 382c 3039  | b',280,51,12,28,09' |
048: 392c 3430 2c31 382c 3035 2c31 3834 2c32  | b'9,40,18,05,184,2' |
064: 352c 312a 3635 0d0a                      | b'5,1*65\r\n' |
<NMEA(GPGSV, numMsg=3, msgNum=2, numSV=12, svid_01=21, elv_01=20.0, az_01=312, cno_01=34, svid_02=23, elv_02=53.0, az_02=140, cno_02=45, svid_03=24, elv_03=34.0, az_03=53, cno_03=41, svid_04=25, elv_04=21.0, az_04=143, cno_04=34, signalID=1)>000: 2447 5047 5356 2c33 2c32 2c31 322c 3231  | b'$GPGSV,3,2,12,21' |
016: 2c32 302c 3331 322c 3334 2c32 332c 3533  | b',20,312,34,23,53' |
032: 2c31 3430 2c34 352c 3234 2c33 342c 3035  | b',140,45,24,34,05' |
048: 332c 3431 2c32 352c 3231 2c31 3433 2c33  | b'3,41,25,21,143,3' |
064: 342c 312a 3634 0d0a                      | b'4,1*64\r\n' |
<NMEA(GPGSV, numMsg=3, msgNum=3, numSV=12, svid_01=28, elv_01=22.0, az_01=217, cno_01=36, svid_02=32, elv_02=49.0, az_02=284, cno_02=46, svid_03=44, elv_03=23.0, az_03=235, cno_03=33, svid_04=46, elv_04=15.0, az_04=246, cno_04=39, signalID=1)>000: 2447 5047 5356 2c33 2c33 2c31 322c 3238  | b'$GPGSV,3,3,12,28' |
016: 2c32 322c 3231 372c 3336 2c33 322c 3439  | b',22,217,36,32,49' |
032: 2c32 3834 2c34 362c 3434 2c32 332c 3233  | b',284,46,44,23,23' |
048: 352c 3333 2c34 362c 3135 2c32 3436 2c33  | b'5,33,46,15,246,3' |
064: 392c 312a 3635 0d0a                      | b'9,1*65\r\n' |
<NMEA(GPGSV, numMsg=2, msgNum=1, numSV=8, svid_01=10, elv_01=84.0, az_01=280, cno_01=38, svid_02=12, elv_02=28.0, az_02=99, cno_02=22, svid_03=18, elv_03=5.0, az_03=184, cno_03=17, svid_04=23, elv_04=53.0, az_04=140, cno_04=36, signalID=6)>000: 2447 5047 5356 2c32 2c31 2c30 382c 3130  | b'$GPGSV,2,1,08,10' |
016: 2c38 342c 3238 302c 3338 2c31 322c 3238  | b',84,280,38,12,28' |
032: 2c30 3939 2c32 322c 3138 2c30 352c 3138  | b',099,22,18,05,18' |
048: 342c 3137 2c32 332c 3533 2c31 3430 2c33  | b'4,17,23,53,140,3' |
064: 362c 362a 3644 0d0a                      | b'6,6*6D\r\n' |
<NMEA(GPGSV, numMsg=2, msgNum=2, numSV=8, svid_01=24, elv_01=34.0, az_01=53, cno_01=30, svid_02=25, elv_02=21.0, az_02=143, cno_02=20, svid_03=28, elv_03=22.0, az_03=217, cno_03=31, svid_04=32, elv_04=49.0, az_04=284, cno_04=38, signalID=6)>000: 2447 5047 5356 2c32 2c32 2c30 382c 3234  | b'$GPGSV,2,2,08,24' |
016: 2c33 342c 3035 332c 3330 2c32 352c 3231  | b',34,053,30,25,21' |
032: 2c31 3433 2c32 302c 3238 2c32 322c 3231  | b',143,20,28,22,21' |
048: 372c 3331 2c33 322c 3439 2c32 3834 2c33  | b'7,31,32,49,284,3' |
064: 382c 362a 3641 0d0a                      | b'8,6*6A\r\n' |
<NMEA(GLGSV, numMsg=3, msgNum=1, numSV=9, svid_01=70, elv_01=51.0, az_01=73, cno_01=36, svid_02=71, elv_02=56.0, az_02=331, cno_02=47, svid_03=72, elv_03=14.0, az_03=298, cno_03=30, svid_04=73, elv_04=45.0, az_04=151, cno_04=41, signalID=1)>000: 2447 4c47 5356 2c33 2c31 2c30 392c 3730  | b'$GLGSV,3,1,09,70' |
016: 2c35 312c 3037 332c 3336 2c37 312c 3536  | b',51,073,36,71,56' |
032: 2c33 3331 2c34 372c 3732 2c31 342c 3239  | b',331,47,72,14,29' |
048: 382c 3330 2c37 332c 3435 2c31 3531 2c34  | b'8,30,73,45,151,4' |
064: 312c 312a 3733 0d0a                      | b'1,1*73\r\n' |
<NMEA(GLGSV, numMsg=3, msgNum=2, numSV=9, svid_01=74, elv_01=9.0, az_01=181, cno_01=25, svid_02=79, elv_02=7.0, az_02=23, cno_02=26, svid_03=80, elv_03=48.0, az_03=59, cno_03=45, svid_04=86, elv_04=24.0, az_04=254, cno_04=33, signalID=1)>000: 2447 4c47 5356 2c33 2c32 2c30 392c 3734  | b'$GLGSV,3,2,09,74' |
016: 2c30 392c 3138 312c 3235 2c37 392c 3037  | b',09,181,25,79,07' |
032: 2c30 3233 2c32 362c 3830 2c34 382c 3035  | b',023,26,80,48,05' |
048: 392c 3435 2c38 362c 3234 2c32 3534 2c33  | b'9,45,86,24,254,3' |
064: 332c 312a 3742 0d0a                      | b'3,1*7B\r\n' |
<NMEA(GLGSV, numMsg=3, msgNum=3, numSV=9, svid_01=87, elv_01=23.0, az_01=313, cno_01=36, signalID=1)>000: 2447 4c47 5356 2c33 2c33 2c30 392c 3837  | b'$GLGSV,3,3,09,87' |
016: 2c32 332c 3331 332c 3336 2c31 2a34 420d  | b',23,313,36,1*4B\r' |
032: 0a                                       | b'\n' |
<NMEA(GLGSV, numMsg=1, msgNum=1, numSV=3, svid_01=71, elv_01=56.0, az_01=331, cno_01=29, svid_02=80, elv_02=48.0, az_02=59, cno_02=30, svid_03=85, elv_03=1.0, az_03=214, cno_03=11, signalID=3)>000: 2447 4c47 5356 2c31 2c31 2c30 332c 3731  | b'$GLGSV,1,1,03,71' |
016: 2c35 362c 3333 312c 3239 2c38 302c 3438  | b',56,331,29,80,48' |
032: 2c30 3539 2c33 302c 3835 2c30 312c 3231  | b',059,30,85,01,21' |
048: 342c 3131 2c33 2a34 360d 0a              | b'4,11,3*46\r\n' |
<NMEA(GLGSV, numMsg=1, msgNum=1, numSV=1, svid_01=88, elv_01=0.0, az_01=356, cno_01=, signalID=0)>000: 2447 4c47 5356 2c31 2c31 2c30 312c 3838  | b'$GLGSV,1,1,01,88' |
016: 2c30 302c 3335 362c 2c30 2a34 380d 0a    | b',00,356,,0*48\r\n' |
<NMEA(GAGSV, numMsg=3, msgNum=1, numSV=9, svid_01=3, elv_01=8.0, az_01=271, cno_01=28, svid_02=4, elv_02=11.0, az_02=82, cno_02=25, svid_03=5, elv_03=57.0, az_03=290, cno_03=41, svid_04=9, elv_04=59.0, az_04=60, cno_04=40, signalID=2)>000: 2447 4147 5356 2c33 2c31 2c30 392c 3033  | b'$GAGSV,3,1,09,03' |
016: 2c30 382c 3237 312c 3238 2c30 342c 3131  | b',08,271,28,04,11' |
032: 2c30 3832 2c32 352c 3035 2c35 372c 3239  | b',082,25,05,57,29' |
048: 302c 3431 2c30 392c 3539 2c30 3630 2c34  | b'0,41,09,59,060,4' |
064: 302c 322a 3746 0d0a                      | b'0,2*7F\r\n' |
<NMEA(GAGSV, numMsg=3, msgNum=2, numSV=9, svid_01=15, elv_01=16.0, az_01=324, cno_01=28, svid_02=24, elv_02=20.0, az_02=146, cno_02=26, svid_03=31, elv_03=33.0, az_03=92, cno_03=32, svid_04=34, elv_04=40.0, az_04=272, cno_04=41, signalID=2)>000: 2447 4147 5356 2c33 2c32 2c30 392c 3135  | b'$GAGSV,3,2,09,15' |
016: 2c31 362c 3332 342c 3238 2c32 342c 3230  | b',16,324,28,24,20' |
032: 2c31 3436 2c32 362c 3331 2c33 332c 3039  | b',146,26,31,33,09' |
048: 322c 3332 2c33 342c 3430 2c32 3732 2c34  | b'2,32,34,40,272,4' |
064: 312c 322a 3738 0d0a                      | b'1,2*78\r\n' |
<NMEA(GAGSV, numMsg=3, msgNum=3, numSV=9, svid_01=36, elv_01=26.0, az_01=210, cno_01=36, signalID=2)>000: 2447 4147 5356 2c33 2c33 2c30 392c 3336  | b'$GAGSV,3,3,09,36' |
016: 2c32 362c 3231 302c 3336 2c32 2a34 380d  | b',26,210,36,2*48\r' |
032: 0a                                       | b'\n' |
<NMEA(GAGSV, numMsg=2, msgNum=1, numSV=7, svid_01=3, elv_01=8.0, az_01=271, cno_01=26, svid_02=5, elv_02=57.0, az_02=290, cno_02=41, svid_03=9, elv_03=59.0, az_03=60, cno_03=45, svid_04=24, elv_04=20.0, az_04=146, cno_04=29, signalID=7)>000: 2447 4147 5356 2c32 2c31 2c30 372c 3033  | b'$GAGSV,2,1,07,03' |
016: 2c30 382c 3237 312c 3236 2c30 352c 3537  | b',08,271,26,05,57' |
032: 2c32 3930 2c34 312c 3039 2c35 392c 3036  | b',290,41,09,59,06' |
048: 302c 3435 2c32 342c 3230 2c31 3436 2c32  | b'0,45,24,20,146,2' |
064: 392c 372a 3742 0d0a                      | b'9,7*7B\r\n' |
<NMEA(GAGSV, numMsg=2, msgNum=2, numSV=7, svid_01=31, elv_01=33.0, az_01=92, cno_01=41, svid_02=34, elv_02=40.0, az_02=272, cno_02=43, svid_03=36, elv_03=26.0, az_03=210, cno_03=29, signalID=7)>000: 2447 4147 5356 2c32 2c32 2c30 372c 3331  | b'$GAGSV,2,2,07,31' |
016: 2c33 332c 3039 322c 3431 2c33 342c 3430  | b',33,092,41,34,40' |
032: 2c32 3732 2c34 332c 3336 2c32 362c 3231  | b',272,43,36,26,21' |
048: 302c 3239 2c37 2a34 320d 0a              | b'0,29,7*42\r\n' |
<NMEA(GBGSV, numMsg=2, msgNum=1, numSV=7, svid_01=19, elv_01=26.0, az_01=300, cno_01=42, svid_02=20, elv_02=74.0, az_02=333, cno_02=49, svid_03=23, elv_03=32.0, az_03=53, cno_03=41, svid_04=29, elv_04=8.0, az_04=250, cno_04=32, signalID=1)>000: 2447 4247 5356 2c32 2c31 2c30 372c 3139  | b'$GBGSV,2,1,07,19' |
016: 2c32 362c 3330 302c 3432 2c32 302c 3734  | b',26,300,42,20,74' |
032: 2c33 3333 2c34 392c 3233 2c33 322c 3035  | b',333,49,23,32,05' |
048: 332c 3431 2c32 392c 3038 2c32 3530 2c33  | b'3,41,29,08,250,3' |
064: 322c 312a 3732 0d0a                      | b'2,1*72\r\n' |
<NMEA(GBGSV, numMsg=2, msgNum=2, numSV=7, svid_01=32, elv_01=42.0, az_01=104, cno_01=43, svid_02=35, elv_02=10.0, az_02=303, cno_02=35, svid_03=37, elv_03=58.0, az_03=127, cno_03=45, signalID=1)>000: 2447 4247 5356 2c32 2c32 2c30 372c 3332  | b'$GBGSV,2,2,07,32' |
016: 2c34 322c 3130 342c 3433 2c33 352c 3130  | b',42,104,43,35,10' |
032: 2c33 3033 2c33 352c 3337 2c35 382c 3132  | b',303,35,37,58,12' |
048: 372c 3435 2c31 2a34 390d 0a              | b'7,45,1*49\r\n' |
<NMEA(GBGSV, numMsg=1, msgNum=1, numSV=4, svid_01=19, elv_01=26.0, az_01=300, cno_01=7, svid_02=20, elv_02=74.0, az_02=333, cno_02=11, svid_03=23, elv_03=32.0, az_03=53, cno_03=10, svid_04=29, elv_04=8.0, az_04=250, cno_04=8, signalID=3)>000: 2447 4247 5356 2c31 2c31 2c30 342c 3139  | b'$GBGSV,1,1,04,19' |
016: 2c32 362c 3330 302c 3037 2c32 302c 3734  | b',26,300,07,20,74' |
032: 2c33 3333 2c31 312c 3233 2c33 322c 3035  | b',333,11,23,32,05' |
048: 332c 3130 2c32 392c 3038 2c32 3530 2c30  | b'3,10,29,08,250,0' |
064: 382c 332a 3731 0d0a                      | b'8,3*71\r\n' |
<NMEA(GNGLL, lat=43.8825247767, NS=N, lon=-72.1574707183, EW=W, time=20:12:09, status=A, posMode=D)>000: 2447 4e47 4c4c 2c34 3335 322e 3935 3134  | b'$GNGLL,4352.9514' |
016: 3836 362c 4e2c 3037 3230 392e 3434 3832  | b'866,N,07209.4482' |
032: 3433 312c 572c 3230 3132 3039 2e30 302c  | b'431,W,201209.00,' |
048: 412c 442a 3639 0d0a                      | b'A,D*69\r\n' |
<NMEA(GNTXT, numMsg=1, msgNum=1, msgType=0, text=txbuf alloc)>000: 2447 4e54 5854 2c30 312c 3031 2c30 302c  | b'$GNTXT,01,01,00,' |
016: 7478 6275 6620 616c 6c6f 632a 3631 0d0a  | b'txbuf alloc*61\r\n' |
<NMEA(GNRMC, time=20:12:09.250000, status=A, lat=43.8825248033, NS=N, lon=-72.1574715817, EW=W, spd=0.444, cog=271.25, date=2023-09-05, mv=, mvEW=, posMode=R, navStatus=V)>000: 2447 4e52 4d43 2c32 3031 3230 392e 3235  | b'$GNRMC,201209.25' |
016: 2c41 2c34 3335 322e 3935 3134 3838 322c  | b',A,4352.9514882,' |
032: 4e2c 3037 3230 392e 3434 3832 3934 392c  | b'N,07209.4482949,' |
048: 572c 302e 3434 342c 3237 312e 3235 2c30  | b'W,0.444,271.25,0' |
064: 3530 3932 332c 2c2c 522c 562a 3037 0d0a  | b'50923,,,R,V*07\r\n' |
<NMEA(GNVTG, cogt=271.25, cogtUnit=T, cogm=, cogmUnit=M, sogn=0.444, sognUnit=N, sogk=0.822, sogkUnit=K, posMode=D)>000: 2447 4e56 5447 2c32 3731 2e32 352c 542c  | b'$GNVTG,271.25,T,' |
016: 2c4d 2c30 2e34 3434 2c4e 2c30 2e38 3232  | b',M,0.444,N,0.822' |
032: 2c4b 2c44 2a32 390d 0a                   | b',K,D*29\r\n' |
<NMEA(GNGGA, time=20:12:09.250000, lat=43.8825248033, NS=N, lon=-72.1574715817, EW=W, quality=4, numSV=12, HDOP=0.6, alt=141.615, altUnit=M, sep=-32.546, sepUnit=M, diffAge=, diffStation=0)>000: 2447 4e47 4741 2c32 3031 3230 392e 3235  | b'$GNGGA,201209.25' |
016: 2c34 3335 322e 3935 3134 3838 322c 4e2c  | b',4352.9514882,N,' |
032: 3037 3230 392e 3434 3832 3934 392c 572c  | b'07209.4482949,W,' |
048: 342c 3132 2c30 2e36 302c 3134 312e 3631  | b'4,12,0.60,141.61' |
064: 352c 4d2c 2d33 322e 3534 362c 4d2c 2c30  | b'5,M,-32.546,M,,0' |
080: 3030 302a 3742 0d0a                      | b'000*7B\r\n' |
<NMEA(GNGSA, opMode=A, navMode=3, svid_01=2, svid_02=25, svid_03=28, svid_04=21, svid_05=24, svid_06=44, svid_07=10, svid_08=46, svid_09=12, svid_10=23, svid_11=32, svid_12=, PDOP=1.16, HDOP=0.6, VDOP=0.99, systemId=1)>000: 2447 4e47 5341 2c41 2c33 2c30 322c 3235  | b'$GNGSA,A,3,02,25' |
016: 2c32 382c 3231 2c32 342c 3434 2c31 302c  | b',28,21,24,44,10,' |
032: 3436 2c31 322c 3233 2c33 322c 2c31 2e31  | b'46,12,23,32,,1.1' |
048: 362c 302e 3630 2c30 2e39 392c 312a 3042  | b'6,0.60,0.99,1*0B' |
064: 0d0a                                     | b'\r\n' |
<NMEA(GNGSA, opMode=A, navMode=3, svid_01=87, svid_02=80, svid_03=70, svid_04=71, svid_05=72, svid_06=73, svid_07=, svid_08=, svid_09=, svid_10=, svid_11=, svid_12=, PDOP=1.16, HDOP=0.6, VDOP=0.99, systemId=2)>000: 2447 4e47 5341 2c41 2c33 2c38 372c 3830  | b'$GNGSA,A,3,87,80' |
016: 2c37 302c 3731 2c37 322c 3733 2c2c 2c2c  | b',70,71,72,73,,,,' |
032: 2c2c 2c31 2e31 362c 302e 3630 2c30 2e39  | b',,,1.16,0.60,0.9' |
048: 392c 322a 3035 0d0a                      | b'9,2*05\r\n' |
<NMEA(GNGSA, opMode=A, navMode=3, svid_01=36, svid_02=15, svid_03=5, svid_04=31, svid_05=34, svid_06=9, svid_07=24, svid_08=, svid_09=, svid_10=, svid_11=, svid_12=, PDOP=1.16, HDOP=0.6, VDOP=0.99, systemId=3)>000: 2447 4e47 5341 2c41 2c33 2c33 362c 3135  | b'$GNGSA,A,3,36,15' |
016: 2c30 352c 3331 2c33 342c 3039 2c32 342c  | b',05,31,34,09,24,' |
032: 2c2c 2c2c 2c31 2e31 362c 302e 3630 2c30  | b',,,,,1.16,0.60,0' |
048: 2e39 392c 332a 3044 0d0a                 | b'.99,3*0D\r\n' |
<NMEA(GNGSA, opMode=A, navMode=3, svid_01=37, svid_02=19, svid_03=32, svid_04=20, svid_05=23, svid_06=, svid_07=, svid_08=, svid_09=, svid_10=, svid_11=, svid_12=, PDOP=1.16, HDOP=0.6, VDOP=0.99, systemId=4)>000: 2447 4e47 5341 2c41 2c33 2c33 372c 3139  | b'$GNGSA,A,3,37,19' |
016: 2c33 322c 3230 2c32 332c 2c2c 2c2c 2c2c  | b',32,20,23,,,,,,,' |
032: 2c31 2e31 362c 302e 3630 2c30 2e39 392c  | b',1.16,0.60,0.99,' |
048: 342a 3041 0d0a                           | b'4*0A\r\n' |
<NMEA(GPGSV, numMsg=3, msgNum=1, numSV=12, svid_01=2, elv_01=15.0, az_01=319, cno_01=34, svid_02=10, elv_02=84.0, az_02=280, cno_02=51, svid_03=12, elv_03=28.0, az_03=99, cno_03=36, svid_04=18, elv_04=5.0, az_04=184, cno_04=24, signalID=1)>000: 2447 5047 5356 2c33 2c31 2c31 322c 3032  | b'$GPGSV,3,1,12,02' |
016: 2c31 352c 3331 392c 3334 2c31 302c 3834  | b',15,319,34,10,84' |
032: 2c32 3830 2c35 312c 3132 2c32 382c 3039  | b',280,51,12,28,09' |
048: 392c 3336 2c31 382c 3035 2c31 3834 2c32  | b'9,36,18,05,184,2' |
064: 342c 312a 3637 0d0a                      | b'4,1*67\r\n' |
<NMEA(GPGSV, numMsg=3, msgNum=2, numSV=12, svid_01=21, elv_01=20.0, az_01=312, cno_01=30, svid_02=23, elv_02=53.0, az_02=140, cno_02=46, svid_03=24, elv_03=34.0, az_03=53, cno_03=43, svid_04=25, elv_04=21.0, az_04=143, cno_04=34, signalID=1)>000: 2447 5047 5356 2c33 2c32 2c31 322c 3231  | b'$GPGSV,3,2,12,21' |
016: 2c32 302c 3331 322c 3330 2c32 332c 3533  | b',20,312,30,23,53' |
032: 2c31 3430 2c34 362c 3234 2c33 342c 3035  | b',140,46,24,34,05' |
048: 332c 3433 2c32 352c 3231 2c31 3433 2c33  | b'3,43,25,21,143,3' |
064: 342c 312a 3631 0d0a                      | b'4,1*61\r\n' |
<NMEA(GPGSV, numMsg=3, msgNum=3, numSV=12, svid_01=28, elv_01=22.0, az_01=217, cno_01=34, svid_02=32, elv_02=49.0, az_02=284, cno_02=47, svid_03=44, elv_03=23.0, az_03=235, cno_03=33, svid_04=46, elv_04=15.0, az_04=246, cno_04=29, signalID=1)>000: 2447 5047 5356 2c33 2c33 2c31 322c 3238  | b'$GPGSV,3,3,12,28' |
016: 2c32 322c 3231 372c 3334 2c33 322c 3439  | b',22,217,34,32,49' |
032: 2c32 3834 2c34 372c 3434 2c32 332c 3233  | b',284,47,44,23,23' |
048: 352c 3333 2c34 362c 3135 2c32 3436 2c32  | b'5,33,46,15,246,2' |
064: 392c 312a 3637 0d0a                      | b'9,1*67\r\n' |
<NMEA(GPGSV, numMsg=2, msgNum=1, numSV=8, svid_01=10, elv_01=84.0, az_01=280, cno_01=38, svid_02=12, elv_02=28.0, az_02=99, cno_02=22, svid_03=18, elv_03=5.0, az_03=184, cno_03=16, svid_04=23, elv_04=53.0, az_04=140, cno_04=38, signalID=6)>000: 2447 5047 5356 2c32 2c31 2c30 382c 3130  | b'$GPGSV,2,1,08,10' |
016: 2c38 342c 3238 302c 3338 2c31 322c 3238  | b',84,280,38,12,28' |
032: 2c30 3939 2c32 322c 3138 2c30 352c 3138  | b',099,22,18,05,18' |
048: 342c 3136 2c32 332c 3533 2c31 3430 2c33  | b'4,16,23,53,140,3' |
064: 382c 362a 3632 0d0a                      | b'8,6*62\r\n' |
<NMEA(GPGSV, numMsg=2, msgNum=2, numSV=8, svid_01=24, elv_01=34.0, az_01=53, cno_01=31, svid_02=25, elv_02=21.0, az_02=143, cno_02=20, svid_03=28, elv_03=22.0, az_03=217, cno_03=32, svid_04=32, elv_04=49.0, az_04=284, cno_04=36, signalID=6)>000: 2447 5047 5356 2c32 2c32 2c30 382c 3234  | b'$GPGSV,2,2,08,24' |
016: 2c33 342c 3035 332c 3331 2c32 352c 3231  | b',34,053,31,25,21' |
032: 2c31 3433 2c32 302c 3238 2c32 322c 3231  | b',143,20,28,22,21' |
048: 372c 3332 2c33 322c 3439 2c32 3834 2c33  | b'7,32,32,49,284,3' |
064: 362c 362a 3636 0d0a                      | b'6,6*66\r\n' |
<NMEA(GPGSV, numMsg=1, msgNum=1, numSV=1, svid_01=15, elv_01=6.0, az_01=89, cno_01=, signalID=0)>000: 2447 5047 5356 2c31 2c31 2c30 312c 3135  | b'$GPGSV,1,1,01,15' |
016: 2c30 362c 3038 392c 2c30 2a35 370d 0a    | b',06,089,,0*57\r\n' |
<NMEA(GLGSV, numMsg=3, msgNum=1, numSV=9, svid_01=70, elv_01=51.0, az_01=73, cno_01=33, svid_02=71, elv_02=56.0, az_02=331, cno_02=47, svid_03=72, elv_03=14.0, az_03=298, cno_03=31, svid_04=73, elv_04=45.0, az_04=151, cno_04=44, signalID=1)>000: 2447 4c47 5356 2c33 2c31 2c30 392c 3730  | b'$GLGSV,3,1,09,70' |
016: 2c35 312c 3037 332c 3333 2c37 312c 3536  | b',51,073,33,71,56' |
032: 2c33 3331 2c34 372c 3732 2c31 342c 3239  | b',331,47,72,14,29' |
048: 382c 3331 2c37 332c 3435 2c31 3531 2c34  | b'8,31,73,45,151,4' |
064: 342c 312a 3732 0d0a                      | b'4,1*72\r\n' |
<NMEA(GLGSV, numMsg=3, msgNum=2, numSV=9, svid_01=74, elv_01=9.0, az_01=181, cno_01=25, svid_02=79, elv_02=7.0, az_02=23, cno_02=27, svid_03=80, elv_03=48.0, az_03=59, cno_03=45, svid_04=86, elv_04=24.0, az_04=254, cno_04=40, signalID=1)>000: 2447 4c47 5356 2c33 2c32 2c30 392c 3734  | b'$GLGSV,3,2,09,74' |
016: 2c30 392c 3138 312c 3235 2c37 392c 3037  | b',09,181,25,79,07' |
032: 2c30 3233 2c32 372c 3830 2c34 382c 3035  | b',023,27,80,48,05' |
048: 392c 3435 2c38 362c 3234 2c32 3534 2c34  | b'9,45,86,24,254,4' |
064: 302c 312a 3745 0d0a                      | b'0,1*7E\r\n' |
<NMEA(GLGSV, numMsg=3, msgNum=3, numSV=9, svid_01=87, elv_01=23.0, az_01=313, cno_01=32, signalID=1)>000: 2447 4c47 5356 2c33 2c33 2c30 392c 3837  | b'$GLGSV,3,3,09,87' |
016: 2c32 332c 3331 332c 3332 2c31 2a34 460d  | b',23,313,32,1*4F\r' |
032: 0a                                       | b'\n' |
<NMEA(GLGSV, numMsg=1, msgNum=1, numSV=3, svid_01=71, elv_01=56.0, az_01=331, cno_01=28, svid_02=80, elv_02=48.0, az_02=59, cno_02=30, svid_03=85, elv_03=1.0, az_03=214, cno_03=11, signalID=3)>000: 2447 4c47 5356 2c31 2c31 2c30 332c 3731  | b'$GLGSV,1,1,03,71' |
016: 2c35 362c 3333 312c 3238 2c38 302c 3438  | b',56,331,28,80,48' |
032: 2c30 3539 2c33 302c 3835 2c30 312c 3231  | b',059,30,85,01,21' |
048: 342c 3131 2c33 2a34 370d 0a              | b'4,11,3*47\r\n' |
<NMEA(GLGSV, numMsg=1, msgNum=1, numSV=1, svid_01=88, elv_01=0.0, az_01=356, cno_01=, signalID=0)>000: 2447 4c47 5356 2c31 2c31 2c30 312c 3838  | b'$GLGSV,1,1,01,88' |
016: 2c30 302c 3335 362c 2c30 2a34 380d 0a    | b',00,356,,0*48\r\n' |
<NMEA(GAGSV, numMsg=3, msgNum=1, numSV=9, svid_01=3, elv_01=8.0, az_01=271, cno_01=27, svid_02=4, elv_02=11.0, az_02=82, cno_02=24, svid_03=5, elv_03=57.0, az_03=290, cno_03=40, svid_04=9, elv_04=59.0, az_04=60, cno_04=38, signalID=2)>000: 2447 4147 5356 2c33 2c31 2c30 392c 3033  | b'$GAGSV,3,1,09,03' |
016: 2c30 382c 3237 312c 3237 2c30 342c 3131  | b',08,271,27,04,11' |
032: 2c30 3832 2c32 342c 3035 2c35 372c 3239  | b',082,24,05,57,29' |
048: 302c 3430 2c30 392c 3539 2c30 3630 2c33  | b'0,40,09,59,060,3' |
064: 382c 322a 3746 0d0a                      | b'8,2*7F\r\n' |
<NMEA(GAGSV, numMsg=3, msgNum=2, numSV=9, svid_01=15, elv_01=16.0, az_01=324, cno_01=29, svid_02=24, elv_02=20.0, az_02=146, cno_02=25, svid_03=31, elv_03=33.0, az_03=92, cno_03=32, svid_04=34, elv_04=40.0, az_04=272, cno_04=42, signalID=2)>000: 2447 4147 5356 2c33 2c32 2c30 392c 3135  | b'$GAGSV,3,2,09,15' |
016: 2c31 362c 3332 342c 3239 2c32 342c 3230  | b',16,324,29,24,20' |
032: 2c31 3436 2c32 352c 3331 2c33 332c 3039  | b',146,25,31,33,09' |
048: 322c 3332 2c33 342c 3430 2c32 3732 2c34  | b'2,32,34,40,272,4' |
064: 322c 322a 3739 0d0a                      | b'2,2*79\r\n' |
<NMEA(GAGSV, numMsg=3, msgNum=3, numSV=9, svid_01=36, elv_01=26.0, az_01=210, cno_01=36, signalID=2)>000: 2447 4147 5356 2c33 2c33 2c30 392c 3336  | b'$GAGSV,3,3,09,36' |
016: 2c32 362c 3231 302c 3336 2c32 2a34 380d  | b',26,210,36,2*48\r' |
032: 0a                                       | b'\n' |
<NMEA(GAGSV, numMsg=2, msgNum=1, numSV=7, svid_01=3, elv_01=8.0, az_01=271, cno_01=26, svid_02=5, elv_02=57.0, az_02=290, cno_02=43, svid_03=9, elv_03=59.0, az_03=60, cno_03=42, svid_04=24, elv_04=20.0, az_04=146, cno_04=29, signalID=7)>000: 2447 4147 5356 2c32 2c31 2c30 372c 3033  | b'$GAGSV,2,1,07,03' |
016: 2c30 382c 3237 312c 3236 2c30 352c 3537  | b',08,271,26,05,57' |
032: 2c32 3930 2c34 332c 3039 2c35 392c 3036  | b',290,43,09,59,06' |
048: 302c 3432 2c32 342c 3230 2c31 3436 2c32  | b'0,42,24,20,146,2' |
064: 392c 372a 3745 0d0a                      | b'9,7*7E\r\n' |
<NMEA(GAGSV, numMsg=2, msgNum=2, numSV=7, svid_01=31, elv_01=33.0, az_01=92, cno_01=37, svid_02=34, elv_02=40.0, az_02=272, cno_02=44, svid_03=36, elv_03=26.0, az_03=210, cno_03=36, signalID=7)>000: 2447 4147 5356 2c32 2c32 2c30 372c 3331  | b'$GAGSV,2,2,07,31' |
016: 2c33 332c 3039 322c 3337 2c33 342c 3430  | b',33,092,37,34,40' |
032: 2c32 3732 2c34 342c 3336 2c32 362c 3231  | b',272,44,36,26,21' |
048: 302c 3336 2c37 2a34 410d 0a              | b'0,36,7*4A\r\n' |
<NMEA(GBGSV, numMsg=2, msgNum=1, numSV=7, svid_01=19, elv_01=26.0, az_01=300, cno_01=41, svid_02=20, elv_02=74.0, az_02=333, cno_02=48, svid_03=23, elv_03=32.0, az_03=53, cno_03=45, svid_04=29, elv_04=8.0, az_04=250, cno_04=31, signalID=1)>000: 2447 4247 5356 2c32 2c31 2c30 372c 3139  | b'$GBGSV,2,1,07,19' |
016: 2c32 362c 3330 302c 3431 2c32 302c 3734  | b',26,300,41,20,74' |
032: 2c33 3333 2c34 382c 3233 2c33 322c 3035  | b',333,48,23,32,05' |
048: 332c 3435 2c32 392c 3038 2c32 3530 2c33  | b'3,45,29,08,250,3' |
064: 312c 312a 3737 0d0a                      | b'1,1*77\r\n' |
<NMEA(GBGSV, numMsg=2, msgNum=2, numSV=7, svid_01=32, elv_01=42.0, az_01=104, cno_01=44, svid_02=35, elv_02=10.0, az_02=303, cno_02=32, svid_03=37, elv_03=58.0, az_03=127, cno_03=48, signalID=1)>000: 2447 4247 5356 2c32 2c32 2c30 372c 3332  | b'$GBGSV,2,2,07,32' |
016: 2c34 322c 3130 342c 3434 2c33 352c 3130  | b',42,104,44,35,10' |
032: 2c33 3033 2c33 322c 3337 2c35 382c 3132  | b',303,32,37,58,12' |
048: 372c 3438 2c31 2a34 340d 0a              | b'7,48,1*44\r\n' |
<NMEA(GNRMC, time=20:12:09.750000, status=A, lat=43.882525315, NS=N, lon=-72.1574733483, EW=W, spd=0.54, cog=296.88, date=2023-09-05, mv=, mvEW=, posMode=R, navStatus=V)>000: 2447 4e52 4d43 2c32 3031 3230 392e 3735  | b'$GNRMC,201209.75' |
016: 2c41 2c34 3335 322e 3935 3135 3138 392c  | b',A,4352.9515189,' |
032: 4e2c 3037 3230 392e 3434 3834 3030 392c  | b'N,07209.4484009,' |
048: 572c 302e 3534 302c 3239 362e 3838 2c30  | b'W,0.540,296.88,0' |
064: 3530 3932 332c 2c2c 522c 562a 3031 0d0a  | b'50923,,,R,V*01\r\n' |
<NMEA(GNVTG, cogt=296.88, cogtUnit=T, cogm=, cogmUnit=M, sogn=0.54, sognUnit=N, sogk=1.001, sogkUnit=K, posMode=D)>000: 2447 4e56 5447 2c32 3936 2e38 382c 542c  | b'$GNVTG,296.88,T,' |
016: 2c4d 2c30 2e35 3430 2c4e 2c31 2e30 3031  | b',M,0.540,N,1.001' |
032: 2c4b 2c44 2a32 410d 0a                   | b',K,D*2A\r\n' |
<NMEA(GNGGA, time=20:12:09.750000, lat=43.882525315, NS=N, lon=-72.1574733483, EW=W, quality=4, numSV=12, HDOP=0.6, alt=141.597, altUnit=M, sep=-32.546, sepUnit=M, diffAge=, diffStation=0)>000: 2447 4e47 4741 2c32 3031 3230 392e 3735  | b'$GNGGA,201209.75' |
016: 2c34 3335 322e 3935 3135 3138 392c 4e2c  | b',4352.9515189,N,' |
032: 3037 3230 392e 3434 3834 3030 392c 572c  | b'07209.4484009,W,' |
048: 342c 3132 2c30 2e36 302c 3134 312e 3539  | b'4,12,0.60,141.59' |
064: 372c 4d2c 2d33 322e 3534 362c 4d2c 2c30  | b'7,M,-32.546,M,,0' |
080: 3030 302a 3746 0d0a                      | b'000*7F\r\n' |
<NMEA(GNGSA, opMode=A, navMode=3, svid_01=2, svid_02=25, svid_03=28, svid_04=21, svid_05=24, svid_06=44, svid_07=10, svid_08=46, svid_09=12, svid_10=23, svid_11=32, svid_12=, PDOP=1.16, HDOP=0.6, VDOP=0.99, systemId=1)>000: 2447 4e47 5341 2c41 2c33 2c30 322c 3235  | b'$GNGSA,A,3,02,25' |
016: 2c32 382c 3231 2c32 342c 3434 2c31 302c  | b',28,21,24,44,10,' |
032: 3436 2c31 322c 3233 2c33 322c 2c31 2e31  | b'46,12,23,32,,1.1' |
048: 362c 302e 3630 2c30 2e39 392c 312a 3042  | b'6,0.60,0.99,1*0B' |
064: 0d0a                                     | b'\r\n' |
<NMEA(GNGSA, opMode=A, navMode=3, svid_01=87, svid_02=80, svid_03=70, svid_04=71, svid_05=72, svid_06=73, svid_07=, svid_08=, svid_09=, svid_10=, svid_11=, svid_12=, PDOP=1.16, HDOP=0.6, VDOP=0.99, systemId=2)>000: 2447 4e47 5341 2c41 2c33 2c38 372c 3830  | b'$GNGSA,A,3,87,80' |
016: 2c37 302c 3731 2c37 322c 3733 2c2c 2c2c  | b',70,71,72,73,,,,' |
032: 2c2c 2c31 2e31 362c 302e 3630 2c30 2e39  | b',,,1.16,0.60,0.9' |
048: 392c 322a 3035 0d0a                      | b'9,2*05\r\n' |
<NMEA(GNGSA, opMode=A, navMode=3, svid_01=36, svid_02=15, svid_03=5, svid_04=31, svid_05=34, svid_06=4, svid_07=9, svid_08=24, svid_09=, svid_10=, svid_11=, svid_12=, PDOP=1.16, HDOP=0.6, VDOP=0.99, systemId=3)>000: 2447 4e47 5341 2c41 2c33 2c33 362c 3135  | b'$GNGSA,A,3,36,15' |
016: 2c30 352c 3331 2c33 342c 3034 2c30 392c  | b',05,31,34,04,09,' |
032: 3234 2c2c 2c2c 2c31 2e31 362c 302e 3630  | b'24,,,,,1.16,0.60' |
048: 2c30 2e39 392c 332a 3039 0d0a            | b',0.99,3*09\r\n' |
<NMEA(GNGSA, opMode=A, navMode=3, svid_01=37, svid_02=19, svid_03=32, svid_04=20, svid_05=23, svid_06=, svid_07=, svid_08=, svid_09=, svid_10=, svid_11=, svid_12=, PDOP=1.16, HDOP=0.6, VDOP=0.99, systemId=4)>000: 2447 4e47 5341 2c41 2c33 2c33 372c 3139  | b'$GNGSA,A,3,37,19' |
016: 2c33 322c 3230 2c32 332c 2c2c 2c2c 2c2c  | b',32,20,23,,,,,,,' |
032: 2c31 2e31 362c 302e 3630 2c30 2e39 392c  | b',1.16,0.60,0.99,' |
048: 342a 3041 0d0a                           | b'4*0A\r\n' |
<NMEA(GPGSV, numMsg=3, msgNum=1, numSV=12, svid_01=2, elv_01=15.0, az_01=319, cno_01=33, svid_02=10, elv_02=84.0, az_02=280, cno_02=51, svid_03=12, elv_03=28.0, az_03=99, cno_03=34, svid_04=18, elv_04=5.0, az_04=184, cno_04=24, signalID=1)>000: 2447 5047 5356 2c33 2c31 2c31 322c 3032  | b'$GPGSV,3,1,12,02' |
016: 2c31 352c 3331 392c 3333 2c31 302c 3834  | b',15,319,33,10,84' |
032: 2c32 3830 2c35 312c 3132 2c32 382c 3039  | b',280,51,12,28,09' |
048: 392c 3334 2c31 382c 3035 2c31 3834 2c32  | b'9,34,18,05,184,2' |
064: 342c 312a 3632 0d0a                      | b'4,1*62\r\n' |
<NMEA(GPGSV, numMsg=3, msgNum=2, numSV=12, svid_01=21, elv_01=20.0, az_01=312, cno_01=37, svid_02=23, elv_02=53.0, az_02=140, cno_02=48, svid_03=24, elv_03=34.0, az_03=53, cno_03=40, svid_04=25, elv_04=21.0, az_04=143, cno_04=30, signalID=1)>000: 2447 5047 5356 2c33 2c32 2c31 322c 3231  | b'$GPGSV,3,2,12,21' |
016: 2c32 302c 3331 322c 3337 2c32 332c 3533  | b',20,312,37,23,53' |
032: 2c31 3430 2c34 382c 3234 2c33 342c 3035  | b',140,48,24,34,05' |
048: 332c 3430 2c32 352c 3231 2c31 3433 2c33  | b'3,40,25,21,143,3' |
064: 302c 312a 3646 0d0a                      | b'0,1*6F\r\n' |
<NMEA(GPGSV, numMsg=3, msgNum=3, numSV=12, svid_01=28, elv_01=22.0, az_01=217, cno_01=39, svid_02=32, elv_02=49.0, az_02=284, cno_02=50, svid_03=44, elv_03=23.0, az_03=235, cno_03=36, svid_04=46, elv_04=15.0, az_04=246, cno_04=29, signalID=1)>000: 2447 5047 5356 2c33 2c33 2c31 322c 3238  | b'$GPGSV,3,3,12,28' |
016: 2c32 322c 3231 372c 3339 2c33 322c 3439  | b',22,217,39,32,49' |
032: 2c32 3834 2c35 302c 3434 2c32 332c 3233  | b',284,50,44,23,23' |
048: 352c 3336 2c34 362c 3135 2c32 3436 2c32  | b'5,36,46,15,246,2' |
064: 392c 312a 3639 0d0a                      | b'9,1*69\r\n' |
<NMEA(GPGSV, numMsg=2, msgNum=1, numSV=8, svid_01=10, elv_01=84.0, az_01=280, cno_01=40, svid_02=12, elv_02=28.0, az_02=99, cno_02=24, svid_03=18, elv_03=5.0, az_03=184, cno_03=15, svid_04=23, elv_04=53.0, az_04=140, cno_04=38, signalID=6)>000: 2447 5047 5356 2c32 2c31 2c30 382c 3130  | b'$GPGSV,2,1,08,10' |
016: 2c38 342c 3238 302c 3430 2c31 322c 3238  | b',84,280,40,12,28' |
032: 2c30 3939 2c32 342c 3138 2c30 352c 3138  | b',099,24,18,05,18' |
048: 342c 3135 2c32 332c 3533 2c31 3430 2c33  | b'4,15,23,53,140,3' |
064: 382c 362a 3638 0d0a                      | b'8,6*68\r\n' |
<NMEA(GPGSV, numMsg=2, msgNum=2, numSV=8, svid_01=24, elv_01=34.0, az_01=53, cno_01=30, svid_02=25, elv_02=21.0, az_02=143, cno_02=20, svid_03=28, elv_03=22.0, az_03=217, cno_03=31, svid_04=32, elv_04=49.0, az_04=284, cno_04=36, signalID=6)>000: 2447 5047 5356 2c32 2c32 2c30 382c 3234  | b'$GPGSV,2,2,08,24' |
016: 2c33 342c 3035 332c 3330 2c32 352c 3231  | b',34,053,30,25,21' |
032: 2c31 3433 2c32 302c 3238 2c32 322c 3231  | b',143,20,28,22,21' |
048: 372c 3331 2c33 322c 3439 2c32 3834 2c33  | b'7,31,32,49,284,3' |
064: 362c 362a 3634 0d0a                      | b'6,6*64\r\n' |
<NMEA(GPGSV, numMsg=1, msgNum=1, numSV=1, svid_01=15, elv_01=6.0, az_01=89, cno_01=, signalID=0)>000: 2447 5047 5356 2c31 2c31 2c30 312c 3135  | b'$GPGSV,1,1,01,15' |
016: 2c30 362c 3038 392c 2c30 2a35 370d 0a    | b',06,089,,0*57\r\n' |
<NMEA(GLGSV, numMsg=3, msgNum=1, numSV=9, svid_01=70, elv_01=51.0, az_01=73, cno_01=33, svid_02=71, elv_02=56.0, az_02=331, cno_02=49, svid_03=72, elv_03=14.0, az_03=298, cno_03=31, svid_04=73, elv_04=45.0, az_04=151, cno_04=43, signalID=1)>000: 2447 4c47 5356 2c33 2c31 2c30 392c 3730  | b'$GLGSV,3,1,09,70' |
016: 2c35 312c 3037 332c 3333 2c37 312c 3536  | b',51,073,33,71,56' |
032: 2c33 3331 2c34 392c 3732 2c31 342c 3239  | b',331,49,72,14,29' |
048: 382c 3331 2c37 332c 3435 2c31 3531 2c34  | b'8,31,73,45,151,4' |
064: 332c 312a 3742 0d0a                      | b'3,1*7B\r\n' |
<NMEA(GLGSV, numMsg=3, msgNum=2, numSV=9, svid_01=74, elv_01=9.0, az_01=181, cno_01=26, svid_02=79, elv_02=7.0, az_02=23, cno_02=27, svid_03=80, elv_03=48.0, az_03=59, cno_03=46, svid_04=86, elv_04=24.0, az_04=254, cno_04=35, signalID=1)>000: 2447 4c47 5356 2c33 2c32 2c30 392c 3734  | b'$GLGSV,3,2,09,74' |
016: 2c30 392c 3138 312c 3236 2c37 392c 3037  | b',09,181,26,79,07' |
032: 2c30 3233 2c32 372c 3830 2c34 382c 3035  | b',023,27,80,48,05' |
048: 392c 3436 2c38 362c 3234 2c32 3534 2c33  | b'9,46,86,24,254,3' |
064: 352c 312a 3743 0d0a                      | b'5,1*7C\r\n' |
<NMEA(GLGSV, numMsg=3, msgNum=3, numSV=9, svid_01=87, elv_01=23.0, az_01=313, cno_01=33, signalID=1)>000: 2447 4c47 5356 2c33 2c33 2c30 392c 3837  | b'$GLGSV,3,3,09,87' |
016: 2c32 332c 3331 332c 3333 2c31 2a34 450d  | b',23,313,33,1*4E\r' |
032: 0a                                       | b'\n' |
<NMEA(GLGSV, numMsg=1, msgNum=1, numSV=3, svid_01=71, elv_01=56.0, az_01=331, cno_01=28, svid_02=80, elv_02=48.0, az_02=59, cno_02=30, svid_03=85, elv_03=1.0, az_03=214, cno_03=7, signalID=3)>000: 2447 4c47 5356 2c31 2c31 2c30 332c 3731  | b'$GLGSV,1,1,03,71' |
016: 2c35 362c 3333 312c 3238 2c38 302c 3438  | b',56,331,28,80,48' |
032: 2c30 3539 2c33 302c 3835 2c30 312c 3231  | b',059,30,85,01,21' |
048: 342c 3037 2c33 2a34 300d 0a              | b'4,07,3*40\r\n' |
<NMEA(GLGSV, numMsg=1, msgNum=1, numSV=1, svid_01=88, elv_01=0.0, az_01=356, cno_01=, signalID=0)>000: 2447 4c47 5356 2c31 2c31 2c30 312c 3838  | b'$GLGSV,1,1,01,88' |
016: 2c30 302c 3335 362c 2c30 2a34 380d 0a    | b',00,356,,0*48\r\n' |
<NMEA(GAGSV, numMsg=3, msgNum=1, numSV=9, svid_01=3, elv_01=8.0, az_01=271, cno_01=24, svid_02=4, elv_02=11.0, az_02=82, cno_02=24, svid_03=5, elv_03=57.0, az_03=290, cno_03=39, svid_04=9, elv_04=59.0, az_04=60, cno_04=40, signalID=2)>000: 2447 4147 5356 2c33 2c31 2c30 392c 3033  | b'$GAGSV,3,1,09,03' |
016: 2c30 382c 3237 312c 3234 2c30 342c 3131  | b',08,271,24,04,11' |
032: 2c30 3832 2c32 342c 3035 2c35 372c 3239  | b',082,24,05,57,29' |
048: 302c 3339 2c30 392c 3539 2c30 3630 2c34  | b'0,39,09,59,060,4' |
064: 302c 322a 3744 0d0a                      | b'0,2*7D\r\n' |
<NMEA(GAGSV, numMsg=3, msgNum=2, numSV=9, svid_01=15, elv_01=16.0, az_01=324, cno_01=27, svid_02=24, elv_02=20.0, az_02=146, cno_02=24, svid_03=31, elv_03=33.0, az_03=92, cno_03=26, svid_04=34, elv_04=40.0, az_04=272, cno_04=39, signalID=2)>000: 2447 4147 5356 2c33 2c32 2c30 392c 3135  | b'$GAGSV,3,2,09,15' |
016: 2c31 362c 3332 342c 3237 2c32 342c 3230  | b',16,324,27,24,20' |
032: 2c31 3436 2c32 342c 3331 2c33 332c 3039  | b',146,24,31,33,09' |
048: 322c 3236 2c33 342c 3430 2c32 3732 2c33  | b'2,26,34,40,272,3' |
064: 392c 322a 3746 0d0a                      | b'9,2*7F\r\n' |
<NMEA(GAGSV, numMsg=3, msgNum=3, numSV=9, svid_01=36, elv_01=26.0, az_01=210, cno_01=35, signalID=2)>000: 2447 4147 5356 2c33 2c33 2c30 392c 3336  | b'$GAGSV,3,3,09,36' |
016: 2c32 362c 3231 302c 3335 2c32 2a34 420d  | b',26,210,35,2*4B\r' |
032: 0a                                       | b'\n' |
<NMEA(GAGSV, numMsg=2, msgNum=1, numSV=7, svid_01=3, elv_01=8.0, az_01=271, cno_01=25, svid_02=5, elv_02=57.0, az_02=290, cno_02=43, svid_03=9, elv_03=59.0, az_03=60, cno_03=47, svid_04=24, elv_04=20.0, az_04=146, cno_04=30, signalID=7)>000: 2447 4147 5356 2c32 2c31 2c30 372c 3033  | b'$GAGSV,2,1,07,03' |
016: 2c30 382c 3237 312c 3235 2c30 352c 3537  | b',08,271,25,05,57' |
032: 2c32 3930 2c34 332c 3039 2c35 392c 3036  | b',290,43,09,59,06' |
048: 302c 3437 2c32 342c 3230 2c31 3436 2c33  | b'0,47,24,20,146,3' |
064: 302c 372a 3730 0d0a                      | b'0,7*70\r\n' |
<NMEA(GAGSV, numMsg=2, msgNum=2, numSV=7, svid_01=31, elv_01=33.0, az_01=92, cno_01=42, svid_02=34, elv_02=40.0, az_02=272, cno_02=45, svid_03=36, elv_03=26.0, az_03=210, cno_03=38, signalID=7)>000: 2447 4147 5356 2c32 2c32 2c30 372c 3331  | b'$GAGSV,2,2,07,31' |
016: 2c33 332c 3039 322c 3432 2c33 342c 3430  | b',33,092,42,34,40' |
032: 2c32 3732 2c34 352c 3336 2c32 362c 3231  | b',272,45,36,26,21' |
048: 302c 3338 2c37 2a34 370d 0a              | b'0,38,7*47\r\n' |
<NMEA(GBGSV, numMsg=2, msgNum=1, numSV=7, svid_01=19, elv_01=26.0, az_01=300, cno_01=44, svid_02=20, elv_02=74.0, az_02=333, cno_02=50, svid_03=23, elv_03=32.0, az_03=53, cno_03=42, svid_04=29, elv_04=8.0, az_04=250, cno_04=24, signalID=1)>000: 2447 4247 5356 2c32 2c31 2c30 372c 3139  | b'$GBGSV,2,1,07,19' |
016: 2c32 362c 3330 302c 3434 2c32 302c 3734  | b',26,300,44,20,74' |
032: 2c33 3333 2c35 302c 3233 2c33 322c 3035  | b',333,50,23,32,05' |
048: 332c 3432 2c32 392c 3038 2c32 3530 2c32  | b'3,42,29,08,250,2' |
064: 342c 312a 3738 0d0a                      | b'4,1*78\r\n' |
<NMEA(GBGSV, numMsg=2, msgNum=2, numSV=7, svid_01=32, elv_01=42.0, az_01=104, cno_01=44, svid_02=35, elv_02=10.0, az_02=303, cno_02=38, svid_03=37, elv_03=58.0, az_03=127, cno_03=49, signalID=1)>000: 2447 4247 5356 2c32 2c32 2c30 372c 3332  | b'$GBGSV,2,2,07,32' |
016: 2c34 322c 3130 342c 3434 2c33 352c 3130  | b',42,104,44,35,10' |
032: 2c33 3033 2c33 382c 3337 2c35 382c 3132  | b',303,38,37,58,12' |
048: 372c 3439 2c31 2a34 460d 0a              | b'7,49,1*4F\r\n' |
<NMEA(GBGSV, numMsg=1, msgNum=1, numSV=4, svid_01=19, elv_01=26.0, az_01=300, cno_01=8, svid_02=20, elv_02=74.0, az_02=333, cno_02=9, svid_03=23, elv_03=32.0, az_03=53, cno_03=10, svid_04=29, elv_04=8.0, az_04=250, cno_04=8, signalID=3)>000: 2447 4247 5356 2c31 2c31 2c30 342c 3139  | b'$GBGSV,1,1,04,19' |
016: 2c32 362c 3330 302c 3038 2c32 302c 3734  | b',26,300,08,20,74' |
032: 2c33 3333 2c30 392c 3233 2c33 322c 3035  | b',333,09,23,32,05' |
048: 332c 3130 2c32 392c 3038 2c32 3530 2c30  | b'3,10,29,08,250,0' |
064: 382c 332a 3737 0d0a                      | b'8,3*77\r\n' |
<NMEA(GNGLL, lat=43.882525315, NS=N, lon=-72.1574733483, EW=W, time=20:12:09.750000, status=A, posMode=D)>000: 2447 4e47 4c4c 2c34 3335 322e 3935 3135  | b'$GNGLL,4352.9515' |
016: 3138 392c 4e2c 3037 3230 392e 3434 3834  | b'189,N,07209.4484' |
032: 3030 392c 572c 3230 3132 3039 2e37 352c  | b'009,W,201209.75,' |
048: 412c 442a 3642 0d0a                      | b'A,D*6B\r\n' |
<NMEA(GNRMC, time=20:12:10, status=A, lat=43.88252561, NS=N, lon=-72.15747413, EW=W, spd=0.486, cog=303.45, date=2023-09-05, mv=, mvEW=, posMode=R, navStatus=V)>000: 2447 4e52 4d43 2c32 3031 3231 302e 3030  | b'$GNRMC,201210.00' |
016: 2c41 2c34 3335 322e 3935 3135 3336 362c  | b',A,4352.9515366,' |
032: 4e2c 3037 3230 392e 3434 3834 3437 382c  | b'N,07209.4484478,' |
048: 572c 302e 3438 362c 3330 332e 3435 2c30  | b'W,0.486,303.45,0' |
064: 3530 3932 332c 2c2c 522c 562a 3044 0d0a  | b'50923,,,R,V*0D\r\n' |
<NMEA(GNVTG, cogt=303.45, cogtUnit=T, cogm=, cogmUnit=M, sogn=0.486, sognUnit=N, sogk=0.901, sogkUnit=K, posMode=D)>000: 2447 4e56 5447 2c33 3033 2e34 352c 542c  | b'$GNVTG,303.45,T,' |
016: 2c4d 2c30 2e34 3836 2c4e 2c30 2e39 3031  | b',M,0.486,N,0.901' |
032: 2c4b 2c44 2a32 350d 0a                   | b',K,D*25\r\n' |
<NMEA(GNGGA, time=20:12:10, lat=43.88252561, NS=N, lon=-72.15747413, EW=W, quality=4, numSV=12, HDOP=0.6, alt=141.59, altUnit=M, sep=-32.546, sepUnit=M, diffAge=, diffStation=0)>000: 2447 4e47 4741 2c32 3031 3231 302e 3030  | b'$GNGGA,201210.00' |
016: 2c34 3335 322e 3935 3135 3336 362c 4e2c  | b',4352.9515366,N,' |
032: 3037 3230 392e 3434 3834 3437 382c 572c  | b'07209.4484478,W,' |
048: 342c 3132 2c30 2e36 302c 3134 312e 3539  | b'4,12,0.60,141.59' |
064: 302c 4d2c 2d33 322e 3534 362c 4d2c 2c30  | b'0,M,-32.546,M,,0' |
080: 3030 302a 3733 0d0a                      | b'000*73\r\n' |
<NMEA(GNGSA, opMode=A, navMode=3, svid_01=2, svid_02=25, svid_03=28, svid_04=21, svid_05=24, svid_06=44, svid_07=10, svid_08=46, svid_09=12, svid_10=23, svid_11=32, svid_12=, PDOP=1.16, HDOP=0.6, VDOP=0.99, systemId=1)>000: 2447 4e47 5341 2c41 2c33 2c30 322c 3235  | b'$GNGSA,A,3,02,25' |
016: 2c32 382c 3231 2c32 342c 3434 2c31 302c  | b',28,21,24,44,10,' |
032: 3436 2c31 322c 3233 2c33 322c 2c31 2e31  | b'46,12,23,32,,1.1' |
048: 362c 302e 3630 2c30 2e39 392c 312a 3042  | b'6,0.60,0.99,1*0B' |
064: 0d0a                                     | b'\r\n' |
<NMEA(GNGSA, opMode=A, navMode=3, svid_01=87, svid_02=80, svid_03=70, svid_04=71, svid_05=72, svid_06=73, svid_07=, svid_08=, svid_09=, svid_10=, svid_11=, svid_12=, PDOP=1.16, HDOP=0.6, VDOP=0.99, systemId=2)>000: 2447 4e47 5341 2c41 2c33 2c38 372c 3830  | b'$GNGSA,A,3,87,80' |
016: 2c37 302c 3731 2c37 322c 3733 2c2c 2c2c  | b',70,71,72,73,,,,' |
032: 2c2c 2c31 2e31 362c 302e 3630 2c30 2e39  | b',,,1.16,0.60,0.9' |
048: 392c 322a 3035 0d0a                      | b'9,2*05\r\n' |
<NMEA(GNGSA, opMode=A, navMode=3, svid_01=36, svid_02=15, svid_03=5, svid_04=31, svid_05=34, svid_06=4, svid_07=9, svid_08=24, svid_09=, svid_10=, svid_11=, svid_12=, PDOP=1.16, HDOP=0.6, VDOP=0.99, systemId=3)>000: 2447 4e47 5341 2c41 2c33 2c33 362c 3135  | b'$GNGSA,A,3,36,15' |
016: 2c30 352c 3331 2c33 342c 3034 2c30 392c  | b',05,31,34,04,09,' |
032: 3234 2c2c 2c2c 2c31 2e31 362c 302e 3630  | b'24,,,,,1.16,0.60' |
048: 2c30 2e39 392c 332a 3039 0d0a            | b',0.99,3*09\r\n' |
<NMEA(GNGSA, opMode=A, navMode=3, svid_01=37, svid_02=19, svid_03=32, svid_04=20, svid_05=23, svid_06=, svid_07=, svid_08=, svid_09=, svid_10=, svid_11=, svid_12=, PDOP=1.16, HDOP=0.6, VDOP=0.99, systemId=4)>000: 2447 4e47 5341 2c41 2c33 2c33 372c 3139  | b'$GNGSA,A,3,37,19' |
016: 2c33 322c 3230 2c32 332c 2c2c 2c2c 2c2c  | b',32,20,23,,,,,,,' |
032: 2c31 2e31 362c 302e 3630 2c30 2e39 392c  | b',1.16,0.60,0.99,' |
048: 342a 3041 0d0a                           | b'4*0A\r\n' |
<NMEA(GPGSV, numMsg=3, msgNum=1, numSV=12, svid_01=2, elv_01=15.0, az_01=319, cno_01=28, svid_02=10, elv_02=84.0, az_02=280, cno_02=52, svid_03=12, elv_03=28.0, az_03=99, cno_03=39, svid_04=18, elv_04=5.0, az_04=184, cno_04=24, signalID=1)>000: 2447 5047 5356 2c33 2c31 2c31 322c 3032  | b'$GPGSV,3,1,12,02' |
016: 2c31 352c 3331 392c 3238 2c31 302c 3834  | b',15,319,28,10,84' |
032: 2c32 3830 2c35 322c 3132 2c32 382c 3039  | b',280,52,12,28,09' |
048: 392c 3339 2c31 382c 3035 2c31 3834 2c32  | b'9,39,18,05,184,2' |
064: 342c 312a 3636 0d0a                      | b'4,1*66\r\n' |
<NMEA(GPGSV, numMsg=3, msgNum=2, numSV=12, svid_01=21, elv_01=20.0, az_01=312, cno_01=34, svid_02=23, elv_02=53.0, az_02=140, cno_02=47, svid_03=24, elv_03=34.0, az_03=53, cno_03=19, svid_04=25, elv_04=21.0, az_04=143, cno_04=31, signalID=1)>000: 2447 5047 5356 2c33 2c32 2c31 322c 3231  | b'$GPGSV,3,2,12,21' |
016: 2c32 302c 3331 322c 3334 2c32 332c 3533  | b',20,312,34,23,53' |
032: 2c31 3430 2c34 372c 3234 2c33 342c 3035  | b',140,47,24,34,05' |
048: 332c 3139 2c32 352c 3231 2c31 3433 2c33  | b'3,19,25,21,143,3' |
064: 312c 312a 3645 0d0a                      | b'1,1*6E\r\n' |
<NMEA(GPGSV, numMsg=3, msgNum=3, numSV=12, svid_01=28, elv_01=22.0, az_01=217, cno_01=38, svid_02=32, elv_02=49.0, az_02=284, cno_02=49, svid_03=44, elv_03=23.0, az_03=235, cno_03=38, svid_04=46, elv_04=15.0, az_04=246, cno_04=34, signalID=1)>000: 2447 5047 5356 2c33 2c33 2c31 322c 3238  | b'$GPGSV,3,3,12,28' |
016: 2c32 322c 3231 372c 3338 2c33 322c 3439  | b',22,217,38,32,49' |
032: 2c32 3834 2c34 392c 3434 2c32 332c 3233  | b',284,49,44,23,23' |
048: 352c 3338 2c34 362c 3135 2c32 3436 2c33  | b'5,38,46,15,246,3' |
064: 342c 312a 3632 0d0a                      | b'4,1*62\r\n' |
<NMEA(GPGSV, numMsg=2, msgNum=1, numSV=8, svid_01=10, elv_01=84.0, az_01=280, cno_01=39, svid_02=12, elv_02=28.0, az_02=99, cno_02=24, svid_03=18, elv_03=5.0, az_03=184, cno_03=15, svid_04=23, elv_04=53.0, az_04=140, cno_04=36, signalID=6)>000: 2447 5047 5356 2c32 2c31 2c30 382c 3130  | b'$GPGSV,2,1,08,10' |
016: 2c38 342c 3238 302c 3339 2c31 322c 3238  | b',84,280,39,12,28' |
032: 2c30 3939 2c32 342c 3138 2c30 352c 3138  | b',099,24,18,05,18' |
048: 342c 3135 2c32 332c 3533 2c31 3430 2c33  | b'4,15,23,53,140,3' |
064: 362c 362a 3638 0d0a                      | b'6,6*68\r\n' |
<NMEA(GPGSV, numMsg=2, msgNum=2, numSV=8, svid_01=24, elv_01=34.0, az_01=53, cno_01=30, svid_02=25, elv_02=21.0, az_02=143, cno_02=21, svid_03=28, elv_03=22.0, az_03=217, cno_03=25, svid_04=32, elv_04=49.0, az_04=284, cno_04=39, signalID=6)>000: 2447 5047 5356 2c32 2c32 2c30 382c 3234  | b'$GPGSV,2,2,08,24' |
016: 2c33 342c 3035 332c 3330 2c32 352c 3231  | b',34,053,30,25,21' |
032: 2c31 3433 2c32 312c 3238 2c32 322c 3231  | b',143,21,28,22,21' |
048: 372c 3235 2c33 322c 3439 2c32 3834 2c33  | b'7,25,32,49,284,3' |
064: 392c 362a 3646 0d0a                      | b'9,6*6F\r\n' |
<NMEA(GPGSV, numMsg=1, msgNum=1, numSV=1, svid_01=15, elv_01=6.0, az_01=89, cno_01=, signalID=0)>000: 2447 5047 5356 2c31 2c31 2c30 312c 3135  | b'$GPGSV,1,1,01,15' |
016: 2c30 362c 3038 392c 2c30 2a35 370d 0a    | b',06,089,,0*57\r\n' |
<NMEA(GLGSV, numMsg=3, msgNum=1, numSV=9, svid_01=70, elv_01=51.0, az_01=73, cno_01=34, svid_02=71, elv_02=56.0, az_02=331, cno_02=50, svid_03=72, elv_03=14.0, az_03=298, cno_03=31, svid_04=73, elv_04=45.0, az_04=151, cno_04=41, signalID=1)>000: 2447 4c47 5356 2c33 2c31 2c30 392c 3730  | b'$GLGSV,3,1,09,70' |
016: 2c35 312c 3037 332c 3334 2c37 312c 3536  | b',51,073,34,71,56' |
032: 2c33 3331 2c35 302c 3732 2c31 342c 3239  | b',331,50,72,14,29' |
048: 382c 3331 2c37 332c 3435 2c31 3531 2c34  | b'8,31,73,45,151,4' |
064: 312c 312a 3736 0d0a                      | b'1,1*76\r\n' |
<NMEA(GLGSV, numMsg=3, msgNum=2, numSV=9, svid_01=74, elv_01=9.0, az_01=181, cno_01=25, svid_02=79, elv_02=7.0, az_02=23, cno_02=13, svid_03=80, elv_03=48.0, az_03=59, cno_03=48, svid_04=86, elv_04=24.0, az_04=254, cno_04=26, signalID=1)>000: 2447 4c47 5356 2c33 2c32 2c30 392c 3734  | b'$GLGSV,3,2,09,74' |
016: 2c30 392c 3138 312c 3235 2c37 392c 3037  | b',09,181,25,79,07' |
032: 2c30 3233 2c31 332c 3830 2c34 382c 3035  | b',023,13,80,48,05' |
048: 392c 3438 2c38 362c 3234 2c32 3534 2c32  | b'9,48,86,24,254,2' |
064: 362c 312a 3734 0d0a                      | b'6,1*74\r\n' |
<NMEA(GLGSV, numMsg=3, msgNum=3, numSV=9, svid_01=87, elv_01=23.0, az_01=313, cno_01=33, signalID=1)>000: 2447 4c47 5356 2c33 2c33 2c30 392c 3837  | b'$GLGSV,3,3,09,87' |
016: 2c32 332c 3331 332c 3333 2c31 2a34 450d  | b',23,313,33,1*4E\r' |
032: 0a                                       | b'\n' |
<NMEA(GLGSV, numMsg=1, msgNum=1, numSV=3, svid_01=71, elv_01=56.0, az_01=331, cno_01=28, svid_02=80, elv_02=48.0, az_02=59, cno_02=30, svid_03=85, elv_03=1.0, az_03=214, cno_03=8, signalID=3)>000: 2447 4c47 5356 2c31 2c31 2c30 332c 3731  | b'$GLGSV,1,1,03,71' |
016: 2c35 362c 3333 312c 3238 2c38 302c 3438  | b',56,331,28,80,48' |
032: 2c30 3539 2c33 302c 3835 2c30 312c 3231  | b',059,30,85,01,21' |
048: 342c 3038 2c33 2a34 460d 0a              | b'4,08,3*4F\r\n' |
<NMEA(GLGSV, numMsg=1, msgNum=1, numSV=1, svid_01=88, elv_01=0.0, az_01=356, cno_01=, signalID=0)>000: 2447 4c47 5356 2c31 2c31 2c30 312c 3838  | b'$GLGSV,1,1,01,88' |
016: 2c30 302c 3335 362c 2c30 2a34 380d 0a    | b',00,356,,0*48\r\n' |
<NMEA(GAGSV, numMsg=3, msgNum=1, numSV=9, svid_01=3, elv_01=8.0, az_01=271, cno_01=24, svid_02=4, elv_02=11.0, az_02=82, cno_02=24, svid_03=5, elv_03=57.0, az_03=290, cno_03=39, svid_04=9, elv_04=59.0, az_04=60, cno_04=38, signalID=2)>000: 2447 4147 5356 2c33 2c31 2c30 392c 3033  | b'$GAGSV,3,1,09,03' |
016: 2c30 382c 3237 312c 3234 2c30 342c 3131  | b',08,271,24,04,11' |
032: 2c30 3832 2c32 342c 3035 2c35 372c 3239  | b',082,24,05,57,29' |
048: 302c 3339 2c30 392c 3539 2c30 3630 2c33  | b'0,39,09,59,060,3' |
064: 382c 322a 3732 0d0a                      | b'8,2*72\r\n' |
<NMEA(GAGSV, numMsg=3, msgNum=2, numSV=9, svid_01=15, elv_01=16.0, az_01=324, cno_01=26, svid_02=24, elv_02=20.0, az_02=146, cno_02=23, svid_03=31, elv_03=33.0, az_03=92, cno_03=26, svid_04=34, elv_04=40.0, az_04=272, cno_04=39, signalID=2)>000: 2447 4147 5356 2c33 2c32 2c30 392c 3135  | b'$GAGSV,3,2,09,15' |
016: 2c31 362c 3332 342c 3236 2c32 342c 3230  | b',16,324,26,24,20' |
032: 2c31 3436 2c32 332c 3331 2c33 332c 3039  | b',146,23,31,33,09' |
048: 322c 3236 2c33 342c 3430 2c32 3732 2c33  | b'2,26,34,40,272,3' |
064: 392c 322a 3739 0d0a                      | b'9,2*79\r\n' |
<NMEA(GAGSV, numMsg=3, msgNum=3, numSV=9, svid_01=36, elv_01=26.0, az_01=210, cno_01=32, signalID=2)>000: 2447 4147 5356 2c33 2c33 2c30 392c 3336  | b'$GAGSV,3,3,09,36' |
016: 2c32 362c 3231 302c 3332 2c32 2a34 430d  | b',26,210,32,2*4C\r' |
032: 0a                                       | b'\n' |
<NMEA(GAGSV, numMsg=2, msgNum=1, numSV=7, svid_01=3, elv_01=8.0, az_01=271, cno_01=24, svid_02=5, elv_02=57.0, az_02=290, cno_02=45, svid_03=9, elv_03=59.0, az_03=60, cno_03=47, svid_04=24, elv_04=20.0, az_04=146, cno_04=34, signalID=7)>000: 2447 4147 5356 2c32 2c31 2c30 372c 3033  | b'$GAGSV,2,1,07,03' |
016: 2c30 382c 3237 312c 3234 2c30 352c 3537  | b',08,271,24,05,57' |
032: 2c32 3930 2c34 352c 3039 2c35 392c 3036  | b',290,45,09,59,06' |
048: 302c 3437 2c32 342c 3230 2c31 3436 2c33  | b'0,47,24,20,146,3' |
064: 342c 372a 3733 0d0a                      | b'4,7*73\r\n' |
<NMEA(GAGSV, numMsg=2, msgNum=2, numSV=7, svid_01=31, elv_01=33.0, az_01=92, cno_01=35, svid_02=34, elv_02=40.0, az_02=272, cno_02=46, svid_03=36, elv_03=26.0, az_03=210, cno_03=32, signalID=7)>000: 2447 4147 5356 2c32 2c32 2c30 372c 3331  | b'$GAGSV,2,2,07,31' |
016: 2c33 332c 3039 322c 3335 2c33 342c 3430  | b',33,092,35,34,40' |
032: 2c32 3732 2c34 362c 3336 2c32 362c 3231  | b',272,46,36,26,21' |
048: 302c 3332 2c37 2a34 450d 0a              | b'0,32,7*4E\r\n' |
<NMEA(GBGSV, numMsg=2, msgNum=1, numSV=7, svid_01=19, elv_01=26.0, az_01=300, cno_01=40, svid_02=20, elv_02=74.0, az_02=333, cno_02=52, svid_03=23, elv_03=32.0, az_03=53, cno_03=34, svid_04=29, elv_04=8.0, az_04=250, cno_04=31, signalID=1)>000: 2447 4247 5356 2c32 2c31 2c30 372c 3139  | b'$GBGSV,2,1,07,19' |
016: 2c32 362c 3330 302c 3430 2c32 302c 3734  | b',26,300,40,20,74' |
032: 2c33 3333 2c35 322c 3233 2c33 322c 3035  | b',333,52,23,32,05' |
048: 332c 3334 2c32 392c 3038 2c32 3530 2c33  | b'3,34,29,08,250,3' |
064: 312c 312a 3742 0d0a                      | b'1,1*7B\r\n' |
<NMEA(GBGSV, numMsg=2, msgNum=2, numSV=7, svid_01=32, elv_01=42.0, az_01=104, cno_01=43, svid_02=35, elv_02=10.0, az_02=303, cno_02=30, svid_03=37, elv_03=58.0, az_03=127, cno_03=51, signalID=1)>000: 2447 4247 5356 2c32 2c32 2c30 372c 3332  | b'$GBGSV,2,2,07,32' |
016: 2c34 322c 3130 342c 3433 2c33 352c 3130  | b',42,104,43,35,10' |
032: 2c33 3033 2c33 302c 3337 2c35 382c 3132  | b',303,30,37,58,12' |
048: 372c 3531 2c31 2a34 390d 0a              | b'7,51,1*49\r\n' |
<NMEA(GBGSV, numMsg=1, msgNum=1, numSV=4, svid_01=19, elv_01=26.0, az_01=300, cno_01=9, svid_02=20, elv_02=74.0, az_02=333, cno_02=9, svid_03=23, elv_03=32.0, az_03=53, cno_03=10, svid_04=29, elv_04=8.0, az_04=250, cno_04=8, signalID=3)>000: 2447 4247 5356 2c31 2c31 2c30 342c 3139  | b'$GBGSV,1,1,04,19' |
016: 2c32 362c 3330 302c 3039 2c32 302c 3734  | b',26,300,09,20,74' |
032: 2c33 3333 2c30 392c 3233 2c33 322c 3035  | b',333,09,23,32,05' |
048: 332c 3130 2c32 392c 3038 2c32 3530 2c30  | b'3,10,29,08,250,0' |
064: 382c 332a 3736 0d0a                      | b'8,3*76\r\n' |
<NMEA(GNGLL, lat=43.88252561, NS=N, lon=-72.15747413, EW=W, time=20:12:10, status=A, posMode=D)>000: 2447 4e47 4c4c 2c34 3335 322e 3935 3135  | b'$GNGLL,4352.9515' |
016: 3336 362c 4e2c 3037 3230 392e 3434 3834  | b'366,N,07209.4484' |
032: 3437 382c 572c 3230 3132 3130 2e30 302c  | b'478,W,201210.00,' |
048: 412c 442a 3630 0d0a                      | b'A,D*60\r\n' |
<NMEA(GNTXT, numMsg=1, msgNum=1, msgType=0, text=txbuf alloc)>000: 2447 4e54 5854 2c30 312c 3031 2c30 302c  | b'$GNTXT,01,01,00,' |
016: 7478 6275 6620 616c 6c6f 632a 3631 0d0a  | b'txbuf alloc*61\r\n' |
<NMEA(GNRMC, time=20:12:10.250000, status=A, lat=43.8825255567, NS=N, lon=-72.157474535, EW=W, spd=0.218, cog=247.18, date=2023-09-05, mv=, mvEW=, posMode=R, navStatus=V)>000: 2447 4e52 4d43 2c32 3031 3231 302e 3235  | b'$GNRMC,201210.25' |
016: 2c41 2c34 3335 322e 3935 3135 3333 342c  | b',A,4352.9515334,' |
032: 4e2c 3037 3230 392e 3434 3834 3732 312c  | b'N,07209.4484721,' |
048: 572c 302e 3231 382c 3234 372e 3138 2c30  | b'W,0.218,247.18,0' |
064: 3530 3932 332c 2c2c 522c 562a 3041 0d0a  | b'50923,,,R,V*0A\r\n' |
<NMEA(GNVTG, cogt=247.18, cogtUnit=T, cogm=, cogmUnit=M, sogn=0.218, sognUnit=N, sogk=0.403, sogkUnit=K, posMode=D)>000: 2447 4e56 5447 2c32 3437 2e31 382c 542c  | b'$GNVTG,247.18,T,' |
016: 2c4d 2c30 2e32 3138 2c4e 2c30 2e34 3033  | b',M,0.218,N,0.403' |
032: 2c4b 2c44 2a32 320d 0a                   | b',K,D*22\r\n' |
<NMEA(GNGGA, time=20:12:10.250000, lat=43.8825255567, NS=N, lon=-72.157474535, EW=W, quality=4, numSV=12, HDOP=0.6, alt=141.593, altUnit=M, sep=-32.546, sepUnit=M, diffAge=, diffStation=0)>000: 2447 4e47 4741 2c32 3031 3231 302e 3235  | b'$GNGGA,201210.25' |
016: 2c34 3335 322e 3935 3135 3333 342c 4e2c  | b',4352.9515334,N,' |
032: 3037 3230 392e 3434 3834 3732 312c 572c  | b'07209.4484721,W,' |
048: 342c 3132 2c30 2e36 302c 3134 312e 3539  | b'4,12,0.60,141.59' |
064: 332c 4d2c 2d33 322e 3534 362c 4d2c 2c30  | b'3,M,-32.546,M,,0' |
080: 3030 302a 3746 0d0a                      | b'000*7F\r\n' |
<NMEA(GNGSA, opMode=A, navMode=3, svid_01=2, svid_02=25, svid_03=28, svid_04=21, svid_05=24, svid_06=44, svid_07=10, svid_08=46, svid_09=12, svid_10=23, svid_11=32, svid_12=, PDOP=1.16, HDOP=0.6, VDOP=0.99, systemId=1)>000: 2447 4e47 5341 2c41 2c33 2c30 322c 3235  | b'$GNGSA,A,3,02,25' |
016: 2c32 382c 3231 2c32 342c 3434 2c31 302c  | b',28,21,24,44,10,' |
032: 3436 2c31 322c 3233 2c33 322c 2c31 2e31  | b'46,12,23,32,,1.1' |
048: 362c 302e 3630 2c30 2e39 392c 312a 3042  | b'6,0.60,0.99,1*0B' |
064: 0d0a                                     | b'\r\n' |
<NMEA(GNGSA, opMode=A, navMode=3, svid_01=87, svid_02=80, svid_03=70, svid_04=71, svid_05=72, svid_06=73, svid_07=, svid_08=, svid_09=, svid_10=, svid_11=, svid_12=, PDOP=1.16, HDOP=0.6, VDOP=0.99, systemId=2)>000: 2447 4e47 5341 2c41 2c33 2c38 372c 3830  | b'$GNGSA,A,3,87,80' |
016: 2c37 302c 3731 2c37 322c 3733 2c2c 2c2c  | b',70,71,72,73,,,,' |
032: 2c2c 2c31 2e31 362c 302e 3630 2c30 2e39  | b',,,1.16,0.60,0.9' |
048: 392c 322a 3035 0d0a                      | b'9,2*05\r\n' |
<NMEA(GNGSA, opMode=A, navMode=3, svid_01=36, svid_02=15, svid_03=5, svid_04=31, svid_05=34, svid_06=4, svid_07=9, svid_08=24, svid_09=, svid_10=, svid_11=, svid_12=, PDOP=1.16, HDOP=0.6, VDOP=0.99, systemId=3)>000: 2447 4e47 5341 2c41 2c33 2c33 362c 3135  | b'$GNGSA,A,3,36,15' |
016: 2c30 352c 3331 2c33 342c 3034 2c30 392c  | b',05,31,34,04,09,' |
032: 3234 2c2c 2c2c 2c31 2e31 362c 302e 3630  | b'24,,,,,1.16,0.60' |
048: 2c30 2e39 392c 332a 3039 0d0a            | b',0.99,3*09\r\n' |
<NMEA(GNGSA, opMode=A, navMode=3, svid_01=37, svid_02=19, svid_03=32, svid_04=20, svid_05=23, svid_06=, svid_07=, svid_08=, svid_09=, svid_10=, svid_11=, svid_12=, PDOP=1.16, HDOP=0.6, VDOP=0.99, systemId=4)>000: 2447 4e47 5341 2c41 2c33 2c33 372c 3139  | b'$GNGSA,A,3,37,19' |
016: 2c33 322c 3230 2c32 332c 2c2c 2c2c 2c2c  | b',32,20,23,,,,,,,' |
032: 2c31 2e31 362c 302e 3630 2c30 2e39 392c  | b',1.16,0.60,0.99,' |
048: 342a 3041 0d0a                           | b'4*0A\r\n' |
<NMEA(GPGSV, numMsg=3, msgNum=1, numSV=12, svid_01=2, elv_01=15.0, az_01=319, cno_01=28, svid_02=10, elv_02=84.0, az_02=280, cno_02=51, svid_03=12, elv_03=28.0, az_03=99, cno_03=38, svid_04=18, elv_04=5.0, az_04=184, cno_04=24, signalID=1)>000: 2447 5047 5356 2c33 2c31 2c31 322c 3032  | b'$GPGSV,3,1,12,02' |
016: 2c31 352c 3331 392c 3238 2c31 302c 3834  | b',15,319,28,10,84' |
032: 2c32 3830 2c35 312c 3132 2c32 382c 3039  | b',280,51,12,28,09' |
048: 392c 3338 2c31 382c 3035 2c31 3834 2c32  | b'9,38,18,05,184,2' |
064: 342c 312a 3634 0d0a                      | b'4,1*64\r\n' |
<NMEA(GPGSV, numMsg=3, msgNum=2, numSV=12, svid_01=21, elv_01=20.0, az_01=312, cno_01=40, svid_02=23, elv_02=53.0, az_02=140, cno_02=46, svid_03=24, elv_03=34.0, az_03=53, cno_03=28, svid_04=25, elv_04=21.0, az_04=143, cno_04=31, signalID=1)>000: 2447 5047 5356 2c33 2c32 2c31 322c 3231  | b'$GPGSV,3,2,12,21' |
016: 2c32 302c 3331 322c 3430 2c32 332c 3533  | b',20,312,40,23,53' |
032: 2c31 3430 2c34 362c 3234 2c33 342c 3035  | b',140,46,24,34,05' |
048: 332c 3238 2c32 352c 3231 2c31 3433 2c33  | b'3,28,25,21,143,3' |
064: 312c 312a 3645 0d0a                      | b'1,1*6E\r\n' |
<NMEA(GPGSV, numMsg=3, msgNum=3, numSV=12, svid_01=28, elv_01=23.0, az_01=218, cno_01=37, svid_02=32, elv_02=49.0, az_02=284, cno_02=49, svid_03=44, elv_03=23.0, az_03=235, cno_03=41, svid_04=46, elv_04=15.0, az_04=246, cno_04=28, signalID=1)>000: 2447 5047 5356 2c33 2c33 2c31 322c 3238  | b'$GPGSV,3,3,12,28' |
016: 2c32 332c 3231 382c 3337 2c33 322c 3439  | b',23,218,37,32,49' |
032: 2c32 3834 2c34 392c 3434 2c32 332c 3233  | b',284,49,44,23,23' |
048: 352c 3431 2c34 362c 3135 2c32 3436 2c32  | b'5,41,46,15,246,2' |
064: 382c 312a 3630 0d0a                      | b'8,1*60\r\n' |
<NMEA(GPGSV, numMsg=2, msgNum=1, numSV=8, svid_01=10, elv_01=84.0, az_01=280, cno_01=38, svid_02=12, elv_02=28.0, az_02=99, cno_02=25, svid_03=18, elv_03=5.0, az_03=184, cno_03=16, svid_04=23, elv_04=53.0, az_04=140, cno_04=39, signalID=6)>000: 2447 5047 5356 2c32 2c31 2c30 382c 3130  | b'$GPGSV,2,1,08,10' |
016: 2c38 342c 3238 302c 3338 2c31 322c 3238  | b',84,280,38,12,28' |
032: 2c30 3939 2c32 352c 3138 2c30 352c 3138  | b',099,25,18,05,18' |
048: 342c 3136 2c32 332c 3533 2c31 3430 2c33  | b'4,16,23,53,140,3' |
064: 392c 362a 3634 0d0a                      | b'9,6*64\r\n' |
<NMEA(GPGSV, numMsg=2, msgNum=2, numSV=8, svid_01=24, elv_01=34.0, az_01=53, cno_01=24, svid_02=25, elv_02=21.0, az_02=143, cno_02=23, svid_03=28, elv_03=23.0, az_03=218, cno_03=25, svid_04=32, elv_04=49.0, az_04=284, cno_04=39, signalID=6)>000: 2447 5047 5356 2c32 2c32 2c30 382c 3234  | b'$GPGSV,2,2,08,24' |
016: 2c33 342c 3035 332c 3234 2c32 352c 3231  | b',34,053,24,25,21' |
032: 2c31 3433 2c32 332c 3238 2c32 332c 3231  | b',143,23,28,23,21' |
048: 382c 3235 2c33 322c 3439 2c32 3834 2c33  | b'8,25,32,49,284,3' |
064: 392c 362a 3636 0d0a                      | b'9,6*66\r\n' |
<NMEA(GPGSV, numMsg=1, msgNum=1, numSV=1, svid_01=15, elv_01=6.0, az_01=89, cno_01=, signalID=0)>000: 2447 5047 5356 2c31 2c31 2c30 312c 3135  | b'$GPGSV,1,1,01,15' |
016: 2c30 362c 3038 392c 2c30 2a35 370d 0a    | b',06,089,,0*57\r\n' |
<NMEA(GLGSV, numMsg=3, msgNum=1, numSV=9, svid_01=70, elv_01=51.0, az_01=73, cno_01=36, svid_02=71, elv_02=56.0, az_02=331, cno_02=47, svid_03=72, elv_03=14.0, az_03=298, cno_03=36, svid_04=73, elv_04=45.0, az_04=151, cno_04=43, signalID=1)>000: 2447 4c47 5356 2c33 2c31 2c30 392c 3730  | b'$GLGSV,3,1,09,70' |
016: 2c35 312c 3037 332c 3336 2c37 312c 3536  | b',51,073,36,71,56' |
032: 2c33 3331 2c34 372c 3732 2c31 342c 3239  | b',331,47,72,14,29' |
048: 382c 3336 2c37 332c 3435 2c31 3531 2c34  | b'8,36,73,45,151,4' |
064: 332c 312a 3737 0d0a                      | b'3,1*77\r\n' |
