<NMEA(GPGSV, numMsg=3, msgNum=3, numSV=11, svid_01=28, elv_01=24.0, az_01=218, cno_01=30, svid_02=32, elv_02=50.0, az_02=286, cno_02=48, svid_03=44, elv_03=23.0, az_03=235, cno_03=28, signalID=1)>000: 2447 5047 5356 2c33 2c33 2c31 312c 3238  | b'$GPGSV,3,3,11,28' |
016: 2c32 342c 3231 382c 3330 2c33 322c 3530  | b',24,218,30,32,50' |
032: 2c32 3836 2c34 382c 3434 2c32 332c 3233  | b',286,48,44,23,23' |
048: 352c 3238 2c31 2a35 420d 0a              | b'5,28,1*5B\r\n' |
<NMEA(GPGSV, numMsg=2, msgNum=1, numSV=8, svid_01=10, elv_01=85.0, az_01=262, cno_01=40, svid_02=12, elv_02=28.0, az_02=97, cno_02=23, svid_03=18, elv_03=4.0, az_03=183, cno_03=18, svid_04=23, elv_04=51.0, az_04=142, cno_04=36, signalID=6)>000: 2447 5047 5356 2c32 2c31 2c30 382c 3130  | b'$GPGSV,2,1,08,10' |
016: 2c38 352c 3236 322c 3430 2c31 322c 3238  | b',85,262,40,12,28' |
032: 2c30 3937 2c32 332c 3138 2c30 342c 3138  | b',097,23,18,04,18' |
048: 332c 3138 2c32 332c 3531 2c31 3432 2c33  | b'3,18,23,51,142,3' |
064: 362c 362a 3639 0d0a                      | b'6,6*69\r\n' |
<NMEA(GPGSV, numMsg=2, msgNum=2, numSV=8, svid_01=24, elv_01=32.0, az_01=52, cno_01=24, svid_02=25, elv_02=22.0, az_02=142, cno_02=31, svid_03=28, elv_03=24.0, az_03=218, cno_03=31, svid_04=32, elv_04=50.0, az_04=286, cno_04=39, signalID=6)>000: 2447 5047 5356 2c32 2c32 2c30 382c 3234  | b'$GPGSV,2,2,08,24' |
016: 2c33 322c 3035 322c 3234 2c32 352c 3232  | b',32,052,24,25,22' |
032: 2c31 3432 2c33 312c 3238 2c32 342c 3231  | b',142,31,28,24,21' |
048: 382c 3331 2c33 322c 3530 2c32 3836 2c33  | b'8,31,32,50,286,3' |
064: 392c 362a 3638 0d0a                      | b'9,6*68\r\n' |
<NMEA(GPGSV, numMsg=1, msgNum=1, numSV=2, svid_01=15, elv_01=5.0, az_01=90, cno_01=, svid_02=46, elv_02=15.0, az_02=246, cno_02=, signalID=0)>000: 2447 5047 5356 2c31 2c31 2c30 322c 3135  | b'$GPGSV,1,1,02,15' |
016: 2c30 352c 3039 302c 2c34 362c 3135 2c32  | b',05,090,,46,15,2' |
032: 3436 2c2c 302a 3639 0d0a                 | b'46,,0*69\r\n' |
<NMEA(GLGSV, numMsg=3, msgNum=1, numSV=9, svid_01=70, elv_01=50.0, az_01=76, cno_01=35, svid_02=71, elv_02=57.0, az_02=334, cno_02=50, svid_03=72, elv_03=16.0, az_03=299, cno_03=25, svid_04=73, elv_04=47.0, az_04=150, cno_04=46, signalID=1)>000: 2447 4c47 5356 2c33 2c31 2c30 392c 3730  | b'$GLGSV,3,1,09,70' |
016: 2c35 302c 3037 362c 3335 2c37 312c 3537  | b',50,076,35,71,57' |
032: 2c33 3334 2c35 302c 3732 2c31 362c 3239  | b',334,50,72,16,29' |
048: 392c 3235 2c37 332c 3437 2c31 3530 2c34  | b'9,25,73,47,150,4' |
064: 362c 312a 3735 0d0a                      | b'6,1*75\r\n' |
<NMEA(GLGSV, numMsg=3, msgNum=2, numSV=9, svid_01=74, elv_01=11.0, az_01=181, cno_01=24, svid_02=79, elv_02=5.0, az_02=22, cno_02=25, svid_03=80, elv_03=47.0, az_03=56, cno_03=46, svid_04=86, elv_04=22.0, az_04=252, cno_04=29, signalID=1)>000: 2447 4c47 5356 2c33 2c32 2c30 392c 3734  | b'$GLGSV,3,2,09,74' |
016: 2c31 312c 3138 312c 3234 2c37 392c 3035  | b',11,181,24,79,05' |
032: 2c30 3232 2c32 352c 3830 2c34 372c 3035  | b',022,25,80,47,05' |
048: 362c 3436 2c38 362c 3232 2c32 3532 2c32  | b'6,46,86,22,252,2' |
064: 392c 312a 3742 0d0a                      | b'9,1*7B\r\n' |
<NMEA(GLGSV, numMsg=3, msgNum=3, numSV=9, svid_01=87, elv_01=24.0, az_01=311, cno_01=35, signalID=1)>000: 2447 4c47 5356 2c33 2c33 2c30 392c 3837  | b'$GLGSV,3,3,09,87' |
016: 2c32 342c 3331 312c 3335 2c31 2a34 440d  | b',24,311,35,1*4D\r' |
032: 0a                                       | b'\n' |
<NMEA(GLGSV, numMsg=1, msgNum=1, numSV=3, svid_01=71, elv_01=57.0, az_01=334, cno_01=34, svid_02=73, elv_02=47.0, az_02=150, cno_02=32, svid_03=80, elv_03=47.0, az_03=56, cno_03=33, signalID=3)>000: 2447 4c47 5356 2c31 2c31 2c30 332c 3731  | b'$GLGSV,1,1,03,71' |
016: 2c35 372c 3333 342c 3334 2c37 332c 3437  | b',57,334,34,73,47' |
032: 2c31 3530 2c33 322c 3830 2c34 372c 3035  | b',150,32,80,47,05' |
048: 362c 3333 2c33 2a34 340d 0a              | b'6,33,3*44\r\n' |
<NMEA(GLGSV, numMsg=1, msgNum=1, numSV=1, svid_01=88, elv_01=1.0, az_01=355, cno_01=, signalID=0)>000: 2447 4c47 5356 2c31 2c31 2c30 312c 3838  | b'$GLGSV,1,1,01,88' |
016: 2c30 312c 3335 352c 2c30 2a34 410d 0a    | b',01,355,,0*4A\r\n' |
<NMEA(GAGSV, numMsg=2, msgNum=1, numSV=8, svid_01=3, elv_01=9.0, az_01=272, cno_01=24, svid_02=5, elv_02=58.0, az_02=291, cno_02=40, svid_03=9, elv_03=58.0, az_03=62, cno_03=39, svid_04=15, elv_04=17.0, az_04=323, cno_04=19, signalID=2)>000: 2447 4147 5356 2c32 2c31 2c30 382c 3033  | b'$GAGSV,2,1,08,03' |
016: 2c30 392c 3237 322c 3234 2c30 352c 3538  | b',09,272,24,05,58' |
032: 2c32 3931 2c34 302c 3039 2c35 382c 3036  | b',291,40,09,58,06' |
048: 322c 3339 2c31 352c 3137 2c33 3233 2c31  | b'2,39,15,17,323,1' |
064: 392c 322a 3732 0d0a                      | b'9,2*72\r\n' |
<NMEA(GAGSV, numMsg=2, msgNum=2, numSV=8, svid_01=24, elv_01=21.0, az_01=146, cno_01=30, svid_02=31, elv_02=34.0, az_02=90, cno_02=31, svid_03=34, elv_03=39.0, az_03=270, cno_03=37, svid_04=36, elv_04=25.0, az_04=210, cno_04=28, signalID=2)>000: 2447 4147 5356 2c32 2c32 2c30 382c 3234  | b'$GAGSV,2,2,08,24' |
016: 2c32 312c 3134 362c 3330 2c33 312c 3334  | b',21,146,30,31,34' |
032: 2c30 3930 2c33 312c 3334 2c33 392c 3237  | b',090,31,34,39,27' |
048: 302c 3337 2c33 362c 3235 2c32 3130 2c32  | b'0,37,36,25,210,2' |
064: 382c 322a 3732 0d0a                      | b'8,2*72\r\n' |
<NMEA(GAGSV, numMsg=2, msgNum=1, numSV=7, svid_01=5, elv_01=58.0, az_01=291, cno_01=47, svid_02=9, elv_02=58.0, az_02=62, cno_02=49, svid_03=15, elv_03=17.0, az_03=323, cno_03=28, svid_04=24, elv_04=21.0, az_04=146, cno_04=35, signalID=7)>000: 2447 4147 5356 2c32 2c31 2c30 372c 3035  | b'$GAGSV,2,1,07,05' |
016: 2c35 382c 3239 312c 3437 2c30 392c 3538  | b',58,291,47,09,58' |
032: 2c30 3632 2c34 392c 3135 2c31 372c 3332  | b',062,49,15,17,32' |
048: 332c 3238 2c32 342c 3231 2c31 3436 2c33  | b'3,28,24,21,146,3' |
064: 352c 372a 3731 0d0a                      | b'5,7*71\r\n' |
<NMEA(GAGSV, numMsg=2, msgNum=2, numSV=7, svid_01=31, elv_01=34.0, az_01=90, cno_01=39, svid_02=34, elv_02=39.0, az_02=270, cno_02=42, svid_03=36, elv_03=25.0, az_03=210, cno_03=36, signalID=7)>000: 2447 4147 5356 2c32 2c32 2c30 372c 3331  | b'$GAGSV,2,2,07,31' |
016: 2c33 342c 3039 302c 3339 2c33 342c 3339  | b',34,090,39,34,39' |
032: 2c32 3730 2c34 322c 3336 2c32 352c 3231  | b',270,42,36,25,21' |
048: 302c 3336 2c37 2a34 380d 0a              | b'0,36,7*48\r\n' |
<NMEA(GAGSV, numMsg=1, msgNum=1, numSV=1, svid_01=4, elv_01=10.0, az_01=83, cno_01=, signalID=0)>000: 2447 4147 5356 2c31 2c31 2c30 312c 3034  | b'$GAGSV,1,1,01,04' |
016: 2c31 302c 3038 332c 2c30 2a34 420d 0a    | b',10,083,,0*4B\r\n' |
<NMEA(GBGSV, numMsg=2, msgNum=1, numSV=6, svid_01=19, elv_01=27.0, az_01=300, cno_01=36, svid_02=20, elv_02=76.0, az_02=336, cno_02=51, svid_03=29, elv_03=7.0, az_03=248, cno_03=26, svid_04=32, elv_04=40.0, az_04=106, cno_04=40, signalID=1)>000: 2447 4247 5356 2c32 2c31 2c30 362c 3139  | b'$GBGSV,2,1,06,19' |
016: 2c32 372c 3330 302c 3336 2c32 302c 3736  | b',27,300,36,20,76' |
032: 2c33 3336 2c35 312c 3239 2c30 372c 3234  | b',336,51,29,07,24' |
048: 382c 3236 2c33 322c 3430 2c31 3036 2c34  | b'8,26,32,40,106,4' |
064: 302c 312a 3739 0d0a                      | b'0,1*79\r\n' |
<NMEA(GBGSV, numMsg=2, msgNum=2, numSV=6, svid_01=35, elv_01=10.0, az_01=301, cno_01=29, svid_02=37, elv_02=59.0, az_02=125, cno_02=48, signalID=1)>000: 2447 4247 5356 2c32 2c32 2c30 362c 3335  | b'$GBGSV,2,2,06,35' |
016: 2c31 302c 3330 312c 3239 2c33 372c 3539  | b',10,301,29,37,59' |
032: 2c31 3235 2c34 382c 312a 3743 0d0a       | b',125,48,1*7C\r\n' |
<NMEA(GBGSV, numMsg=1, msgNum=1, numSV=1, svid_01=23, elv_01=31.0, az_01=52, cno_01=, signalID=0)>000: 2447 4247 5356 2c31 2c31 2c30 312c 3233  | b'$GBGSV,1,1,01,23' |
016: 2c33 312c 3035 322c 2c30 2a34 320d 0a    | b',31,052,,0*42\r\n' |
<NMEA(GNGLL, lat=43.882787725, NS=N, lon=-72.158185935, EW=W, time=20:16:16, status=A, posMode=D)>000: 2447 4e47 4c4c 2c34 3335 322e 3936 3732  | b'$GNGLL,4352.9672' |
016: 3633 352c 4e2c 3037 3230 392e 3439 3131  | b'635,N,07209.4911' |
032: 3536 312c 572c 3230 3136 3136 2e30 302c  | b'561,W,201616.00,' |
048: 412c 442a 3642 0d0a                      | b'A,D*6B\r\n' |
<NMEA(GNTXT, numMsg=1, msgNum=1, msgType=0, text=txbuf alloc)>000: 2447 4e54 5854 2c30 312c 3031 2c30 302c  | b'$GNTXT,01,01,00,' |
016: 7478 6275 6620 616c 6c6f 632a 3631 0d0a  | b'txbuf alloc*61\r\n' |
<NMEA(GNRMC, time=20:16:16.250000, status=A, lat=43.8827856983, NS=N, lon=-72.1581905667, EW=W, spd=0.623, cog=297.02, date=2023-09-05, mv=, mvEW=, posMode=D, navStatus=V)>000: 2447 4e52 4d43 2c32 3031 3631 362e 3235  | b'$GNRMC,201616.25' |
016: 2c41 2c34 3335 322e 3936 3731 3431 392c  | b',A,4352.9671419,' |
032: 4e2c 3037 3230 392e 3439 3134 3334 302c  | b'N,07209.4914340,' |
048: 572c 302e 3632 332c 3239 372e 3032 2c30  | b'W,0.623,297.02,0' |
064: 3530 3932 332c 2c2c 442c 562a 3141 0d0a  | b'50923,,,D,V*1A\r\n' |
<NMEA(GNVTG, cogt=297.02, cogtUnit=T, cogm=, cogmUnit=M, sogn=0.623, sognUnit=N, sogk=1.153, sogkUnit=K, posMode=D)>000: 2447 4e56 5447 2c32 3937 2e30 322c 542c  | b'$GNVTG,297.02,T,' |
016: 2c4d 2c30 2e36 3233 2c4e 2c31 2e31 3533  | b',M,0.623,N,1.153' |
032: 2c4b 2c44 2a32 390d 0a                   | b',K,D*29\r\n' |
<NMEA(GNGGA, time=20:16:16.250000, lat=43.8827856983, NS=N, lon=-72.1581905667, EW=W, quality=2, numSV=12, HDOP=0.53, alt=141.965, altUnit=M, sep=-32.547, sepUnit=M, diffAge=, diffStation=0)>000: 2447 4e47 4741 2c32 3031 3631 362e 3235  | b'$GNGGA,201616.25' |
016: 2c34 3335 322e 3936 3731 3431 392c 4e2c  | b',4352.9671419,N,' |
032: 3037 3230 392e 3439 3134 3334 302c 572c  | b'07209.4914340,W,' |
048: 322c 3132 2c30 2e35 332c 3134 312e 3936  | b'2,12,0.53,141.96' |
064: 352c 4d2c 2d33 322e 3534 372c 4d2c 2c30  | b'5,M,-32.547,M,,0' |
080: 3030 302a 3731 0d0a                      | b'000*71\r\n' |
<NMEA(GNGSA, opMode=A, navMode=3, svid_01=44, svid_02=25, svid_03=28, svid_04=21, svid_05=24, svid_06=10, svid_07=2, svid_08=12, svid_09=23, svid_10=32, svid_11=, svid_12=, PDOP=1.03, HDOP=0.53, VDOP=0.88, systemId=1)>000: 2447 4e47 5341 2c41 2c33 2c34 342c 3235  | b'$GNGSA,A,3,44,25' |
016: 2c32 382c 3231 2c32 342c 3130 2c30 322c  | b',28,21,24,10,02,' |
032: 3132 2c32 332c 3332 2c2c 2c31 2e30 332c  | b'12,23,32,,,1.03,' |
048: 302e 3533 2c30 2e38 382c 312a 3044 0d0a  | b'0.53,0.88,1*0D\r\n' |
<NMEA(GNGSA, opMode=A, navMode=3, svid_01=87, svid_02=80, svid_03=70, svid_04=71, svid_05=74, svid_06=72, svid_07=73, svid_08=, svid_09=, svid_10=, svid_11=, svid_12=, PDOP=1.03, HDOP=0.53, VDOP=0.88, systemId=2)>000: 2447 4e47 5341 2c41 2c33 2c38 372c 3830  | b'$GNGSA,A,3,87,80' |
016: 2c37 302c 3731 2c37 342c 3732 2c37 332c  | b',70,71,74,72,73,' |
032: 2c2c 2c2c 2c31 2e30 332c 302e 3533 2c30  | b',,,,,1.03,0.53,0' |
048: 2e38 382c 322a 3032 0d0a                 | b'.88,2*02\r\n' |
<NMEA(GNGSA, opMode=A, navMode=3, svid_01=36, svid_02=15, svid_03=5, svid_04=31, svid_05=34, svid_06=9, svid_07=24, svid_08=, svid_09=, svid_10=, svid_11=, svid_12=, PDOP=1.03, HDOP=0.53, VDOP=0.88, systemId=3)>000: 2447 4e47 5341 2c41 2c33 2c33 362c 3135  | b'$GNGSA,A,3,36,15' |
016: 2c30 352c 3331 2c33 342c 3039 2c32 342c  | b',05,31,34,09,24,' |
032: 2c2c 2c2c 2c31 2e30 332c 302e 3533 2c30  | b',,,,,1.03,0.53,0' |
048: 2e38 382c 332a 3039 0d0a                 | b'.88,3*09\r\n' |
<NMEA(GNGSA, opMode=A, navMode=3, svid_01=37, svid_02=32, svid_03=19, svid_04=20, svid_05=, svid_06=, svid_07=, svid_08=, svid_09=, svid_10=, svid_11=, svid_12=, PDOP=1.03, HDOP=0.53, VDOP=0.88, systemId=4)>000: 2447 4e47 5341 2c41 2c33 2c33 372c 3332  | b'$GNGSA,A,3,37,32' |
016: 2c31 392c 3230 2c2c 2c2c 2c2c 2c2c 2c31  | b',19,20,,,,,,,,,1' |
032: 2e30 332c 302e 3533 2c30 2e38 382c 342a  | b'.03,0.53,0.88,4*' |
048: 3046 0d0a                                | b'0F\r\n' |
<NMEA(GPGSV, numMsg=3, msgNum=1, numSV=11, svid_01=2, elv_01=16.0, az_01=318, cno_01=26, svid_02=10, elv_02=85.0, az_02=262, cno_02=52, svid_03=12, elv_03=28.0, az_03=97, cno_03=31, svid_04=18, elv_04=4.0, az_04=183, cno_04=21, signalID=1)>000: 2447 5047 5356 2c33 2c31 2c31 312c 3032  | b'$GPGSV,3,1,11,02' |
016: 2c31 362c 3331 382c 3236 2c31 302c 3835  | b',16,318,26,10,85' |
032: 2c32 3632 2c35 322c 3132 2c32 382c 3039  | b',262,52,12,28,09' |
048: 372c 3331 2c31 382c 3034 2c31 3833 2c32  | b'7,31,18,04,183,2' |
064: 312c 312a 3631 0d0a                      | b'1,1*61\r\n' |
<NMEA(GPGSV, numMsg=3, msgNum=2, numSV=11, svid_01=21, elv_01=20.0, az_01=310, cno_01=34, svid_02=23, elv_02=51.0, az_02=142, cno_02=40, svid_03=24, elv_03=32.0, az_03=52, cno_03=39, svid_04=25, elv_04=22.0, az_04=142, cno_04=36, signalID=1)>000: 2447 5047 5356 2c33 2c32 2c31 312c 3231  | b'$GPGSV,3,2,11,21' |
016: 2c32 302c 3331 302c 3334 2c32 332c 3531  | b',20,310,34,23,51' |
032: 2c31 3432 2c34 302c 3234 2c33 322c 3035  | b',142,40,24,32,05' |
048: 322c 3339 2c32 352c 3232 2c31 3432 2c33  | b'2,39,25,22,142,3' |
064: 362c 312a 3638 0d0a                      | b'6,1*68\r\n' |
<NMEA(GPGSV, numMsg=3, msgNum=3, numSV=11, svid_01=28, elv_01=24.0, az_01=218, cno_01=39, svid_02=32, elv_02=50.0, az_02=286, cno_02=51, svid_03=44, elv_03=23.0, az_03=235, cno_03=40, signalID=1)>000: 2447 5047 5356 2c33 2c33 2c31 312c 3238  | b'$GPGSV,3,3,11,28' |
016: 2c32 342c 3231 382c 3339 2c33 322c 3530  | b',24,218,39,32,50' |
032: 2c32 3836 2c35 312c 3434 2c32 332c 3233  | b',286,51,44,23,23' |
048: 352c 3430 2c31 2a35 340d 0a              | b'5,40,1*54\r\n' |
<NMEA(GPGSV, numMsg=2, msgNum=1, numSV=8, svid_01=10, elv_01=85.0, az_01=262, cno_01=41, svid_02=12, elv_02=28.0, az_02=97, cno_02=23, svid_03=18, elv_03=4.0, az_03=183, cno_03=19, svid_04=23, elv_04=51.0, az_04=142, cno_04=36, signalID=6)>000: 2447 5047 5356 2c32 2c31 2c30 382c 3130  | b'$GPGSV,2,1,08,10' |
016: 2c38 352c 3236 322c 3431 2c31 322c 3238  | b',85,262,41,12,28' |
032: 2c30 3937 2c32 332c 3138 2c30 342c 3138  | b',097,23,18,04,18' |
048: 332c 3139 2c32 332c 3531 2c31 3432 2c33  | b'3,19,23,51,142,3' |
064: 362c 362a 3639 0d0a                      | b'6,6*69\r\n' |
<NMEA(GPGSV, numMsg=2, msgNum=2, numSV=8, svid_01=24, elv_01=32.0, az_01=52, cno_01=24, svid_02=25, elv_02=22.0, az_02=142, cno_02=25, svid_03=28, elv_03=24.0, az_03=218, cno_03=31, svid_04=32, elv_04=50.0, az_04=286, cno_04=39, signalID=6)>000: 2447 5047 5356 2c32 2c32 2c30 382c 3234  | b'$GPGSV,2,2,08,24' |
016: 2c33 322c 3035 322c 3234 2c32 352c 3232  | b',32,052,24,25,22' |
032: 2c31 3432 2c32 352c 3238 2c32 342c 3231  | b',142,25,28,24,21' |
048: 382c 3331 2c33 322c 3530 2c32 3836 2c33  | b'8,31,32,50,286,3' |
064: 392c 362a 3644 0d0a                      | b'9,6*6D\r\n' |
<NMEA(GPGSV, numMsg=1, msgNum=1, numSV=2, svid_01=15, elv_01=5.0, az_01=90, cno_01=, svid_02=46, elv_02=15.0, az_02=246, cno_02=, signalID=0)>000: 2447 5047 5356 2c31 2c31 2c30 322c 3135  | b'$GPGSV,1,1,02,15' |
016: 2c30 352c 3039 302c 2c34 362c 3135 2c32  | b',05,090,,46,15,2' |
032: 3436 2c2c 302a 3639 0d0a                 | b'46,,0*69\r\n' |
<NMEA(GLGSV, numMsg=3, msgNum=1, numSV=9, svid_01=70, elv_01=50.0, az_01=76, cno_01=36, svid_02=71, elv_02=57.0, az_02=334, cno_02=49, svid_03=72, elv_03=16.0, az_03=299, cno_03=34, svid_04=73, elv_04=47.0, az_04=150, cno_04=46, signalID=1)>000: 2447 4c47 5356 2c33 2c31 2c30 392c 3730  | b'$GLGSV,3,1,09,70' |
016: 2c35 302c 3037 362c 3336 2c37 312c 3537  | b',50,076,36,71,57' |
032: 2c33 3334 2c34 392c 3732 2c31 362c 3239  | b',334,49,72,16,29' |
048: 392c 3334 2c37 332c 3437 2c31 3530 2c34  | b'9,34,73,47,150,4' |
064: 362c 312a 3745 0d0a                      | b'6,1*7E\r\n' |
<NMEA(GLGSV, numMsg=3, msgNum=2, numSV=9, svid_01=74, elv_01=11.0, az_01=181, cno_01=25, svid_02=79, elv_02=5.0, az_02=22, cno_02=26, svid_03=80, elv_03=47.0, az_03=56, cno_03=51, svid_04=86, elv_04=22.0, az_04=252, cno_04=30, signalID=1)>000: 2447 4c47 5356 2c33 2c32 2c30 392c 3734  | b'$GLGSV,3,2,09,74' |
016: 2c31 312c 3138 312c 3235 2c37 392c 3035  | b',11,181,25,79,05' |
032: 2c30 3232 2c32 362c 3830 2c34 372c 3035  | b',022,26,80,47,05' |
048: 362c 3531 2c38 362c 3232 2c32 3532 2c33  | b'6,51,86,22,252,3' |
064: 302c 312a 3737 0d0a                      | b'0,1*77\r\n' |
<NMEA(GLGSV, numMsg=3, msgNum=3, numSV=9, svid_01=87, elv_01=24.0, az_01=311, cno_01=34, signalID=1)>000: 2447 4c47 5356 2c33 2c33 2c30 392c 3837  | b'$GLGSV,3,3,09,87' |
016: 2c32 342c 3331 312c 3334 2c31 2a34 430d  | b',24,311,34,1*4C\r' |
032: 0a                                       | b'\n' |
<NMEA(GLGSV, numMsg=1, msgNum=1, numSV=3, svid_01=71, elv_01=57.0, az_01=334, cno_01=34, svid_02=73, elv_02=47.0, az_02=150, cno_02=32, svid_03=80, elv_03=47.0, az_03=56, cno_03=36, signalID=3)>000: 2447 4c47 5356 2c31 2c31 2c30 332c 3731  | b'$GLGSV,1,1,03,71' |
016: 2c35 372c 3333 342c 3334 2c37 332c 3437  | b',57,334,34,73,47' |
032: 2c31 3530 2c33 322c 3830 2c34 372c 3035  | b',150,32,80,47,05' |
048: 362c 3336 2c33 2a34 310d 0a              | b'6,36,3*41\r\n' |
<NMEA(GLGSV, numMsg=1, msgNum=1, numSV=1, svid_01=88, elv_01=1.0, az_01=355, cno_01=, signalID=0)>000: 2447 4c47 5356 2c31 2c31 2c30 312c 3838  | b'$GLGSV,1,1,01,88' |
016: 2c30 312c 3335 352c 2c30 2a34 410d 0a    | b',01,355,,0*4A\r\n' |
<NMEA(GAGSV, numMsg=2, msgNum=1, numSV=8, svid_01=3, elv_01=9.0, az_01=272, cno_01=25, svid_02=5, elv_02=58.0, az_02=291, cno_02=40, svid_03=9, elv_03=58.0, az_03=62, cno_03=39, svid_04=15, elv_04=17.0, az_04=323, cno_04=19, signalID=2)>000: 2447 4147 5356 2c32 2c31 2c30 382c 3033  | b'$GAGSV,2,1,08,03' |
016: 2c30 392c 3237 322c 3235 2c30 352c 3538  | b',09,272,25,05,58' |
032: 2c32 3931 2c34 302c 3039 2c35 382c 3036  | b',291,40,09,58,06' |
048: 322c 3339 2c31 352c 3137 2c33 3233 2c31  | b'2,39,15,17,323,1' |
064: 392c 322a 3733 0d0a                      | b'9,2*73\r\n' |
<NMEA(GAGSV, numMsg=2, msgNum=2, numSV=8, svid_01=24, elv_01=21.0, az_01=146, cno_01=24, svid_02=31, elv_02=34.0, az_02=90, cno_02=14, svid_03=34, elv_03=39.0, az_03=270, cno_03=37, svid_04=36, elv_04=25.0, az_04=210, cno_04=32, signalID=2)>000: 2447 4147 5356 2c32 2c32 2c30 382c 3234  | b'$GAGSV,2,2,08,24' |
016: 2c32 312c 3134 362c 3234 2c33 312c 3334  | b',21,146,24,31,34' |
032: 2c30 3930 2c31 342c 3334 2c33 392c 3237  | b',090,14,34,39,27' |
048: 302c 3337 2c33 362c 3235 2c32 3130 2c33  | b'0,37,36,25,210,3' |
064: 322c 322a 3742 0d0a                      | b'2,2*7B\r\n' |
<NMEA(GAGSV, numMsg=2, msgNum=1, numSV=7, svid_01=5, elv_01=58.0, az_01=291, cno_01=47, svid_02=9, elv_02=58.0, az_02=62, cno_02=48, svid_03=15, elv_03=17.0, az_03=323, cno_03=27, svid_04=24, elv_04=21.0, az_04=146, cno_04=37, signalID=7)>000: 2447 4147 5356 2c32 2c31 2c30 372c 3035  | b'$GAGSV,2,1,07,05' |
016: 2c35 382c 3239 312c 3437 2c30 392c 3538  | b',58,291,47,09,58' |
032: 2c30 3632 2c34 382c 3135 2c31 372c 3332  | b',062,48,15,17,32' |
048: 332c 3237 2c32 342c 3231 2c31 3436 2c33  | b'3,27,24,21,146,3' |
064: 372c 372a 3744 0d0a                      | b'7,7*7D\r\n' |
<NMEA(GAGSV, numMsg=2, msgNum=2, numSV=7, svid_01=31, elv_01=34.0, az_01=90, cno_01=35, svid_02=34, elv_02=39.0, az_02=270, cno_02=43, svid_03=36, elv_03=25.0, az_03=210, cno_03=29, signalID=7)>000: 2447 4147 5356 2c32 2c32 2c30 372c 3331  | b'$GAGSV,2,2,07,31' |
016: 2c33 342c 3039 302c 3335 2c33 342c 3339  | b',34,090,35,34,39' |
032: 2c32 3730 2c34 332c 3336 2c32 352c 3231  | b',270,43,36,25,21' |
048: 302c 3239 2c37 2a34 420d 0a              | b'0,29,7*4B\r\n' |
<NMEA(GAGSV, numMsg=1, msgNum=1, numSV=1, svid_01=4, elv_01=10.0, az_01=83, cno_01=, signalID=0)>000: 2447 4147 5356 2c31 2c31 2c30 312c 3034  | b'$GAGSV,1,1,01,04' |
016: 2c31 302c 3038 332c 2c30 2a34 420d 0a    | b',10,083,,0*4B\r\n' |
<NMEA(GBGSV, numMsg=2, msgNum=1, numSV=7, svid_01=19, elv_01=27.0, az_01=300, cno_01=42, svid_02=20, elv_02=76.0, az_02=336, cno_02=52, svid_03=23, elv_03=31.0, az_03=52, cno_03=44, svid_04=29, elv_04=7.0, az_04=248, cno_04=25, signalID=1)>000: 2447 4247 5356 2c32 2c31 2c30 372c 3139  | b'$GBGSV,2,1,07,19' |
016: 2c32 372c 3330 302c 3432 2c32 302c 3736  | b',27,300,42,20,76' |
032: 2c33 3336 2c35 322c 3233 2c33 312c 3035  | b',336,52,23,31,05' |
048: 322c 3434 2c32 392c 3037 2c32 3438 2c32  | b'2,44,29,07,248,2' |
064: 352c 312a 3739 0d0a                      | b'5,1*79\r\n' |
<NMEA(GBGSV, numMsg=2, msgNum=2, numSV=7, svid_01=32, elv_01=40.0, az_01=106, cno_01=38, svid_02=35, elv_02=10.0, az_02=301, cno_02=29, svid_03=37, elv_03=59.0, az_03=125, cno_03=48, signalID=1)>000: 2447 4247 5356 2c32 2c32 2c30 372c 3332  | b'$GBGSV,2,2,07,32' |
016: 2c34 302c 3130 362c 3338 2c33 352c 3130  | b',40,106,38,35,10' |
032: 2c33 3031 2c32 392c 3337 2c35 392c 3132  | b',301,29,37,59,12' |
048: 352c 3438 2c31 2a34 340d 0a              | b'5,48,1*44\r\n' |
<NMEA(GNGLL, lat=43.8827856983, NS=N, lon=-72.1581905667, EW=W, time=20:16:16.250000, status=A, posMode=D)>000: 2447 4e47 4c4c 2c34 3335 322e 3936 3731  | b'$GNGLL,4352.9671' |
016: 3431 392c 4e2c 3037 3230 392e 3439 3134  | b'419,N,07209.4914' |
032: 3334 302c 572c 3230 3136 3136 2e32 352c  | b'340,W,201616.25,' |
048: 412c 442a 3633 0d0a                      | b'A,D*63\r\n' |
<NMEA(GNRMC, time=20:16:16.750000, status=A, lat=43.8827857, NS=N, lon=-72.1581906233, EW=W, spd=0.77, cog=301.32, date=2023-09-05, mv=, mvEW=, posMode=D, navStatus=V)>000: 2447 4e52 4d43 2c32 3031 3631 362e 3735  | b'$GNRMC,201616.75' |
016: 2c41 2c34 3335 322e 3936 3731 3432 302c  | b',A,4352.9671420,' |
032: 4e2c 3037 3230 392e 3439 3134 3337 342c  | b'N,07209.4914374,' |
048: 572c 302e 3737 302c 3330 312e 3332 2c30  | b'W,0.770,301.32,0' |
064: 3530 3932 332c 2c2c 442c 562a 3138 0d0a  | b'50923,,,D,V*18\r\n' |
<NMEA(GNVTG, cogt=301.32, cogtUnit=T, cogm=, cogmUnit=M, sogn=0.77, sognUnit=N, sogk=1.425, sogkUnit=K, posMode=D)>000: 2447 4e56 5447 2c33 3031 2e33 322c 542c  | b'$GNVTG,301.32,T,' |
016: 2c4d 2c30 2e37 3730 2c4e 2c31 2e34 3235  | b',M,0.770,N,1.425' |
032: 2c4b 2c44 2a32 370d 0a                   | b',K,D*27\r\n' |
<NMEA(GNGGA, time=20:16:16.750000, lat=43.8827857, NS=N, lon=-72.1581906233, EW=W, quality=2, numSV=12, HDOP=0.51, alt=142.304, altUnit=M, sep=-32.547, sepUnit=M, diffAge=, diffStation=0)>000: 2447 4e47 4741 2c32 3031 3631 362e 3735  | b'$GNGGA,201616.75' |
016: 2c34 3335 322e 3936 3731 3432 302c 4e2c  | b',4352.9671420,N,' |
032: 3037 3230 392e 3439 3134 3337 342c 572c  | b'07209.4914374,W,' |
048: 322c 3132 2c30 2e35 312c 3134 322e 3330  | b'2,12,0.51,142.30' |
064: 342c 4d2c 2d33 322e 3534 372c 4d2c 2c30  | b'4,M,-32.547,M,,0' |
080: 3030 302a 3735 0d0a                      | b'000*75\r\n' |
<NMEA(GNGSA, opMode=A, navMode=3, svid_01=44, svid_02=25, svid_03=28, svid_04=21, svid_05=24, svid_06=10, svid_07=2, svid_08=12, svid_09=23, svid_10=32, svid_11=, svid_12=, PDOP=1.0, HDOP=0.51, VDOP=0.87, systemId=1)>000: 2447 4e47 5341 2c41 2c33 2c34 342c 3235  | b'$GNGSA,A,3,44,25' |
016: 2c32 382c 3231 2c32 342c 3130 2c30 322c  | b',28,21,24,10,02,' |
032: 3132 2c32 332c 3332 2c2c 2c31 2e30 302c  | b'12,23,32,,,1.00,' |
048: 302e 3531 2c30 2e38 372c 312a 3033 0d0a  | b'0.51,0.87,1*03\r\n' |
<NMEA(GNGSA, opMode=A, navMode=3, svid_01=87, svid_02=80, svid_03=70, svid_04=71, svid_05=74, svid_06=72, svid_07=73, svid_08=, svid_09=, svid_10=, svid_11=, svid_12=, PDOP=1.0, HDOP=0.51, VDOP=0.87, systemId=2)>000: 2447 4e47 5341 2c41 2c33 2c38 372c 3830  | b'$GNGSA,A,3,87,80' |
016: 2c37 302c 3731 2c37 342c 3732 2c37 332c  | b',70,71,74,72,73,' |
032: 2c2c 2c2c 2c31 2e30 302c 302e 3531 2c30  | b',,,,,1.00,0.51,0' |
048: 2e38 372c 322a 3043 0d0a                 | b'.87,2*0C\r\n' |
<NMEA(GNGSA, opMode=A, navMode=3, svid_01=36, svid_02=15, svid_03=5, svid_04=31, svid_05=34, svid_06=9, svid_07=24, svid_08=, svid_09=, svid_10=, svid_11=, svid_12=, PDOP=1.0, HDOP=0.51, VDOP=0.87, systemId=3)>000: 2447 4e47 5341 2c41 2c33 2c33 362c 3135  | b'$GNGSA,A,3,36,15' |
016: 2c30 352c 3331 2c33 342c 3039 2c32 342c  | b',05,31,34,09,24,' |
032: 2c2c 2c2c 2c31 2e30 302c 302e 3531 2c30  | b',,,,,1.00,0.51,0' |
048: 2e38 372c 332a 3037 0d0a                 | b'.87,3*07\r\n' |
<NMEA(GNGSA, opMode=A, navMode=3, svid_01=37, svid_02=23, svid_03=32, svid_04=19, svid_05=20, svid_06=, svid_07=, svid_08=, svid_09=, svid_10=, svid_11=, svid_12=, PDOP=1.0, HDOP=0.51, VDOP=0.87, systemId=4)>000: 2447 4e47 5341 2c41 2c33 2c33 372c 3233  | b'$GNGSA,A,3,37,23' |
016: 2c33 322c 3139 2c32 302c 2c2c 2c2c 2c2c  | b',32,19,20,,,,,,,' |
032: 2c31 2e30 302c 302e 3531 2c30 2e38 372c  | b',1.00,0.51,0.87,' |
048: 342a 3030 0d0a                           | b'4*00\r\n' |
<NMEA(GPGSV, numMsg=3, msgNum=1, numSV=11, svid_01=2, elv_01=16.0, az_01=318, cno_01=26, svid_02=10, elv_02=85.0, az_02=262, cno_02=52, svid_03=12, elv_03=28.0, az_03=97, cno_03=40, svid_04=18, elv_04=4.0, az_04=183, cno_04=22, signalID=1)>000: 2447 5047 5356 2c33 2c31 2c31 312c 3032  | b'$GPGSV,3,1,11,02' |
016: 2c31 362c 3331 382c 3236 2c31 302c 3835  | b',16,318,26,10,85' |
032: 2c32 3632 2c35 322c 3132 2c32 382c 3039  | b',262,52,12,28,09' |
048: 372c 3430 2c31 382c 3034 2c31 3833 2c32  | b'7,40,18,04,183,2' |
064: 322c 312a 3634 0d0a                      | b'2,1*64\r\n' |
<NMEA(GPGSV, numMsg=3, msgNum=2, numSV=11, svid_01=21, elv_01=20.0, az_01=310, cno_01=37, svid_02=23, elv_02=51.0, az_02=142, cno_02=44, svid_03=24, elv_03=32.0, az_03=52, cno_03=44, svid_04=25, elv_04=22.0, az_04=142, cno_04=29, signalID=1)>000: 2447 5047 5356 2c33 2c32 2c31 312c 3231  | b'$GPGSV,3,2,11,21' |
016: 2c32 302c 3331 302c 3337 2c32 332c 3531  | b',20,310,37,23,51' |
032: 2c31 3432 2c34 342c 3234 2c33 322c 3035  | b',142,44,24,32,05' |
048: 322c 3434 2c32 352c 3232 2c31 3432 2c32  | b'2,44,25,22,142,2' |
064: 392c 312a 3642 0d0a                      | b'9,1*6B\r\n' |
<NMEA(GPGSV, numMsg=3, msgNum=3, numSV=11, svid_01=28, elv_01=24.0, az_01=218, cno_01=35, svid_02=32, elv_02=50.0, az_02=286, cno_02=43, svid_03=44, elv_03=23.0, az_03=235, cno_03=38, signalID=1)>000: 2447 5047 5356 2c33 2c33 2c31 312c 3238  | b'$GPGSV,3,3,11,28' |
016: 2c32 342c 3231 382c 3335 2c33 322c 3530  | b',24,218,35,32,50' |
032: 2c32 3836 2c34 332c 3434 2c32 332c 3233  | b',286,43,44,23,23' |
048: 352c 3338 2c31 2a35 340d 0a              | b'5,38,1*54\r\n' |
<NMEA(GPGSV, numMsg=2, msgNum=1, numSV=8, svid_01=10, elv_01=85.0, az_01=262, cno_01=40, svid_02=12, elv_02=28.0, az_02=97, cno_02=24, svid_03=18, elv_03=4.0, az_03=183, cno_03=19, svid_04=23, elv_04=51.0, az_04=142, cno_04=36, signalID=6)>000: 2447 5047 5356 2c32 2c31 2c30 382c 3130  | b'$GPGSV,2,1,08,10' |
016: 2c38 352c 3236 322c 3430 2c31 322c 3238  | b',85,262,40,12,28' |
032: 2c30 3937 2c32 342c 3138 2c30 342c 3138  | b',097,24,18,04,18' |
048: 332c 3139 2c32 332c 3531 2c31 3432 2c33  | b'3,19,23,51,142,3' |
064: 362c 362a 3646 0d0a                      | b'6,6*6F\r\n' |
<NMEA(GPGSV, numMsg=2, msgNum=2, numSV=8, svid_01=24, elv_01=32.0, az_01=52, cno_01=31, svid_02=25, elv_02=22.0, az_02=142, cno_02=26, svid_03=28, elv_03=24.0, az_03=218, cno_03=25, svid_04=32, elv_04=50.0, az_04=286, cno_04=38, signalID=6)>000: 2447 5047 5356 2c32 2c32 2c30 382c 3234  | b'$GPGSV,2,2,08,24' |
016: 2c33 322c 3035 322c 3331 2c32 352c 3232  | b',32,052,31,25,22' |
032: 2c31 3432 2c32 362c 3238 2c32 342c 3231  | b',142,26,28,24,21' |
048: 382c 3235 2c33 322c 3530 2c32 3836 2c33  | b'8,25,32,50,286,3' |
064: 382c 362a 3645 0d0a                      | b'8,6*6E\r\n' |
<NMEA(GPGSV, numMsg=1, msgNum=1, numSV=2, svid_01=15, elv_01=5.0, az_01=90, cno_01=, svid_02=46, elv_02=15.0, az_02=246, cno_02=, signalID=0)>000: 2447 5047 5356 2c31 2c31 2c30 322c 3135  | b'$GPGSV,1,1,02,15' |
016: 2c30 352c 3039 302c 2c34 362c 3135 2c32  | b',05,090,,46,15,2' |
032: 3436 2c2c 302a 3639 0d0a                 | b'46,,0*69\r\n' |
<NMEA(GLGSV, numMsg=3, msgNum=1, numSV=9, svid_01=70, elv_01=50.0, az_01=76, cno_01=38, svid_02=71, elv_02=57.0, az_02=334, cno_02=44, svid_03=72, elv_03=16.0, az_03=299, cno_03=30, svid_04=73, elv_04=47.0, az_04=150, cno_04=44, signalID=1)>000: 2447 4c47 5356 2c33 2c31 2c30 392c 3730  | b'$GLGSV,3,1,09,70' |
016: 2c35 302c 3037 362c 3338 2c37 312c 3537  | b',50,076,38,71,57' |
032: 2c33 3334 2c34 342c 3732 2c31 362c 3239  | b',334,44,72,16,29' |
048: 392c 3330 2c37 332c 3437 2c31 3530 2c34  | b'9,30,73,47,150,4' |
064: 342c 312a 3742 0d0a                      | b'4,1*7B\r\n' |
<NMEA(GLGSV, numMsg=3, msgNum=2, numSV=9, svid_01=74, elv_01=11.0, az_01=181, cno_01=26, svid_02=79, elv_02=5.0, az_02=22, cno_02=27, svid_03=80, elv_03=47.0, az_03=56, cno_03=45, svid_04=86, elv_04=22.0, az_04=252, cno_04=37, signalID=1)>000: 2447 4c47 5356 2c33 2c32 2c30 392c 3734  | b'$GLGSV,3,2,09,74' |
016: 2c31 312c 3138 312c 3236 2c37 392c 3035  | b',11,181,26,79,05' |
032: 2c30 3232 2c32 372c 3830 2c34 372c 3035  | b',022,27,80,47,05' |
048: 362c 3435 2c38 362c 3232 2c32 3532 2c33  | b'6,45,86,22,252,3' |
064: 372c 312a 3737 0d0a                      | b'7,1*77\r\n' |
<NMEA(GLGSV, numMsg=3, msgNum=3, numSV=9, svid_01=87, elv_01=24.0, az_01=311, cno_01=33, signalID=1)>000: 2447 4c47 5356 2c33 2c33 2c30 392c 3837  | b'$GLGSV,3,3,09,87' |
016: 2c32 342c 3331 312c 3333 2c31 2a34 420d  | b',24,311,33,1*4B\r' |
032: 0a                                       | b'\n' |
<NMEA(GLGSV, numMsg=1, msgNum=1, numSV=3, svid_01=71, elv_01=57.0, az_01=334, cno_01=31, svid_02=73, elv_02=47.0, az_02=150, cno_02=27, svid_03=80, elv_03=47.0, az_03=56, cno_03=33, signalID=3)>000: 2447 4c47 5356 2c31 2c31 2c30 332c 3731  | b'$GLGSV,1,1,03,71' |
016: 2c35 372c 3333 342c 3331 2c37 332c 3437  | b',57,334,31,73,47' |
032: 2c31 3530 2c32 372c 3830 2c34 372c 3035  | b',150,27,80,47,05' |
048: 362c 3333 2c33 2a34 350d 0a              | b'6,33,3*45\r\n' |
<NMEA(GLGSV, numMsg=1, msgNum=1, numSV=1, svid_01=88, elv_01=1.0, az_01=355, cno_01=, signalID=0)>000: 2447 4c47 5356 2c31 2c31 2c30 312c 3838  | b'$GLGSV,1,1,01,88' |
016: 2c30 312c 3335 352c 2c30 2a34 410d 0a    | b',01,355,,0*4A\r\n' |
<NMEA(GAGSV, numMsg=2, msgNum=1, numSV=8, svid_01=3, elv_01=9.0, az_01=272, cno_01=24, svid_02=5, elv_02=58.0, az_02=291, cno_02=41, svid_03=9, elv_03=58.0, az_03=62, cno_03=36, svid_04=15, elv_04=17.0, az_04=323, cno_04=18, signalID=2)>000: 2447 4147 5356 2c32 2c31 2c30 382c 3033  | b'$GAGSV,2,1,08,03' |
016: 2c30 392c 3237 322c 3234 2c30 352c 3538  | b',09,272,24,05,58' |
032: 2c32 3931 2c34 312c 3039 2c35 382c 3036  | b',291,41,09,58,06' |
048: 322c 3336 2c31 352c 3137 2c33 3233 2c31  | b'2,36,15,17,323,1' |
064: 382c 322a 3744 0d0a                      | b'8,2*7D\r\n' |
<NMEA(GAGSV, numMsg=2, msgNum=2, numSV=8, svid_01=24, elv_01=21.0, az_01=146, cno_01=31, svid_02=31, elv_02=34.0, az_02=90, cno_02=25, svid_03=34, elv_03=39.0, az_03=270, cno_03=39, svid_04=36, elv_04=25.0, az_04=210, cno_04=27, signalID=2)>000: 2447 4147 5356 2c32 2c32 2c30 382c 3234  | b'$GAGSV,2,2,08,24' |
016: 2c32 312c 3134 362c 3331 2c33 312c 3334  | b',21,146,31,31,34' |
032: 2c30 3930 2c32 352c 3334 2c33 392c 3237  | b',090,25,34,39,27' |
048: 302c 3339 2c33 362c 3235 2c32 3130 2c32  | b'0,39,36,25,210,2' |
064: 372c 322a 3737 0d0a                      | b'7,2*77\r\n' |
<NMEA(GAGSV, numMsg=2, msgNum=1, numSV=7, svid_01=5, elv_01=58.0, az_01=291, cno_01=47, svid_02=9, elv_02=58.0, az_02=62, cno_02=47, svid_03=15, elv_03=17.0, az_03=323, cno_03=26, svid_04=24, elv_04=21.0, az_04=146, cno_04=31, signalID=7)>000: 2447 4147 5356 2c32 2c31 2c30 372c 3035  | b'$GAGSV,2,1,07,05' |
016: 2c35 382c 3239 312c 3437 2c30 392c 3538  | b',58,291,47,09,58' |
032: 2c30 3632 2c34 372c 3135 2c31 372c 3332  | b',062,47,15,17,32' |
048: 332c 3236 2c32 342c 3231 2c31 3436 2c33  | b'3,26,24,21,146,3' |
064: 312c 372a 3735 0d0a                      | b'1,7*75\r\n' |
<NMEA(GAGSV, numMsg=2, msgNum=2, numSV=7, svid_01=31, elv_01=34.0, az_01=90, cno_01=39, svid_02=34, elv_02=39.0, az_02=270, cno_02=43, svid_03=36, elv_03=25.0, az_03=210, cno_03=33, signalID=7)>000: 2447 4147 5356 2c32 2c32 2c30 372c 3331  | b'$GAGSV,2,2,07,31' |
016: 2c33 342c 3039 302c 3339 2c33 342c 3339  | b',34,090,39,34,39' |
032: 2c32 3730 2c34 332c 3336 2c32 352c 3231  | b',270,43,36,25,21' |
048: 302c 3333 2c37 2a34 430d 0a              | b'0,33,7*4C\r\n' |
<NMEA(GAGSV, numMsg=1, msgNum=1, numSV=1, svid_01=4, elv_01=10.0, az_01=83, cno_01=, signalID=0)>000: 2447 4147 5356 2c31 2c31 2c30 312c 3034  | b'$GAGSV,1,1,01,04' |
016: 2c31 302c 3038 332c 2c30 2a34 420d 0a    | b',10,083,,0*4B\r\n' |
<NMEA(GBGSV, numMsg=2, msgNum=1, numSV=7, svid_01=19, elv_01=27.0, az_01=300, cno_01=41, svid_02=20, elv_02=76.0, az_02=336, cno_02=48, svid_03=23, elv_03=31.0, az_03=52, cno_03=46, svid_04=29, elv_04=7.0, az_04=248, cno_04=24, signalID=1)>000: 2447 4247 5356 2c32 2c31 2c30 372c 3139  | b'$GBGSV,2,1,07,19' |
016: 2c32 372c 3330 302c 3431 2c32 302c 3736  | b',27,300,41,20,76' |
032: 2c33 3336 2c34 382c 3233 2c33 312c 3035  | b',336,48,23,31,05' |
048: 322c 3436 2c32 392c 3037 2c32 3438 2c32  | b'2,46,29,07,248,2' |
064: 342c 312a 3732 0d0a                      | b'4,1*72\r\n' |
<NMEA(GBGSV, numMsg=2, msgNum=2, numSV=7, svid_01=32, elv_01=40.0, az_01=106, cno_01=43, svid_02=35, elv_02=10.0, az_02=301, cno_02=28, svid_03=37, elv_03=59.0, az_03=125, cno_03=46, signalID=1)>000: 2447 4247 5356 2c32 2c32 2c30 372c 3332  | b'$GBGSV,2,2,07,32' |
016: 2c34 302c 3130 362c 3433 2c33 352c 3130  | b',40,106,43,35,10' |
032: 2c33 3031 2c32 382c 3337 2c35 392c 3132  | b',301,28,37,59,12' |
048: 352c 3436 2c31 2a34 370d 0a              | b'5,46,1*47\r\n' |
<NMEA(GNGLL, lat=43.8827857, NS=N, lon=-72.1581906233, EW=W, time=20:16:16.750000, status=A, posMode=D)>000: 2447 4e47 4c4c 2c34 3335 322e 3936 3731  | b'$GNGLL,4352.9671' |
016: 3432 302c 4e2c 3037 3230 392e 3439 3134  | b'420,N,07209.4914' |
032: 3337 342c 572c 3230 3136 3136 2e37 352c  | b'374,W,201616.75,' |
048: 412c 442a 3642 0d0a                      | b'A,D*6B\r\n' |
<NMEA(GNRMC, time=20:16:17, status=A, lat=43.8827862317, NS=N, lon=-72.1581891033, EW=W, spd=0.251, cog=335.41, date=2023-09-05, mv=, mvEW=, posMode=D, navStatus=V)>000: 2447 4e52 4d43 2c32 3031 3631 372e 3030  | b'$GNRMC,201617.00' |
016: 2c41 2c34 3335 322e 3936 3731 3733 392c  | b',A,4352.9671739,' |
032: 4e2c 3037 3230 392e 3439 3133 3436 322c  | b'N,07209.4913462,' |
048: 572c 302e 3235 312c 3333 352e 3431 2c30  | b'W,0.251,335.41,0' |
064: 3530 3932 332c 2c2c 442c 562a 3132 0d0a  | b'50923,,,D,V*12\r\n' |
<NMEA(GNVTG, cogt=335.41, cogtUnit=T, cogm=, cogmUnit=M, sogn=0.251, sognUnit=N, sogk=0.465, sogkUnit=K, posMode=D)>000: 2447 4e56 5447 2c33 3335 2e34 312c 542c  | b'$GNVTG,335.41,T,' |
016: 2c4d 2c30 2e32 3531 2c4e 2c30 2e34 3635  | b',M,0.251,N,0.465' |
032: 2c4b 2c44 2a32 370d 0a                   | b',K,D*27\r\n' |
<NMEA(GNGGA, time=20:16:17, lat=43.8827862317, NS=N, lon=-72.1581891033, EW=W, quality=2, numSV=12, HDOP=0.51, alt=142.341, altUnit=M, sep=-32.547, sepUnit=M, diffAge=, diffStation=0)>000: 2447 4e47 4741 2c32 3031 3631 372e 3030  | b'$GNGGA,201617.00' |
016: 2c34 3335 322e 3936 3731 3733 392c 4e2c  | b',4352.9671739,N,' |
032: 3037 3230 392e 3439 3133 3436 322c 572c  | b'07209.4913462,W,' |
048: 322c 3132 2c30 2e35 312c 3134 322e 3334  | b'2,12,0.51,142.34' |
064: 312c 4d2c 2d33 322e 3534 372c 4d2c 2c30  | b'1,M,-32.547,M,,0' |
080: 3030 302a 3742 0d0a                      | b'000*7B\r\n' |
<NMEA(GNGSA, opMode=A, navMode=3, svid_01=44, svid_02=25, svid_03=28, svid_04=21, svid_05=24, svid_06=10, svid_07=2, svid_08=12, svid_09=23, svid_10=32, svid_11=, svid_12=, PDOP=1.0, HDOP=0.51, VDOP=0.87, systemId=1)>000: 2447 4e47 5341 2c41 2c33 2c34 342c 3235  | b'$GNGSA,A,3,44,25' |
016: 2c32 382c 3231 2c32 342c 3130 2c30 322c  | b',28,21,24,10,02,' |
032: 3132 2c32 332c 3332 2c2c 2c31 2e30 302c  | b'12,23,32,,,1.00,' |
048: 302e 3531 2c30 2e38 372c 312a 3033 0d0a  | b'0.51,0.87,1*03\r\n' |
<NMEA(GNGSA, opMode=A, navMode=3, svid_01=87, svid_02=80, svid_03=70, svid_04=71, svid_05=74, svid_06=72, svid_07=73, svid_08=, svid_09=, svid_10=, svid_11=, svid_12=, PDOP=1.0, HDOP=0.51, VDOP=0.87, systemId=2)>000: 2447 4e47 5341 2c41 2c33 2c38 372c 3830  | b'$GNGSA,A,3,87,80' |
016: 2c37 302c 3731 2c37 342c 3732 2c37 332c  | b',70,71,74,72,73,' |
032: 2c2c 2c2c 2c31 2e30 302c 302e 3531 2c30  | b',,,,,1.00,0.51,0' |
048: 2e38 372c 322a 3043 0d0a                 | b'.87,2*0C\r\n' |
<NMEA(GNGSA, opMode=A, navMode=3, svid_01=36, svid_02=15, svid_03=5, svid_04=31, svid_05=34, svid_06=9, svid_07=24, svid_08=, svid_09=, svid_10=, svid_11=, svid_12=, PDOP=1.0, HDOP=0.51, VDOP=0.87, systemId=3)>000: 2447 4e47 5341 2c41 2c33 2c33 362c 3135  | b'$GNGSA,A,3,36,15' |
016: 2c30 352c 3331 2c33 342c 3039 2c32 342c  | b',05,31,34,09,24,' |
032: 2c2c 2c2c 2c31 2e30 302c 302e 3531 2c30  | b',,,,,1.00,0.51,0' |
048: 2e38 372c 332a 3037 0d0a                 | b'.87,3*07\r\n' |
<NMEA(GNGSA, opMode=A, navMode=3, svid_01=37, svid_02=23, svid_03=32, svid_04=19, svid_05=20, svid_06=, svid_07=, svid_08=, svid_09=, svid_10=, svid_11=, svid_12=, PDOP=1.0, HDOP=0.51, VDOP=0.87, systemId=4)>000: 2447 4e47 5341 2c41 2c33 2c33 372c 3233  | b'$GNGSA,A,3,37,23' |
016: 2c33 322c 3139 2c32 302c 2c2c 2c2c 2c2c  | b',32,19,20,,,,,,,' |
032: 2c31 2e30 302c 302e 3531 2c30 2e38 372c  | b',1.00,0.51,0.87,' |
048: 342a 3030 0d0a                           | b'4*00\r\n' |
<NMEA(GPGSV, numMsg=3, msgNum=1, numSV=11, svid_01=2, elv_01=16.0, az_01=318, cno_01=31, svid_02=10, elv_02=85.0, az_02=262, cno_02=50, svid_03=12, elv_03=28.0, az_03=97, cno_03=42, svid_04=18, elv_04=4.0, az_04=183, cno_04=21, signalID=1)>000: 2447 5047 5356 2c33 2c31 2c31 312c 3032  | b'$GPGSV,3,1,11,02' |
016: 2c31 362c 3331 382c 3331 2c31 302c 3835  | b',16,318,31,10,85' |
032: 2c32 3632 2c35 302c 3132 2c32 382c 3039  | b',262,50,12,28,09' |
048: 372c 3432 2c31 382c 3034 2c31 3833 2c32  | b'7,42,18,04,183,2' |
064: 312c 312a 3631 0d0a                      | b'1,1*61\r\n' |
<NMEA(GPGSV, numMsg=3, msgNum=2, numSV=11, svid_01=21, elv_01=20.0, az_01=310, cno_01=26, svid_02=23, elv_02=51.0, az_02=142, cno_02=44, svid_03=24, elv_03=32.0, az_03=52, cno_03=41, svid_04=25, elv_04=22.0, az_04=142, cno_04=36, signalID=1)>000: 2447 5047 5356 2c33 2c32 2c31 312c 3231  | b'$GPGSV,3,2,11,21' |
016: 2c32 302c 3331 302c 3236 2c32 332c 3531  | b',20,310,26,23,51' |
032: 2c31 3432 2c34 342c 3234 2c33 322c 3035  | b',142,44,24,32,05' |
048: 322c 3431 2c32 352c 3232 2c31 3432 2c33  | b'2,41,25,22,142,3' |
064: 362c 312a 3630 0d0a                      | b'6,1*60\r\n' |
<NMEA(GPGSV, numMsg=3, msgNum=3, numSV=11, svid_01=28, elv_01=24.0, az_01=218, cno_01=35, svid_02=32, elv_02=50.0, az_02=286, cno_02=42, svid_03=44, elv_03=23.0, az_03=235, cno_03=33, signalID=1)>000: 2447 5047 5356 2c33 2c33 2c31 312c 3238  | b'$GPGSV,3,3,11,28' |
016: 2c32 342c 3231 382c 3335 2c33 322c 3530  | b',24,218,35,32,50' |
032: 2c32 3836 2c34 322c 3434 2c32 332c 3233  | b',286,42,44,23,23' |
048: 352c 3333 2c31 2a35 450d 0a              | b'5,33,1*5E\r\n' |
<NMEA(GPGSV, numMsg=2, msgNum=1, numSV=8, svid_01=10, elv_01=85.0, az_01=262, cno_01=39, svid_02=12, elv_02=28.0, az_02=97, cno_02=24, svid_03=18, elv_03=4.0, az_03=183, cno_03=19, svid_04=23, elv_04=51.0, az_04=142, cno_04=33, signalID=6)>000: 2447 5047 5356 2c32 2c31 2c30 382c 3130  | b'$GPGSV,2,1,08,10' |
016: 2c38 352c 3236 322c 3339 2c31 322c 3238  | b',85,262,39,12,28' |
032: 2c30 3937 2c32 342c 3138 2c30 342c 3138  | b',097,24,18,04,18' |
048: 332c 3139 2c32 332c 3531 2c31 3432 2c33  | b'3,19,23,51,142,3' |
064: 332c 362a 3634 0d0a                      | b'3,6*64\r\n' |
<NMEA(GPGSV, numMsg=2, msgNum=2, numSV=8, svid_01=24, elv_01=32.0, az_01=52, cno_01=31, svid_02=25, elv_02=22.0, az_02=142, cno_02=26, svid_03=28, elv_03=24.0, az_03=218, cno_03=25, svid_04=32, elv_04=50.0, az_04=286, cno_04=35, signalID=6)>000: 2447 5047 5356 2c32 2c32 2c30 382c 3234  | b'$GPGSV,2,2,08,24' |
016: 2c33 322c 3035 322c 3331 2c32 352c 3232  | b',32,052,31,25,22' |
032: 2c31 3432 2c32 362c 3238 2c32 342c 3231  | b',142,26,28,24,21' |
048: 382c 3235 2c33 322c 3530 2c32 3836 2c33  | b'8,25,32,50,286,3' |
064: 352c 362a 3633 0d0a                      | b'5,6*63\r\n' |
<NMEA(GPGSV, numMsg=1, msgNum=1, numSV=2, svid_01=15, elv_01=5.0, az_01=90, cno_01=, svid_02=46, elv_02=15.0, az_02=246, cno_02=, signalID=0)>000: 2447 5047 5356 2c31 2c31 2c30 322c 3135  | b'$GPGSV,1,1,02,15' |
016: 2c30 352c 3039 302c 2c34 362c 3135 2c32  | b',05,090,,46,15,2' |
032: 3436 2c2c 302a 3639 0d0a                 | b'46,,0*69\r\n' |
<NMEA(GLGSV, numMsg=3, msgNum=1, numSV=9, svid_01=70, elv_01=50.0, az_01=76, cno_01=38, svid_02=71, elv_02=57.0, az_02=334, cno_02=45, svid_03=72, elv_03=16.0, az_03=299, cno_03=30, svid_04=73, elv_04=47.0, az_04=150, cno_04=40, signalID=1)>000: 2447 4c47 5356 2c33 2c31 2c30 392c 3730  | b'$GLGSV,3,1,09,70' |
016: 2c35 302c 3037 362c 3338 2c37 312c 3537  | b',50,076,38,71,57' |
032: 2c33 3334 2c34 352c 3732 2c31 362c 3239  | b',334,45,72,16,29' |
048: 392c 3330 2c37 332c 3437 2c31 3530 2c34  | b'9,30,73,47,150,4' |
064: 302c 312a 3745 0d0a                      | b'0,1*7E\r\n' |
<NMEA(GLGSV, numMsg=3, msgNum=2, numSV=9, svid_01=74, elv_01=11.0, az_01=181, cno_01=24, svid_02=79, elv_02=5.0, az_02=22, cno_02=26, svid_03=80, elv_03=47.0, az_03=56, cno_03=45, svid_04=86, elv_04=22.0, az_04=252, cno_04=37, signalID=1)>000: 2447 4c47 5356 2c33 2c32 2c30 392c 3734  | b'$GLGSV,3,2,09,74' |
016: 2c31 312c 3138 312c 3234 2c37 392c 3035  | b',11,181,24,79,05' |
032: 2c30 3232 2c32 362c 3830 2c34 372c 3035  | b',022,26,80,47,05' |
048: 362c 3435 2c38 362c 3232 2c32 3532 2c33  | b'6,45,86,22,252,3' |
064: 372c 312a 3734 0d0a                      | b'7,1*74\r\n' |
<NMEA(GLGSV, numMsg=3, msgNum=3, numSV=9, svid_01=87, elv_01=24.0, az_01=311, cno_01=33, signalID=1)>000: 2447 4c47 5356 2c33 2c33 2c30 392c 3837  | b'$GLGSV,3,3,09,87' |
016: 2c32 342c 3331 312c 3333 2c31 2a34 420d  | b',24,311,33,1*4B\r' |
032: 0a                                       | b'\n' |
<NMEA(GLGSV, numMsg=1, msgNum=1, numSV=3, svid_01=71, elv_01=57.0, az_01=334, cno_01=31, svid_02=73, elv_02=47.0, az_02=150, cno_02=27, svid_03=80, elv_03=47.0, az_03=56, cno_03=34, signalID=3)>000: 2447 4c47 5356 2c31 2c31 2c30 332c 3731  | b'$GLGSV,1,1,03,71' |
016: 2c35 372c 3333 342c 3331 2c37 332c 3437  | b',57,334,31,73,47' |
032: 2c31 3530 2c32 372c 3830 2c34 372c 3035  | b',150,27,80,47,05' |
048: 362c 3334 2c33 2a34 320d 0a              | b'6,34,3*42\r\n' |
<NMEA(GLGSV, numMsg=1, msgNum=1, numSV=1, svid_01=88, elv_01=1.0, az_01=355, cno_01=, signalID=0)>000: 2447 4c47 5356 2c31 2c31 2c30 312c 3838  | b'$GLGSV,1,1,01,88' |
016: 2c30 312c 3335 352c 2c30 2a34 410d 0a    | b',01,355,,0*4A\r\n' |
<NMEA(GAGSV, numMsg=2, msgNum=1, numSV=8, svid_01=3, elv_01=9.0, az_01=272, cno_01=25, svid_02=5, elv_02=58.0, az_02=291, cno_02=40, svid_03=9, elv_03=58.0, az_03=62, cno_03=39, svid_04=15, elv_04=17.0, az_04=323, cno_04=19, signalID=2)>000: 2447 4147 5356 2c32 2c31 2c30 382c 3033  | b'$GAGSV,2,1,08,03' |
016: 2c30 392c 3237 322c 3235 2c30 352c 3538  | b',09,272,25,05,58' |
032: 2c32 3931 2c34 302c 3039 2c35 382c 3036  | b',291,40,09,58,06' |
048: 322c 3339 2c31 352c 3137 2c33 3233 2c31  | b'2,39,15,17,323,1' |
064: 392c 322a 3733 0d0a                      | b'9,2*73\r\n' |
<NMEA(GAGSV, numMsg=2, msgNum=2, numSV=8, svid_01=24, elv_01=21.0, az_01=146, cno_01=31, svid_02=31, elv_02=34.0, az_02=90, cno_02=28, svid_03=34, elv_03=39.0, az_03=270, cno_03=37, svid_04=36, elv_04=25.0, az_04=210, cno_04=27, signalID=2)>000: 2447 4147 5356 2c32 2c32 2c30 382c 3234  | b'$GAGSV,2,2,08,24' |
016: 2c32 312c 3134 362c 3331 2c33 312c 3334  | b',21,146,31,31,34' |
032: 2c30 3930 2c32 382c 3334 2c33 392c 3237  | b',090,28,34,39,27' |
048: 302c 3337 2c33 362c 3235 2c32 3130 2c32  | b'0,37,36,25,210,2' |
064: 372c 322a 3734 0d0a                      | b'7,2*74\r\n' |
<NMEA(GAGSV, numMsg=2, msgNum=1, numSV=7, svid_01=5, elv_01=58.0, az_01=291, cno_01=43, svid_02=9, elv_02=58.0, az_02=62, cno_02=48, svid_03=15, elv_03=17.0, az_03=323, cno_03=32, svid_04=24, elv_04=21.0, az_04=146, cno_04=31, signalID=7)>000: 2447 4147 5356 2c32 2c31 2c30 372c 3035  | b'$GAGSV,2,1,07,05' |
016: 2c35 382c 3239 312c 3433 2c30 392c 3538  | b',58,291,43,09,58' |
032: 2c30 3632 2c34 382c 3135 2c31 372c 3332  | b',062,48,15,17,32' |
048: 332c 3332 2c32 342c 3231 2c31 3436 2c33  | b'3,32,24,21,146,3' |
064: 312c 372a 3742 0d0a                      | b'1,7*7B\r\n' |
<NMEA(GAGSV, numMsg=2, msgNum=2, numSV=7, svid_01=31, elv_01=34.0, az_01=90, cno_01=41, svid_02=34, elv_02=39.0, az_02=270, cno_02=42, svid_03=36, elv_03=25.0, az_03=210, cno_03=34, signalID=7)>000: 2447 4147 5356 2c32 2c32 2c30 372c 3331  | b'$GAGSV,2,2,07,31' |
016: 2c33 342c 3039 302c 3431 2c33 342c 3339  | b',34,090,41,34,39' |
032: 2c32 3730 2c34 322c 3336 2c32 352c 3231  | b',270,42,36,25,21' |
048: 302c 3334 2c37 2a34 350d 0a              | b'0,34,7*45\r\n' |
<NMEA(GAGSV, numMsg=1, msgNum=1, numSV=1, svid_01=4, elv_01=10.0, az_01=83, cno_01=, signalID=0)>000: 2447 4147 5356 2c31 2c31 2c30 312c 3034  | b'$GAGSV,1,1,01,04' |
016: 2c31 302c 3038 332c 2c30 2a34 420d 0a    | b',10,083,,0*4B\r\n' |
<NMEA(GBGSV, numMsg=2, msgNum=1, numSV=7, svid_01=19, elv_01=27.0, az_01=300, cno_01=34, svid_02=20, elv_02=76.0, az_02=336, cno_02=47, svid_03=23, elv_03=31.0, az_03=52, cno_03=43, svid_04=29, elv_04=7.0, az_04=248, cno_04=25, signalID=1)>000: 2447 4247 5356 2c32 2c31 2c30 372c 3139  | b'$GBGSV,2,1,07,19' |
016: 2c32 372c 3330 302c 3334 2c32 302c 3736  | b',27,300,34,20,76' |
032: 2c33 3336 2c34 372c 3233 2c33 312c 3035  | b',336,47,23,31,05' |
048: 322c 3433 2c32 392c 3037 2c32 3438 2c32  | b'2,43,29,07,248,2' |
064: 352c 312a 3742 0d0a                      | b'5,1*7B\r\n' |
<NMEA(GBGSV, numMsg=2, msgNum=2, numSV=7, svid_01=32, elv_01=40.0, az_01=106, cno_01=38, svid_02=35, elv_02=10.0, az_02=301, cno_02=29, svid_03=37, elv_03=59.0, az_03=125, cno_03=42, signalID=1)>000: 2447 4247 5356 2c32 2c32 2c30 372c 3332  | b'$GBGSV,2,2,07,32' |
016: 2c34 302c 3130 362c 3338 2c33 352c 3130  | b',40,106,38,35,10' |
032: 2c33 3031 2c32 392c 3337 2c35 392c 3132  | b',301,29,37,59,12' |
048: 352c 3432 2c31 2a34 450d 0a              | b'5,42,1*4E\r\n' |
<NMEA(GNGLL, lat=43.8827862317, NS=N, lon=-72.1581891033, EW=W, time=20:16:17, status=A, posMode=D)>000: 2447 4e47 4c4c 2c34 3335 322e 3936 3731  | b'$GNGLL,4352.9671' |
016: 3733 392c 4e2c 3037 3230 392e 3439 3133  | b'739,N,07209.4913' |
032: 3436 322c 572c 3230 3136 3137 2e30 302c  | b'462,W,201617.00,' |
048: 412c 442a 3634 0d0a                      | b'A,D*64\r\n' |
<NMEA(GNTXT, numMsg=1, msgNum=1, msgType=0, text=txbuf alloc)>000: 2447 4e54 5854 2c30 312c 3031 2c30 302c  | b'$GNTXT,01,01,00,' |
016: 7478 6275 6620 616c 6c6f 632a 3631 0d0a  | b'txbuf alloc*61\r\n' |
<NMEA(GNRMC, time=20:16:17.250000, status=A, lat=43.88278669, NS=N, lon=-72.1581892417, EW=W, spd=0.966, cog=282.56, date=2023-09-05, mv=, mvEW=, posMode=D, navStatus=V)>000: 2447 4e52 4d43 2c32 3031 3631 372e 3235  | b'$GNRMC,201617.25' |
016: 2c41 2c34 3335 322e 3936 3732 3031 342c  | b',A,4352.9672014,' |
032: 4e2c 3037 3230 392e 3439 3133 3534 352c  | b'N,07209.4913545,' |
048: 572c 302e 3936 362c 3238 322e 3536 2c30  | b'W,0.966,282.56,0' |
064: 3530 3932 332c 2c2c 442c 562a 3145 0d0a  | b'50923,,,D,V*1E\r\n' |
<NMEA(GNVTG, cogt=282.56, cogtUnit=T, cogm=, cogmUnit=M, sogn=0.966, sognUnit=N, sogk=1.789, sogkUnit=K, posMode=D)>000: 2447 4e56 5447 2c32 3832 2e35 362c 542c  | b'$GNVTG,282.56,T,' |
016: 2c4d 2c30 2e39 3636 2c4e 2c31 2e37 3839  | b',M,0.966,N,1.789' |
032: 2c4b 2c44 2a32 330d 0a                   | b',K,D*23\r\n' |
<NMEA(GNGGA, time=20:16:17.250000, lat=43.88278669, NS=N, lon=-72.1581892417, EW=W, quality=2, numSV=12, HDOP=0.51, alt=142.353, altUnit=M, sep=-32.547, sepUnit=M, diffAge=, diffStation=0)>000: 2447 4e47 4741 2c32 3031 3631 372e 3235  | b'$GNGGA,201617.25' |
016: 2c34 3335 322e 3936 3732 3031 342c 4e2c  | b',4352.9672014,N,' |
032: 3037 3230 392e 3439 3133 3534 352c 572c  | b'07209.4913545,W,' |
048: 322c 3132 2c30 2e35 312c 3134 322e 3335  | b'2,12,0.51,142.35' |
064: 332c 4d2c 2d33 322e 3534 372c 4d2c 2c30  | b'3,M,-32.547,M,,0' |
080: 3030 302a 3730 0d0a                      | b'000*70\r\n' |
<NMEA(GNGSA, opMode=A, navMode=3, svid_01=44, svid_02=25, svid_03=28, svid_04=21, svid_05=24, svid_06=10, svid_07=2, svid_08=12, svid_09=23, svid_10=32, svid_11=, svid_12=, PDOP=1.01, HDOP=0.51, VDOP=0.87, systemId=1)>000: 2447 4e47 5341 2c41 2c33 2c34 342c 3235  | b'$GNGSA,A,3,44,25' |
016: 2c32 382c 3231 2c32 342c 3130 2c30 322c  | b',28,21,24,10,02,' |
032: 3132 2c32 332c 3332 2c2c 2c31 2e30 312c  | b'12,23,32,,,1.01,' |
048: 302e 3531 2c30 2e38 372c 312a 3032 0d0a  | b'0.51,0.87,1*02\r\n' |
<NMEA(GNGSA, opMode=A, navMode=3, svid_01=87, svid_02=80, svid_03=70, svid_04=71, svid_05=74, svid_06=72, svid_07=73, svid_08=, svid_09=, svid_10=, svid_11=, svid_12=, PDOP=1.01, HDOP=0.51, VDOP=0.87, systemId=2)>000: 2447 4e47 5341 2c41 2c33 2c38 372c 3830  | b'$GNGSA,A,3,87,80' |
016: 2c37 302c 3731 2c37 342c 3732 2c37 332c  | b',70,71,74,72,73,' |
032: 2c2c 2c2c 2c31 2e30 312c 302e 3531 2c30  | b',,,,,1.01,0.51,0' |
048: 2e38 372c 322a 3044 0d0a                 | b'.87,2*0D\r\n' |
<NMEA(GNGSA, opMode=A, navMode=3, svid_01=36, svid_02=15, svid_03=5, svid_04=31, svid_05=34, svid_06=9, svid_07=24, svid_08=, svid_09=, svid_10=, svid_11=, svid_12=, PDOP=1.01, HDOP=0.51, VDOP=0.87, systemId=3)>000: 2447 4e47 5341 2c41 2c33 2c33 362c 3135  | b'$GNGSA,A,3,36,15' |
016: 2c30 352c 3331 2c33 342c 3039 2c32 342c  | b',05,31,34,09,24,' |
032: 2c2c 2c2c 2c31 2e30 312c 302e 3531 2c30  | b',,,,,1.01,0.51,0' |
048: 2e38 372c 332a 3036 0d0a                 | b'.87,3*06\r\n' |
<NMEA(GNGSA, opMode=A, navMode=3, svid_01=37, svid_02=23, svid_03=32, svid_04=20, svid_05=, svid_06=, svid_07=, svid_08=, svid_09=, svid_10=, svid_11=, svid_12=, PDOP=1.01, HDOP=0.51, VDOP=0.87, systemId=4)>000: 2447 4e47 5341 2c41 2c33 2c33 372c 3233  | b'$GNGSA,A,3,37,23' |
016: 2c33 322c 3230 2c2c 2c2c 2c2c 2c2c 2c31  | b',32,20,,,,,,,,,1' |
032: 2e30 312c 302e 3531 2c30 2e38 372c 342a  | b'.01,0.51,0.87,4*' |
048: 3039 0d0a                                | b'09\r\n' |
<NMEA(GPGSV, numMsg=3, msgNum=1, numSV=11, svid_01=2, elv_01=16.0, az_01=318, cno_01=32, svid_02=10, elv_02=85.0, az_02=262, cno_02=51, svid_03=12, elv_03=28.0, az_03=97, cno_03=41, svid_04=18, elv_04=4.0, az_04=183, cno_04=22, signalID=1)>000: 2447 5047 5356 2c33 2c31 2c31 312c 3032  | b'$GPGSV,3,1,11,02' |
016: 2c31 362c 3331 382c 3332 2c31 302c 3835  | b',16,318,32,10,85' |
032: 2c32 3632 2c35 312c 3132 2c32 382c 3039  | b',262,51,12,28,09' |
048: 372c 3431 2c31 382c 3034 2c31 3833 2c32  | b'7,41,18,04,183,2' |
064: 322c 312a 3633 0d0a                      | b'2,1*63\r\n' |
<NMEA(GPGSV, numMsg=3, msgNum=2, numSV=11, svid_01=21, elv_01=20.0, az_01=310, cno_01=32, svid_02=23, elv_02=51.0, az_02=142, cno_02=43, svid_03=24, elv_03=32.0, az_03=52, cno_03=42, svid_04=25, elv_04=22.0, az_04=142, cno_04=37, signalID=1)>000: 2447 5047 5356 2c33 2c32 2c31 312c 3231  | b'$GPGSV,3,2,11,21' |
016: 2c32 302c 3331 302c 3332 2c32 332c 3531  | b',20,310,32,23,51' |
032: 2c31 3432 2c34 332c 3234 2c33 322c 3035  | b',142,43,24,32,05' |
048: 322c 3432 2c32 352c 3232 2c31 3432 2c33  | b'2,42,25,22,142,3' |
064: 372c 312a 3630 0d0a                      | b'7,1*60\r\n' |
<NMEA(GPGSV, numMsg=3, msgNum=3, numSV=11, svid_01=28, elv_01=24.0, az_01=218, cno_01=38, svid_02=32, elv_02=50.0, az_02=286, cno_02=45, svid_03=44, elv_03=23.0, az_03=235, cno_03=34, signalID=1)>000: 2447 5047 5356 2c33 2c33 2c31 312c 3238  | b'$GPGSV,3,3,11,28' |
016: 2c32 342c 3231 382c 3338 2c33 322c 3530  | b',24,218,38,32,50' |
032: 2c32 3836 2c34 352c 3434 2c32 332c 3233  | b',286,45,44,23,23' |
048: 352c 3334 2c31 2a35 330d 0a              | b'5,34,1*53\r\n' |
<NMEA(GPGSV, numMsg=2, msgNum=1, numSV=8, svid_01=10, elv_01=85.0, az_01=262, cno_01=38, svid_02=12, elv_02=28.0, az_02=97, cno_02=25, svid_03=18, elv_03=4.0, az_03=183, cno_03=19, svid_04=23, elv_04=51.0, az_04=142, cno_04=30, signalID=6)>000: 2447 5047 5356 2c32 2c31 2c30 382c 3130  | b'$GPGSV,2,1,08,10' |
016: 2c38 352c 3236 322c 3338 2c31 322c 3238  | b',85,262,38,12,28' |
032: 2c30 3937 2c32 352c 3138 2c30 342c 3138  | b',097,25,18,04,18' |
048: 332c 3139 2c32 332c 3531 2c31 3432 2c33  | b'3,19,23,51,142,3' |
064: 302c 362a 3637 0d0a                      | b'0,6*67\r\n' |
<NMEA(GPGSV, numMsg=2, msgNum=2, numSV=8, svid_01=24, elv_01=32.0, az_01=52, cno_01=31, svid_02=25, elv_02=22.0, az_02=142, cno_02=26, svid_03=28, elv_03=24.0, az_03=218, cno_03=26, svid_04=32, elv_04=50.0, az_04=286, cno_04=36, signalID=6)>000: 2447 5047 5356 2c32 2c32 2c30 382c 3234  | b'$GPGSV,2,2,08,24' |
016: 2c33 322c 3035 322c 3331 2c32 352c 3232  | b',32,052,31,25,22' |
032: 2c31 3432 2c32 362c 3238 2c32 342c 3231  | b',142,26,28,24,21' |
048: 382c 3236 2c33 322c 3530 2c32 3836 2c33  | b'8,26,32,50,286,3' |
064: 362c 362a 3633 0d0a                      | b'6,6*63\r\n' |
<NMEA(GPGSV, numMsg=1, msgNum=1, numSV=2, svid_01=15, elv_01=5.0, az_01=90, cno_01=, svid_02=46, elv_02=15.0, az_02=246, cno_02=, signalID=0)>000: 2447 5047 5356 2c31 2c31 2c30 322c 3135  | b'$GPGSV,1,1,02,15' |
016: 2c30 352c 3039 302c 2c34 362c 3135 2c32  | b',05,090,,46,15,2' |
032: 3436 2c2c 302a 3639 0d0a                 | b'46,,0*69\r\n' |
<NMEA(GLGSV, numMsg=3, msgNum=1, numSV=9, svid_01=70, elv_01=50.0, az_01=76, cno_01=35, svid_02=71, elv_02=57.0, az_02=334, cno_02=48, svid_03=72, elv_03=16.0, az_03=299, cno_03=29, svid_04=73, elv_04=47.0, az_04=150, cno_04=38, signalID=1)>000: 2447 4c47 5356 2c33 2c31 2c30 392c 3730  | b'$GLGSV,3,1,09,70' |
016: 2c35 302c 3037 362c 3335 2c37 312c 3537  | b',50,076,35,71,57' |
032: 2c33 3334 2c34 382c 3732 2c31 362c 3239  | b',334,48,72,16,29' |
048: 392c 3239 2c37 332c 3437 2c31 3530 2c33  | b'9,29,73,47,150,3' |
064: 382c 312a 3739 0d0a                      | b'8,1*79\r\n' |
<NMEA(GLGSV, numMsg=3, msgNum=2, numSV=9, svid_01=74, elv_01=11.0, az_01=181, cno_01=23, svid_02=79, elv_02=5.0, az_02=22, cno_02=25, svid_03=80, elv_03=47.0, az_03=56, cno_03=44, svid_04=86, elv_04=22.0, az_04=252, cno_04=36, signalID=1)>000: 2447 4c47 5356 2c33 2c32 2c30 392c 3734  | b'$GLGSV,3,2,09,74' |
016: 2c31 312c 3138 312c 3233 2c37 392c 3035  | b',11,181,23,79,05' |
032: 2c30 3232 2c32 352c 3830 2c34 372c 3035  | b',022,25,80,47,05' |
048: 362c 3434 2c38 362c 3232 2c32 3532 2c33  | b'6,44,86,22,252,3' |
064: 362c 312a 3730 0d0a                      | b'6,1*70\r\n' |
<NMEA(GLGSV, numMsg=3, msgNum=3, numSV=9, svid_01=87, elv_01=24.0, az_01=311, cno_01=29, signalID=1)>000: 2447 4c47 5356 2c33 2c33 2c30 392c 3837  | b'$GLGSV,3,3,09,87' |
016: 2c32 342c 3331 312c 3239 2c31 2a34 300d  | b',24,311,29,1*40\r' |
032: 0a                                       | b'\n' |
<NMEA(GLGSV, numMsg=1, msgNum=1, numSV=3, svid_01=71, elv_01=57.0, az_01=334, cno_01=31, svid_02=73, elv_02=47.0, az_02=150, cno_02=27, svid_03=80, elv_03=47.0, az_03=56, cno_03=34, signalID=3)>000: 2447 4c47 5356 2c31 2c31 2c30 332c 3731  | b'$GLGSV,1,1,03,71' |
016: 2c35 372c 3333 342c 3331 2c37 332c 3437  | b',57,334,31,73,47' |
032: 2c31 3530 2c32 372c 3830 2c34 372c 3035  | b',150,27,80,47,05' |
048: 362c 3334 2c33 2a34 320d 0a              | b'6,34,3*42\r\n' |
<NMEA(GLGSV, numMsg=1, msgNum=1, numSV=1, svid_01=88, elv_01=1.0, az_01=355, cno_01=, signalID=0)>000: 2447 4c47 5356 2c31 2c31 2c30 312c 3838  | b'$GLGSV,1,1,01,88' |
016: 2c30 312c 3335 352c 2c30 2a34 410d 0a    | b',01,355,,0*4A\r\n' |
<NMEA(GAGSV, numMsg=2, msgNum=1, numSV=8, svid_01=3, elv_01=9.0, az_01=272, cno_01=24, svid_02=5, elv_02=58.0, az_02=291, cno_02=40, svid_03=9, elv_03=58.0, az_03=62, cno_03=39, svid_04=15, elv_04=17.0, az_04=323, cno_04=19, signalID=2)>000: 2447 4147 5356 2c32 2c31 2c30 382c 3033  | b'$GAGSV,2,1,08,03' |
016: 2c30 392c 3237 322c 3234 2c30 352c 3538  | b',09,272,24,05,58' |
032: 2c32 3931 2c34 302c 3039 2c35 382c 3036  | b',291,40,09,58,06' |
048: 322c 3339 2c31 352c 3137 2c33 3233 2c31  | b'2,39,15,17,323,1' |
064: 392c 322a 3732 0d0a                      | b'9,2*72\r\n' |
<NMEA(GAGSV, numMsg=2, msgNum=2, numSV=8, svid_01=24, elv_01=21.0, az_01=146, cno_01=30, svid_02=31, elv_02=34.0, az_02=90, cno_02=32, svid_03=34, elv_03=39.0, az_03=270, cno_03=35, svid_04=36, elv_04=25.0, az_04=210, cno_04=27, signalID=2)>000: 2447 4147 5356 2c32 2c32 2c30 382c 3234  | b'$GAGSV,2,2,08,24' |
016: 2c32 312c 3134 362c 3330 2c33 312c 3334  | b',21,146,30,31,34' |
032: 2c30 3930 2c33 322c 3334 2c33 392c 3237  | b',090,32,34,39,27' |
048: 302c 3335 2c33 362c 3235 2c32 3130 2c32  | b'0,35,36,25,210,2' |
064: 372c 322a 3743 0d0a                      | b'7,2*7C\r\n' |
<NMEA(GAGSV, numMsg=2, msgNum=1, numSV=7, svid_01=5, elv_01=58.0, az_01=291, cno_01=42, svid_02=9, elv_02=58.0, az_02=62, cno_02=48, svid_03=15, elv_03=17.0, az_03=323, cno_03=33, svid_04=24, elv_04=21.0, az_04=146, cno_04=27, signalID=7)>000: 2447 4147 5356 2c32 2c31 2c30 372c 3035  | b'$GAGSV,2,1,07,05' |
016: 2c35 382c 3239 312c 3432 2c30 392c 3538  | b',58,291,42,09,58' |
032: 2c30 3632 2c34 382c 3135 2c31 372c 3332  | b',062,48,15,17,32' |
048: 332c 3333 2c32 342c 3231 2c31 3436 2c32  | b'3,33,24,21,146,2' |
064: 372c 372a 3743 0d0a                      | b'7,7*7C\r\n' |
<NMEA(GAGSV, numMsg=2, msgNum=2, numSV=7, svid_01=31, elv_01=34.0, az_01=90, cno_01=38, svid_02=34, elv_02=39.0, az_02=270, cno_02=39, svid_03=36, elv_03=25.0, az_03=210, cno_03=34, signalID=7)>000: 2447 4147 5356 2c32 2c32 2c30 372c 3331  | b'$GAGSV,2,2,07,31' |
016: 2c33 342c 3039 302c 3338 2c33 342c 3339  | b',34,090,38,34,39' |
032: 2c32 3730 2c33 392c 3336 2c32 352c 3231  | b',270,39,36,25,21' |
048: 302c 3334 2c37 2a34 370d 0a              | b'0,34,7*47\r\n' |
<NMEA(GAGSV, numMsg=1, msgNum=1, numSV=1, svid_01=4, elv_01=10.0, az_01=83, cno_01=, signalID=0)>000: 2447 4147 5356 2c31 2c31 2c30 312c 3034  | b'$GAGSV,1,1,01,04' |
016: 2c31 302c 3038 332c 2c30 2a34 420d 0a    | b',10,083,,0*4B\r\n' |
<NMEA(GBGSV, numMsg=2, msgNum=1, numSV=6, svid_01=20, elv_01=76.0, az_01=336, cno_01=49, svid_02=23, elv_02=31.0, az_02=52, cno_02=44, svid_03=29, elv_03=7.0, az_03=248, cno_03=25, svid_04=32, elv_04=40.0, az_04=106, cno_04=39, signalID=1)>000: 2447 4247 5356 2c32 2c31 2c30 362c 3230  | b'$GBGSV,2,1,06,20' |
016: 2c37 362c 3333 362c 3439 2c32 332c 3331  | b',76,336,49,23,31' |
032: 2c30 3532 2c34 342c 3239 2c30 372c 3234  | b',052,44,29,07,24' |
048: 382c 3235 2c33 322c 3430 2c31 3036 2c33  | b'8,25,32,40,106,3' |
064: 392c 312a 3732 0d0a                      | b'9,1*72\r\n' |
<NMEA(GBGSV, numMsg=2, msgNum=2, numSV=6, svid_01=35, elv_01=10.0, az_01=301, cno_01=20, svid_02=37, elv_02=59.0, az_02=125, cno_02=47, signalID=1)>000: 2447 4247 5356 2c32 2c32 2c30 362c 3335  | b'$GBGSV,2,2,06,35' |
016: 2c31 302c 3330 312c 3230 2c33 372c 3539  | b',10,301,20,37,59' |
032: 2c31 3235 2c34 372c 312a 3741 0d0a       | b',125,47,1*7A\r\n' |
<NMEA(GBGSV, numMsg=1, msgNum=1, numSV=1, svid_01=19, elv_01=27.0, az_01=300, cno_01=, signalID=0)>000: 2447 4247 5356 2c31 2c31 2c30 312c 3139  | b'$GBGSV,1,1,01,19' |
016: 2c32 372c 3330 302c 2c30 2a34 380d 0a    | b',27,300,,0*48\r\n' |
<NMEA(GNGLL, lat=43.88278669, NS=N, lon=-72.1581892417, EW=W, time=20:16:17.250000, status=A, posMode=D)>000: 2447 4e47 4c4c 2c34 3335 322e 3936 3732  | b'$GNGLL,4352.9672' |
016: 3031 342c 4e2c 3037 3230 392e 3439 3133  | b'014,N,07209.4913' |
032: 3534 352c 572c 3230 3136 3137 2e32 352c  | b'545,W,201617.25,' |
048: 412c 442a 3643 0d0a                      | b'A,D*6C\r\n' |
<NMEA(GNRMC, time=20:16:17.500000, status=A, lat=43.8827864217, NS=N, lon=-72.1581889483, EW=W, spd=0.297, cog=7.79, date=2023-09-05, mv=, mvEW=, posMode=D, navStatus=V)>000: 2447 4e52 4d43 2c32 3031 3631 372e 3530  | b'$GNRMC,201617.50' |
016: 2c41 2c34 3335 322e 3936 3731 3835 332c  | b',A,4352.9671853,' |
032: 4e2c 3037 3230 392e 3439 3133 3336 392c  | b'N,07209.4913369,' |
048: 572c 302e 3239 372c 372e 3739 2c30 3530  | b'W,0.297,7.79,050' |
064: 3932 332c 2c2c 442c 562a 3142 0d0a       | b'923,,,D,V*1B\r\n' |
