<NMEA(GPGSV, numMsg=3, msgNum=1, numSV=12, svid_01=2, elv_01=16.0, az_01=319, cno_01=31, svid_02=10, elv_02=84.0, az_02=272, cno_02=51, svid_03=12, elv_03=28.0, az_03=98, cno_03=37, svid_04=18, elv_04=5.0, az_04=184, cno_04=19, signalID=1)>000: 2447 5047 5356 2c33 2c31 2c31 322c 3032  | b'$GPGSV,3,1,12,02' |
016: 2c31 362c 3331 392c 3331 2c31 302c 3834  | b',16,319,31,10,84' |
032: 2c32 3732 2c35 312c 3132 2c32 382c 3039  | b',272,51,12,28,09' |
048: 382c 3337 2c31 382c 3035 2c31 3834 2c31  | b'8,37,18,05,184,1' |
064: 392c 312a 3632 0d0a                      | b'9,1*62\r\n' |
<NMEA(GPGSV, numMsg=3, msgNum=2, numSV=12, svid_01=21, elv_01=20.0, az_01=311, cno_01=37, svid_02=23, elv_02=52.0, az_02=141, cno_02=49, svid_03=24, elv_03=33.0, az_03=53, cno_03=28, svid_04=25, elv_04=21.0, az_04=143, cno_04=34, signalID=1)>000: 2447 5047 5356 2c33 2c32 2c31 322c 3231  | b'$GPGSV,3,2,12,21' |
016: 2c32 302c 3331 312c 3337 2c32 332c 3532  | b',20,311,37,23,52' |
032: 2c31 3431 2c34 392c 3234 2c33 332c 3035  | b',141,49,24,33,05' |
048: 332c 3238 2c32 352c 3231 2c31 3433 2c33  | b'3,28,25,21,143,3' |
064: 342c 312a 3630 0d0a                      | b'4,1*60\r\n' |
<NMEA(GPGSV, numMsg=3, msgNum=3, numSV=12, svid_01=28, elv_01=23.0, az_01=218, cno_01=37, svid_02=32, elv_02=50.0, az_02=285, cno_02=48, svid_03=44, elv_03=23.0, az_03=235, cno_03=39, svid_04=46, elv_04=15.0, az_04=246, cno_04=34, signalID=1)>000: 2447 5047 5356 2c33 2c33 2c31 322c 3238  | b'$GPGSV,3,3,12,28' |
016: 2c32 332c 3231 382c 3337 2c33 322c 3530  | b',23,218,37,32,50' |
032: 2c32 3835 2c34 382c 3434 2c32 332c 3233  | b',285,48,44,23,23' |
048: 352c 3339 2c34 362c 3135 2c32 3436 2c33  | b'5,39,46,15,246,3' |
064: 342c 312a 3641 0d0a                      | b'4,1*6A\r\n' |
<NMEA(GPGSV, numMsg=2, msgNum=1, numSV=8, svid_01=10, elv_01=84.0, az_01=272, cno_01=39, svid_02=12, elv_02=28.0, az_02=98, cno_02=24, svid_03=18, elv_03=5.0, az_03=184, cno_03=13, svid_04=23, elv_04=52.0, az_04=141, cno_04=33, signalID=6)>000: 2447 5047 5356 2c32 2c31 2c30 382c 3130  | b'$GPGSV,2,1,08,10' |
016: 2c38 342c 3237 322c 3339 2c31 322c 3238  | b',84,272,39,12,28' |
032: 2c30 3938 2c32 342c 3138 2c30 352c 3138  | b',098,24,18,05,18' |
048: 342c 3133 2c32 332c 3532 2c31 3431 2c33  | b'4,13,23,52,141,3' |
064: 332c 362a 3637 0d0a                      | b'3,6*67\r\n' |
<NMEA(GPGSV, numMsg=2, msgNum=2, numSV=8, svid_01=24, elv_01=33.0, az_01=53, cno_01=27, svid_02=25, elv_02=21.0, az_02=143, cno_02=30, svid_03=28, elv_03=23.0, az_03=218, cno_03=21, svid_04=32, elv_04=50.0, az_04=285, cno_04=34, signalID=6)>000: 2447 5047 5356 2c32 2c32 2c30 382c 3234  | b'$GPGSV,2,2,08,24' |
016: 2c33 332c 3035 332c 3237 2c32 352c 3231  | b',33,053,27,25,21' |
032: 2c31 3433 2c33 302c 3238 2c32 332c 3231  | b',143,30,28,23,21' |
048: 382c 3231 2c33 322c 3530 2c32 3835 2c33  | b'8,21,32,50,285,3' |
064: 342c 362a 3630 0d0a                      | b'4,6*60\r\n' |
<NMEA(GPGSV, numMsg=1, msgNum=1, numSV=1, svid_01=15, elv_01=6.0, az_01=90, cno_01=, signalID=0)>000: 2447 5047 5356 2c31 2c31 2c30 312c 3135  | b'$GPGSV,1,1,01,15' |
016: 2c30 362c 3039 302c 2c30 2a35 460d 0a    | b',06,090,,0*5F\r\n' |
<NMEA(GLGSV, numMsg=2, msgNum=1, numSV=8, svid_01=70, elv_01=51.0, az_01=75, cno_01=37, svid_02=71, elv_02=56.0, az_02=333, cno_02=48, svid_03=72, elv_03=15.0, az_03=299, cno_03=25, svid_04=73, elv_04=46.0, az_04=150, cno_04=43, signalID=1)>000: 2447 4c47 5356 2c32 2c31 2c30 382c 3730  | b'$GLGSV,2,1,08,70' |
016: 2c35 312c 3037 352c 3337 2c37 312c 3536  | b',51,075,37,71,56' |
032: 2c33 3333 2c34 382c 3732 2c31 352c 3239  | b',333,48,72,15,29' |
048: 392c 3235 2c37 332c 3436 2c31 3530 2c34  | b'9,25,73,46,150,4' |
064: 332c 312a 3744 0d0a                      | b'3,1*7D\r\n' |
<NMEA(GLGSV, numMsg=2, msgNum=2, numSV=8, svid_01=79, elv_01=6.0, az_01=22, cno_01=22, svid_02=80, elv_02=48.0, az_02=58, cno_02=46, svid_03=86, elv_03=23.0, az_03=253, cno_03=39, svid_04=87, elv_04=24.0, az_04=312, cno_04=39, signalID=1)>000: 2447 4c47 5356 2c32 2c32 2c30 382c 3739  | b'$GLGSV,2,2,08,79' |
016: 2c30 362c 3032 322c 3232 2c38 302c 3438  | b',06,022,22,80,48' |
032: 2c30 3538 2c34 362c 3836 2c32 332c 3235  | b',058,46,86,23,25' |
048: 332c 3339 2c38 372c 3234 2c33 3132 2c33  | b'3,39,87,24,312,3' |
064: 392c 312a 3731 0d0a                      | b'9,1*71\r\n' |
<NMEA(GLGSV, numMsg=1, msgNum=1, numSV=4, svid_01=71, elv_01=56.0, az_01=333, cno_01=28, svid_02=73, elv_02=46.0, az_02=150, cno_02=28, svid_03=80, elv_03=48.0, az_03=58, cno_03=33, svid_04=85, elv_04=0.0, az_04=214, cno_04=7, signalID=3)>000: 2447 4c47 5356 2c31 2c31 2c30 342c 3731  | b'$GLGSV,1,1,04,71' |
016: 2c35 362c 3333 332c 3238 2c37 332c 3436  | b',56,333,28,73,46' |
032: 2c31 3530 2c32 382c 3830 2c34 382c 3035  | b',150,28,80,48,05' |
048: 382c 3333 2c38 352c 3030 2c32 3134 2c30  | b'8,33,85,00,214,0' |
064: 372c 332a 3745 0d0a                      | b'7,3*7E\r\n' |
<NMEA(GLGSV, numMsg=1, msgNum=1, numSV=2, svid_01=74, elv_01=10.0, az_01=181, cno_01=, svid_02=88, elv_02=0.0, az_02=356, cno_02=, signalID=0)>000: 2447 4c47 5356 2c31 2c31 2c30 322c 3734  | b'$GLGSV,1,1,02,74' |
016: 2c31 302c 3138 312c 2c38 382c 3030 2c33  | b',10,181,,88,00,3' |
032: 3536 2c2c 302a 3731 0d0a                 | b'56,,0*71\r\n' |
<NMEA(GAGSV, numMsg=3, msgNum=1, numSV=9, svid_01=3, elv_01=8.0, az_01=271, cno_01=19, svid_02=4, elv_02=11.0, az_02=82, cno_02=24, svid_03=5, elv_03=57.0, az_03=291, cno_03=38, svid_04=9, elv_04=59.0, az_04=61, cno_04=38, signalID=2)>000: 2447 4147 5356 2c33 2c31 2c30 392c 3033  | b'$GAGSV,3,1,09,03' |
016: 2c30 382c 3237 312c 3139 2c30 342c 3131  | b',08,271,19,04,11' |
032: 2c30 3832 2c32 342c 3035 2c35 372c 3239  | b',082,24,05,57,29' |
048: 312c 3338 2c30 392c 3539 2c30 3631 2c33  | b'1,38,09,59,061,3' |
064: 382c 322a 3744 0d0a                      | b'8,2*7D\r\n' |
<NMEA(GAGSV, numMsg=3, msgNum=2, numSV=9, svid_01=15, elv_01=16.0, az_01=323, cno_01=18, svid_02=24, elv_02=21.0, az_02=146, cno_02=30, svid_03=31, elv_03=33.0, az_03=92, cno_03=30, svid_04=34, elv_04=40.0, az_04=271, cno_04=35, signalID=2)>000: 2447 4147 5356 2c33 2c32 2c30 392c 3135  | b'$GAGSV,3,2,09,15' |
016: 2c31 362c 3332 332c 3138 2c32 342c 3231  | b',16,323,18,24,21' |
032: 2c31 3436 2c33 302c 3331 2c33 332c 3039  | b',146,30,31,33,09' |
048: 322c 3330 2c33 342c 3430 2c32 3731 2c33  | b'2,30,34,40,271,3' |
064: 352c 322a 3738 0d0a                      | b'5,2*78\r\n' |
<NMEA(GAGSV, numMsg=3, msgNum=3, numSV=9, svid_01=36, elv_01=26.0, az_01=210, cno_01=32, signalID=2)>000: 2447 4147 5356 2c33 2c33 2c30 392c 3336  | b'$GAGSV,3,3,09,36' |
016: 2c32 362c 3231 302c 3332 2c32 2a34 430d  | b',26,210,32,2*4C\r' |
032: 0a                                       | b'\n' |
<NMEA(GAGSV, numMsg=2, msgNum=1, numSV=8, svid_01=3, elv_01=8.0, az_01=271, cno_01=21, svid_02=5, elv_02=57.0, az_02=291, cno_02=47, svid_03=9, elv_03=59.0, az_03=61, cno_03=46, svid_04=15, elv_04=16.0, az_04=323, cno_04=32, signalID=7)>000: 2447 4147 5356 2c32 2c31 2c30 382c 3033  | b'$GAGSV,2,1,08,03' |
016: 2c30 382c 3237 312c 3231 2c30 352c 3537  | b',08,271,21,05,57' |
032: 2c32 3931 2c34 372c 3039 2c35 392c 3036  | b',291,47,09,59,06' |
048: 312c 3436 2c31 352c 3136 2c33 3233 2c33  | b'1,46,15,16,323,3' |
064: 322c 372a 3741 0d0a                      | b'2,7*7A\r\n' |
<NMEA(GAGSV, numMsg=2, msgNum=2, numSV=8, svid_01=24, elv_01=21.0, az_01=146, cno_01=36, svid_02=31, elv_02=33.0, az_02=92, cno_02=40, svid_03=34, elv_03=40.0, az_03=271, cno_03=40, svid_04=36, elv_04=26.0, az_04=210, cno_04=25, signalID=7)>000: 2447 4147 5356 2c32 2c32 2c30 382c 3234  | b'$GAGSV,2,2,08,24' |
016: 2c32 312c 3134 362c 3336 2c33 312c 3333  | b',21,146,36,31,33' |
032: 2c30 3932 2c34 302c 3334 2c34 302c 3237  | b',092,40,34,40,27' |
048: 312c 3430 2c33 362c 3236 2c32 3130 2c32  | b'1,40,36,26,210,2' |
064: 352c 372a 3733 0d0a                      | b'5,7*73\r\n' |
<NMEA(GBGSV, numMsg=2, msgNum=1, numSV=6, svid_01=19, elv_01=27.0, az_01=300, cno_01=42, svid_02=20, elv_02=75.0, az_02=334, cno_02=51, svid_03=29, elv_03=8.0, az_03=249, cno_03=21, svid_04=32, elv_04=41.0, az_04=105, cno_04=48, signalID=1)>000: 2447 4247 5356 2c32 2c31 2c30 362c 3139  | b'$GBGSV,2,1,06,19' |
016: 2c32 372c 3330 302c 3432 2c32 302c 3735  | b',27,300,42,20,75' |
032: 2c33 3334 2c35 312c 3239 2c30 382c 3234  | b',334,51,29,08,24' |
048: 392c 3231 2c33 322c 3431 2c31 3035 2c34  | b'9,21,32,41,105,4' |
064: 382c 312a 3738 0d0a                      | b'8,1*78\r\n' |
<NMEA(GBGSV, numMsg=2, msgNum=2, numSV=6, svid_01=35, elv_01=10.0, az_01=302, cno_01=21, svid_02=37, elv_02=58.0, az_02=126, cno_02=50, signalID=1)>000: 2447 4247 5356 2c32 2c32 2c30 362c 3335  | b'$GBGSV,2,2,06,35' |
016: 2c31 302c 3330 322c 3231 2c33 372c 3538  | b',10,302,21,37,58' |
032: 2c31 3236 2c35 302c 312a 3743 0d0a       | b',126,50,1*7C\r\n' |
<NMEA(GBGSV, numMsg=1, msgNum=1, numSV=1, svid_01=23, elv_01=32.0, az_01=52, cno_01=8, signalID=3)>000: 2447 4247 5356 2c31 2c31 2c30 312c 3233  | b'$GBGSV,1,1,01,23' |
016: 2c33 322c 3035 322c 3038 2c33 2a34 410d  | b',32,052,08,3*4A\r' |
032: 0a                                       | b'\n' |
<NMEA(GNGLL, lat=43.882651995, NS=N, lon=-72.157842075, EW=W, time=20:14:12.750000, status=A, posMode=D)>000: 2447 4e47 4c4c 2c34 3335 322e 3935 3931  | b'$GNGLL,4352.9591' |
016: 3139 372c 4e2c 3037 3230 392e 3437 3035  | b'197,N,07209.4705' |
032: 3234 352c 572c 3230 3134 3132 2e37 352c  | b'245,W,201412.75,' |
048: 412c 442a 3634 0d0a                      | b'A,D*64\r\n' |
<NMEA(GNRMC, time=20:14:13, status=A, lat=43.88265199, NS=N, lon=-72.1578420717, EW=W, spd=0.016, cog=, date=2023-09-05, mv=, mvEW=, posMode=R, navStatus=V)>000: 2447 4e52 4d43 2c32 3031 3431 332e 3030  | b'$GNRMC,201413.00' |
016: 2c41 2c34 3335 322e 3935 3931 3139 342c  | b',A,4352.9591194,' |
032: 4e2c 3037 3230 392e 3437 3035 3234 332c  | b'N,07209.4705243,' |
048: 572c 302e 3031 362c 2c30 3530 3932 332c  | b'W,0.016,,050923,' |
064: 2c2c 522c 562a 3144 0d0a                 | b',,R,V*1D\r\n' |
<NMEA(GNVTG, cogt=, cogtUnit=T, cogm=, cogmUnit=M, sogn=0.016, sognUnit=N, sogk=0.03, sogkUnit=K, posMode=D)>000: 2447 4e56 5447 2c2c 542c 2c4d 2c30 2e30  | b'$GNVTG,,T,,M,0.0' |
016: 3136 2c4e 2c30 2e30 3330 2c4b 2c44 2a33  | b'16,N,0.030,K,D*3' |
032: 430d 0a                                  | b'C\r\n' |
<NMEA(GNGGA, time=20:14:13, lat=43.88265199, NS=N, lon=-72.1578420717, EW=W, quality=4, numSV=12, HDOP=0.62, alt=141.376, altUnit=M, sep=-32.547, sepUnit=M, diffAge=, diffStation=0)>000: 2447 4e47 4741 2c32 3031 3431 332e 3030  | b'$GNGGA,201413.00' |
016: 2c34 3335 322e 3935 3931 3139 342c 4e2c  | b',4352.9591194,N,' |
032: 3037 3230 392e 3437 3035 3234 332c 572c  | b'07209.4705243,W,' |
048: 342c 3132 2c30 2e36 322c 3134 312e 3337  | b'4,12,0.62,141.37' |
064: 362c 4d2c 2d33 322e 3534 372c 4d2c 2c30  | b'6,M,-32.547,M,,0' |
080: 3030 302a 3743 0d0a                      | b'000*7C\r\n' |
<NMEA(GNGSA, opMode=A, navMode=3, svid_01=44, svid_02=25, svid_03=28, svid_04=21, svid_05=24, svid_06=46, svid_07=10, svid_08=2, svid_09=12, svid_10=23, svid_11=32, svid_12=, PDOP=1.19, HDOP=0.62, VDOP=1.01, systemId=1)>000: 2447 4e47 5341 2c41 2c33 2c34 342c 3235  | b'$GNGSA,A,3,44,25' |
016: 2c32 382c 3231 2c32 342c 3436 2c31 302c  | b',28,21,24,46,10,' |
032: 3032 2c31 322c 3233 2c33 322c 2c31 2e31  | b'02,12,23,32,,1.1' |
048: 392c 302e 3632 2c31 2e30 312c 312a 3036  | b'9,0.62,1.01,1*06' |
064: 0d0a                                     | b'\r\n' |
<NMEA(GNGSA, opMode=A, navMode=3, svid_01=87, svid_02=80, svid_03=70, svid_04=71, svid_05=72, svid_06=73, svid_07=, svid_08=, svid_09=, svid_10=, svid_11=, svid_12=, PDOP=1.19, HDOP=0.62, VDOP=1.01, systemId=2)>000: 2447 4e47 5341 2c41 2c33 2c38 372c 3830  | b'$GNGSA,A,3,87,80' |
016: 2c37 302c 3731 2c37 322c 3733 2c2c 2c2c  | b',70,71,72,73,,,,' |
032: 2c2c 2c31 2e31 392c 302e 3632 2c31 2e30  | b',,,1.19,0.62,1.0' |
048: 312c 322a 3038 0d0a                      | b'1,2*08\r\n' |
<NMEA(GNGSA, opMode=A, navMode=3, svid_01=36, svid_02=15, svid_03=5, svid_04=31, svid_05=34, svid_06=9, svid_07=24, svid_08=, svid_09=, svid_10=, svid_11=, svid_12=, PDOP=1.19, HDOP=0.62, VDOP=1.01, systemId=3)>000: 2447 4e47 5341 2c41 2c33 2c33 362c 3135  | b'$GNGSA,A,3,36,15' |
016: 2c30 352c 3331 2c33 342c 3039 2c32 342c  | b',05,31,34,09,24,' |
032: 2c2c 2c2c 2c31 2e31 392c 302e 3632 2c31  | b',,,,,1.19,0.62,1' |
048: 2e30 312c 332a 3030 0d0a                 | b'.01,3*00\r\n' |
<NMEA(GNGSA, opMode=A, navMode=3, svid_01=37, svid_02=19, svid_03=32, svid_04=20, svid_05=, svid_06=, svid_07=, svid_08=, svid_09=, svid_10=, svid_11=, svid_12=, PDOP=1.19, HDOP=0.62, VDOP=1.01, systemId=4)>000: 2447 4e47 5341 2c41 2c33 2c33 372c 3139  | b'$GNGSA,A,3,37,19' |
016: 2c33 322c 3230 2c2c 2c2c 2c2c 2c2c 2c31  | b',32,20,,,,,,,,,1' |
032: 2e31 392c 302e 3632 2c31 2e30 312c 342a  | b'.19,0.62,1.01,4*' |
048: 3036 0d0a                                | b'06\r\n' |
<NMEA(GPGSV, numMsg=3, msgNum=1, numSV=12, svid_01=2, elv_01=16.0, az_01=319, cno_01=30, svid_02=10, elv_02=84.0, az_02=272, cno_02=51, svid_03=12, elv_03=28.0, az_03=98, cno_03=36, svid_04=18, elv_04=5.0, az_04=184, cno_04=18, signalID=1)>000: 2447 5047 5356 2c33 2c31 2c31 322c 3032  | b'$GPGSV,3,1,12,02' |
016: 2c31 362c 3331 392c 3330 2c31 302c 3834  | b',16,319,30,10,84' |
032: 2c32 3732 2c35 312c 3132 2c32 382c 3039  | b',272,51,12,28,09' |
048: 382c 3336 2c31 382c 3035 2c31 3834 2c31  | b'8,36,18,05,184,1' |
064: 382c 312a 3633 0d0a                      | b'8,1*63\r\n' |
<NMEA(GPGSV, numMsg=3, msgNum=2, numSV=12, svid_01=21, elv_01=20.0, az_01=311, cno_01=37, svid_02=23, elv_02=52.0, az_02=141, cno_02=49, svid_03=24, elv_03=33.0, az_03=53, cno_03=28, svid_04=25, elv_04=21.0, az_04=143, cno_04=34, signalID=1)>000: 2447 5047 5356 2c33 2c32 2c31 322c 3231  | b'$GPGSV,3,2,12,21' |
016: 2c32 302c 3331 312c 3337 2c32 332c 3532  | b',20,311,37,23,52' |
032: 2c31 3431 2c34 392c 3234 2c33 332c 3035  | b',141,49,24,33,05' |
048: 332c 3238 2c32 352c 3231 2c31 3433 2c33  | b'3,28,25,21,143,3' |
064: 342c 312a 3630 0d0a                      | b'4,1*60\r\n' |
<NMEA(GPGSV, numMsg=3, msgNum=3, numSV=12, svid_01=28, elv_01=23.0, az_01=218, cno_01=37, svid_02=32, elv_02=50.0, az_02=285, cno_02=48, svid_03=44, elv_03=23.0, az_03=235, cno_03=39, svid_04=46, elv_04=15.0, az_04=246, cno_04=34, signalID=1)>000: 2447 5047 5356 2c33 2c33 2c31 322c 3238  | b'$GPGSV,3,3,12,28' |
016: 2c32 332c 3231 382c 3337 2c33 322c 3530  | b',23,218,37,32,50' |
032: 2c32 3835 2c34 382c 3434 2c32 332c 3233  | b',285,48,44,23,23' |
048: 352c 3339 2c34 362c 3135 2c32 3436 2c33  | b'5,39,46,15,246,3' |
064: 342c 312a 3641 0d0a                      | b'4,1*6A\r\n' |
<NMEA(GPGSV, numMsg=2, msgNum=1, numSV=8, svid_01=10, elv_01=84.0, az_01=272, cno_01=39, svid_02=12, elv_02=28.0, az_02=98, cno_02=25, svid_03=18, elv_03=5.0, az_03=184, cno_03=13, svid_04=23, elv_04=52.0, az_04=141, cno_04=33, signalID=6)>000: 2447 5047 5356 2c32 2c31 2c30 382c 3130  | b'$GPGSV,2,1,08,10' |
016: 2c38 342c 3237 322c 3339 2c31 322c 3238  | b',84,272,39,12,28' |
032: 2c30 3938 2c32 352c 3138 2c30 352c 3138  | b',098,25,18,05,18' |
048: 342c 3133 2c32 332c 3532 2c31 3431 2c33  | b'4,13,23,52,141,3' |
064: 332c 362a 3636 0d0a                      | b'3,6*66\r\n' |
<NMEA(GPGSV, numMsg=2, msgNum=2, numSV=8, svid_01=24, elv_01=33.0, az_01=53, cno_01=27, svid_02=25, elv_02=21.0, az_02=143, cno_02=30, svid_03=28, elv_03=23.0, az_03=218, cno_03=21, svid_04=32, elv_04=50.0, az_04=285, cno_04=34, signalID=6)>000: 2447 5047 5356 2c32 2c32 2c30 382c 3234  | b'$GPGSV,2,2,08,24' |
016: 2c33 332c 3035 332c 3237 2c32 352c 3231  | b',33,053,27,25,21' |
032: 2c31 3433 2c33 302c 3238 2c32 332c 3231  | b',143,30,28,23,21' |
048: 382c 3231 2c33 322c 3530 2c32 3835 2c33  | b'8,21,32,50,285,3' |
064: 342c 362a 3630 0d0a                      | b'4,6*60\r\n' |
<NMEA(GPGSV, numMsg=1, msgNum=1, numSV=1, svid_01=15, elv_01=6.0, az_01=90, cno_01=, signalID=0)>000: 2447 5047 5356 2c31 2c31 2c30 312c 3135  | b'$GPGSV,1,1,01,15' |
016: 2c30 362c 3039 302c 2c30 2a35 460d 0a    | b',06,090,,0*5F\r\n' |
<NMEA(GLGSV, numMsg=2, msgNum=1, numSV=8, svid_01=70, elv_01=51.0, az_01=75, cno_01=37, svid_02=71, elv_02=56.0, az_02=333, cno_02=48, svid_03=72, elv_03=15.0, az_03=299, cno_03=25, svid_04=73, elv_04=46.0, az_04=150, cno_04=44, signalID=1)>000: 2447 4c47 5356 2c32 2c31 2c30 382c 3730  | b'$GLGSV,2,1,08,70' |
016: 2c35 312c 3037 352c 3337 2c37 312c 3536  | b',51,075,37,71,56' |
032: 2c33 3333 2c34 382c 3732 2c31 352c 3239  | b',333,48,72,15,29' |
048: 392c 3235 2c37 332c 3436 2c31 3530 2c34  | b'9,25,73,46,150,4' |
064: 342c 312a 3741 0d0a                      | b'4,1*7A\r\n' |
<NMEA(GLGSV, numMsg=2, msgNum=2, numSV=8, svid_01=79, elv_01=6.0, az_01=22, cno_01=22, svid_02=80, elv_02=48.0, az_02=58, cno_02=46, svid_03=86, elv_03=23.0, az_03=253, cno_03=39, svid_04=87, elv_04=24.0, az_04=312, cno_04=39, signalID=1)>000: 2447 4c47 5356 2c32 2c32 2c30 382c 3739  | b'$GLGSV,2,2,08,79' |
016: 2c30 362c 3032 322c 3232 2c38 302c 3438  | b',06,022,22,80,48' |
032: 2c30 3538 2c34 362c 3836 2c32 332c 3235  | b',058,46,86,23,25' |
048: 332c 3339 2c38 372c 3234 2c33 3132 2c33  | b'3,39,87,24,312,3' |
064: 392c 312a 3731 0d0a                      | b'9,1*71\r\n' |
<NMEA(GLGSV, numMsg=1, msgNum=1, numSV=4, svid_01=71, elv_01=56.0, az_01=333, cno_01=28, svid_02=73, elv_02=46.0, az_02=150, cno_02=29, svid_03=80, elv_03=48.0, az_03=58, cno_03=33, svid_04=85, elv_04=0.0, az_04=214, cno_04=8, signalID=3)>000: 2447 4c47 5356 2c31 2c31 2c30 342c 3731  | b'$GLGSV,1,1,04,71' |
016: 2c35 362c 3333 332c 3238 2c37 332c 3436  | b',56,333,28,73,46' |
032: 2c31 3530 2c32 392c 3830 2c34 382c 3035  | b',150,29,80,48,05' |
048: 382c 3333 2c38 352c 3030 2c32 3134 2c30  | b'8,33,85,00,214,0' |
064: 382c 332a 3730 0d0a                      | b'8,3*70\r\n' |
<NMEA(GLGSV, numMsg=1, msgNum=1, numSV=2, svid_01=74, elv_01=10.0, az_01=181, cno_01=, svid_02=88, elv_02=0.0, az_02=356, cno_02=, signalID=0)>000: 2447 4c47 5356 2c31 2c31 2c30 322c 3734  | b'$GLGSV,1,1,02,74' |
016: 2c31 302c 3138 312c 2c38 382c 3030 2c33  | b',10,181,,88,00,3' |
032: 3536 2c2c 302a 3731 0d0a                 | b'56,,0*71\r\n' |
<NMEA(GAGSV, numMsg=3, msgNum=1, numSV=9, svid_01=3, elv_01=8.0, az_01=271, cno_01=19, svid_02=4, elv_02=11.0, az_02=82, cno_02=24, svid_03=5, elv_03=57.0, az_03=291, cno_03=38, svid_04=9, elv_04=59.0, az_04=61, cno_04=38, signalID=2)>000: 2447 4147 5356 2c33 2c31 2c30 392c 3033  | b'$GAGSV,3,1,09,03' |
016: 2c30 382c 3237 312c 3139 2c30 342c 3131  | b',08,271,19,04,11' |
032: 2c30 3832 2c32 342c 3035 2c35 372c 3239  | b',082,24,05,57,29' |
048: 312c 3338 2c30 392c 3539 2c30 3631 2c33  | b'1,38,09,59,061,3' |
064: 382c 322a 3744 0d0a                      | b'8,2*7D\r\n' |
<NMEA(GAGSV, numMsg=3, msgNum=2, numSV=9, svid_01=15, elv_01=16.0, az_01=323, cno_01=17, svid_02=24, elv_02=21.0, az_02=146, cno_02=30, svid_03=31, elv_03=33.0, az_03=92, cno_03=30, svid_04=34, elv_04=40.0, az_04=271, cno_04=35, signalID=2)>000: 2447 4147 5356 2c33 2c32 2c30 392c 3135  | b'$GAGSV,3,2,09,15' |
016: 2c31 362c 3332 332c 3137 2c32 342c 3231  | b',16,323,17,24,21' |
032: 2c31 3436 2c33 302c 3331 2c33 332c 3039  | b',146,30,31,33,09' |
048: 322c 3330 2c33 342c 3430 2c32 3731 2c33  | b'2,30,34,40,271,3' |
064: 352c 322a 3737 0d0a                      | b'5,2*77\r\n' |
<NMEA(GAGSV, numMsg=3, msgNum=3, numSV=9, svid_01=36, elv_01=26.0, az_01=210, cno_01=32, signalID=2)>000: 2447 4147 5356 2c33 2c33 2c30 392c 3336  | b'$GAGSV,3,3,09,36' |
016: 2c32 362c 3231 302c 3332 2c32 2a34 430d  | b',26,210,32,2*4C\r' |
032: 0a                                       | b'\n' |
<NMEA(GAGSV, numMsg=2, msgNum=1, numSV=8, svid_01=3, elv_01=8.0, az_01=271, cno_01=21, svid_02=5, elv_02=57.0, az_02=291, cno_02=47, svid_03=9, elv_03=59.0, az_03=61, cno_03=46, svid_04=15, elv_04=16.0, az_04=323, cno_04=32, signalID=7)>000: 2447 4147 5356 2c32 2c31 2c30 382c 3033  | b'$GAGSV,2,1,08,03' |
016: 2c30 382c 3237 312c 3231 2c30 352c 3537  | b',08,271,21,05,57' |
032: 2c32 3931 2c34 372c 3039 2c35 392c 3036  | b',291,47,09,59,06' |
048: 312c 3436 2c31 352c 3136 2c33 3233 2c33  | b'1,46,15,16,323,3' |
064: 322c 372a 3741 0d0a                      | b'2,7*7A\r\n' |
<NMEA(GAGSV, numMsg=2, msgNum=2, numSV=8, svid_01=24, elv_01=21.0, az_01=146, cno_01=36, svid_02=31, elv_02=33.0, az_02=92, cno_02=39, svid_03=34, elv_03=40.0, az_03=271, cno_03=40, svid_04=36, elv_04=26.0, az_04=210, cno_04=25, signalID=7)>000: 2447 4147 5356 2c32 2c32 2c30 382c 3234  | b'$GAGSV,2,2,08,24' |
016: 2c32 312c 3134 362c 3336 2c33 312c 3333  | b',21,146,36,31,33' |
032: 2c30 3932 2c33 392c 3334 2c34 302c 3237  | b',092,39,34,40,27' |
048: 312c 3430 2c33 362c 3236 2c32 3130 2c32  | b'1,40,36,26,210,2' |
064: 352c 372a 3744 0d0a                      | b'5,7*7D\r\n' |
<NMEA(GBGSV, numMsg=2, msgNum=1, numSV=6, svid_01=19, elv_01=27.0, az_01=300, cno_01=42, svid_02=20, elv_02=75.0, az_02=334, cno_02=51, svid_03=29, elv_03=8.0, az_03=249, cno_03=21, svid_04=32, elv_04=41.0, az_04=105, cno_04=48, signalID=1)>000: 2447 4247 5356 2c32 2c31 2c30 362c 3139  | b'$GBGSV,2,1,06,19' |
016: 2c32 372c 3330 302c 3432 2c32 302c 3735  | b',27,300,42,20,75' |
032: 2c33 3334 2c35 312c 3239 2c30 382c 3234  | b',334,51,29,08,24' |
048: 392c 3231 2c33 322c 3431 2c31 3035 2c34  | b'9,21,32,41,105,4' |
064: 382c 312a 3738 0d0a                      | b'8,1*78\r\n' |
<NMEA(GBGSV, numMsg=2, msgNum=2, numSV=6, svid_01=35, elv_01=10.0, az_01=302, cno_01=20, svid_02=37, elv_02=58.0, az_02=126, cno_02=50, signalID=1)>000: 2447 4247 5356 2c32 2c32 2c30 362c 3335  | b'$GBGSV,2,2,06,35' |
016: 2c31 302c 3330 322c 3230 2c33 372c 3538  | b',10,302,20,37,58' |
032: 2c31 3236 2c35 302c 312a 3744 0d0a       | b',126,50,1*7D\r\n' |
<NMEA(GBGSV, numMsg=1, msgNum=1, numSV=1, svid_01=23, elv_01=32.0, az_01=52, cno_01=8, signalID=3)>000: 2447 4247 5356 2c31 2c31 2c30 312c 3233  | b'$GBGSV,1,1,01,23' |
016: 2c33 322c 3035 322c 3038 2c33 2a34 410d  | b',32,052,08,3*4A\r' |
032: 0a                                       | b'\n' |
<NMEA(GNGLL, lat=43.88265199, NS=N, lon=-72.1578420717, EW=W, time=20:14:13, status=A, posMode=D)>000: 2447 4e47 4c4c 2c34 3335 322e 3935 3931  | b'$GNGLL,4352.9591' |
016: 3139 342c 4e2c 3037 3230 392e 3437 3035  | b'194,N,07209.4705' |
032: 3234 332c 572c 3230 3134 3133 2e30 302c  | b'243,W,201413.00,' |
048: 412c 442a 3632 0d0a                      | b'A,D*62\r\n' |
<NMEA(GNTXT, numMsg=1, msgNum=1, msgType=0, text=txbuf alloc)>000: 2447 4e54 5854 2c30 312c 3031 2c30 302c  | b'$GNTXT,01,01,00,' |
016: 7478 6275 6620 616c 6c6f 632a 3631 0d0a  | b'txbuf alloc*61\r\n' |
<NMEA(GNRMC, time=20:14:13.250000, status=A, lat=43.882652005, NS=N, lon=-72.1578420767, EW=W, spd=0.025, cog=, date=2023-09-05, mv=, mvEW=, posMode=R, navStatus=V)>000: 2447 4e52 4d43 2c32 3031 3431 332e 3235  | b'$GNRMC,201413.25' |
016: 2c41 2c34 3335 322e 3935 3931 3230 332c  | b',A,4352.9591203,' |
032: 4e2c 3037 3230 392e 3437 3035 3234 362c  | b'N,07209.4705246,' |
048: 572c 302e 3032 352c 2c30 3530 3932 332c  | b'W,0.025,,050923,' |
064: 2c2c 522c 562a 3132 0d0a                 | b',,R,V*12\r\n' |
<NMEA(GNRMC, time=20:14:13.500000, status=A, lat=43.8826519833, NS=N, lon=-72.1578420817, EW=W, spd=0.006, cog=, date=2023-09-05, mv=, mvEW=, posMode=R, navStatus=V)>000: 2447 4e52 4d43 2c32 3031 3431 332e 3530  | b'$GNRMC,201413.50' |
016: 2c41 2c34 3335 322e 3935 3931 3139 302c  | b',A,4352.9591190,' |
032: 4e2c 3037 3230 392e 3437 3035 3234 392c  | b'N,07209.4705249,' |
048: 572c 302e 3030 362c 2c30 3530 3932 332c  | b'W,0.006,,050923,' |
064: 2c2c 522c 562a 3137 0d0a                 | b',,R,V*17\r\n' |
<NMEA(GNVTG, cogt=, cogtUnit=T, cogm=, cogmUnit=M, sogn=0.006, sognUnit=N, sogk=0.012, sogkUnit=K, posMode=D)>000: 2447 4e56 5447 2c2c 542c 2c4d 2c30 2e30  | b'$GNVTG,,T,,M,0.0' |
016: 3036 2c4e 2c30 2e30 3132 2c4b 2c44 2a33  | b'06,N,0.012,K,D*3' |
032: 440d 0a                                  | b'D\r\n' |
<NMEA(GNGGA, time=20:14:13.500000, lat=43.8826519833, NS=N, lon=-72.1578420817, EW=W, quality=4, numSV=12, HDOP=0.65, alt=141.375, altUnit=M, sep=-32.547, sepUnit=M, diffAge=, diffStation=0)>000: 2447 4e47 4741 2c32 3031 3431 332e 3530  | b'$GNGGA,201413.50' |
016: 2c34 3335 322e 3935 3931 3139 302c 4e2c  | b',4352.9591190,N,' |
032: 3037 3230 392e 3437 3035 3234 392c 572c  | b'07209.4705249,W,' |
048: 342c 3132 2c30 2e36 352c 3134 312e 3337  | b'4,12,0.65,141.37' |
064: 352c 4d2c 2d33 322e 3534 372c 4d2c 2c30  | b'5,M,-32.547,M,,0' |
080: 3030 302a 3733 0d0a                      | b'000*73\r\n' |
<NMEA(GNGSA, opMode=A, navMode=3, svid_01=44, svid_02=25, svid_03=28, svid_04=21, svid_05=24, svid_06=46, svid_07=10, svid_08=2, svid_09=12, svid_10=23, svid_11=32, svid_12=, PDOP=1.25, HDOP=0.65, VDOP=1.07, systemId=1)>000: 2447 4e47 5341 2c41 2c33 2c34 342c 3235  | b'$GNGSA,A,3,44,25' |
016: 2c32 382c 3231 2c32 342c 3436 2c31 302c  | b',28,21,24,46,10,' |
032: 3032 2c31 322c 3233 2c33 322c 2c31 2e32  | b'02,12,23,32,,1.2' |
048: 352c 302e 3635 2c31 2e30 372c 312a 3038  | b'5,0.65,1.07,1*08' |
064: 0d0a                                     | b'\r\n' |
<NMEA(GNGSA, opMode=A, navMode=3, svid_01=87, svid_02=80, svid_03=70, svid_04=71, svid_05=72, svid_06=73, svid_07=, svid_08=, svid_09=, svid_10=, svid_11=, svid_12=, PDOP=1.25, HDOP=0.65, VDOP=1.07, systemId=2)>000: 2447 4e47 5341 2c41 2c33 2c38 372c 3830  | b'$GNGSA,A,3,87,80' |
016: 2c37 302c 3731 2c37 322c 3733 2c2c 2c2c  | b',70,71,72,73,,,,' |
032: 2c2c 2c31 2e32 352c 302e 3635 2c31 2e30  | b',,,1.25,0.65,1.0' |
048: 372c 322a 3036 0d0a                      | b'7,2*06\r\n' |
<NMEA(GNGSA, opMode=A, navMode=3, svid_01=36, svid_02=15, svid_03=5, svid_04=31, svid_05=34, svid_06=4, svid_07=9, svid_08=24, svid_09=, svid_10=, svid_11=, svid_12=, PDOP=1.25, HDOP=0.65, VDOP=1.07, systemId=3)>000: 2447 4e47 5341 2c41 2c33 2c33 362c 3135  | b'$GNGSA,A,3,36,15' |
016: 2c30 352c 3331 2c33 342c 3034 2c30 392c  | b',05,31,34,04,09,' |
032: 3234 2c2c 2c2c 2c31 2e32 352c 302e 3635  | b'24,,,,,1.25,0.65' |
048: 2c31 2e30 372c 332a 3041 0d0a            | b',1.07,3*0A\r\n' |
<NMEA(GNGSA, opMode=A, navMode=3, svid_01=37, svid_02=19, svid_03=32, svid_04=20, svid_05=, svid_06=, svid_07=, svid_08=, svid_09=, svid_10=, svid_11=, svid_12=, PDOP=1.25, HDOP=0.65, VDOP=1.07, systemId=4)>000: 2447 4e47 5341 2c41 2c33 2c33 372c 3139  | b'$GNGSA,A,3,37,19' |
016: 2c33 322c 3230 2c2c 2c2c 2c2c 2c2c 2c31  | b',32,20,,,,,,,,,1' |
032: 2e32 352c 302e 3635 2c31 2e30 372c 342a  | b'.25,0.65,1.07,4*' |
048: 3038 0d0a                                | b'08\r\n' |
<NMEA(GPGSV, numMsg=3, msgNum=1, numSV=12, svid_01=2, elv_01=16.0, az_01=319, cno_01=31, svid_02=10, elv_02=84.0, az_02=272, cno_02=51, svid_03=12, elv_03=28.0, az_03=98, cno_03=36, svid_04=18, elv_04=5.0, az_04=184, cno_04=16, signalID=1)>000: 2447 5047 5356 2c33 2c31 2c31 322c 3032  | b'$GPGSV,3,1,12,02' |
016: 2c31 362c 3331 392c 3331 2c31 302c 3834  | b',16,319,31,10,84' |
032: 2c32 3732 2c35 312c 3132 2c32 382c 3039  | b',272,51,12,28,09' |
048: 382c 3336 2c31 382c 3035 2c31 3834 2c31  | b'8,36,18,05,184,1' |
064: 362c 312a 3643 0d0a                      | b'6,1*6C\r\n' |
<NMEA(GPGSV, numMsg=3, msgNum=2, numSV=12, svid_01=21, elv_01=20.0, az_01=311, cno_01=37, svid_02=23, elv_02=52.0, az_02=141, cno_02=49, svid_03=24, elv_03=33.0, az_03=53, cno_03=28, svid_04=25, elv_04=21.0, az_04=143, cno_04=33, signalID=1)>000: 2447 5047 5356 2c33 2c32 2c31 322c 3231  | b'$GPGSV,3,2,12,21' |
016: 2c32 302c 3331 312c 3337 2c32 332c 3532  | b',20,311,37,23,52' |
032: 2c31 3431 2c34 392c 3234 2c33 332c 3035  | b',141,49,24,33,05' |
048: 332c 3238 2c32 352c 3231 2c31 3433 2c33  | b'3,28,25,21,143,3' |
064: 332c 312a 3637 0d0a                      | b'3,1*67\r\n' |
<NMEA(GPGSV, numMsg=3, msgNum=3, numSV=12, svid_01=28, elv_01=23.0, az_01=218, cno_01=37, svid_02=32, elv_02=50.0, az_02=285, cno_02=48, svid_03=44, elv_03=23.0, az_03=235, cno_03=39, svid_04=46, elv_04=15.0, az_04=246, cno_04=33, signalID=1)>000: 2447 5047 5356 2c33 2c33 2c31 322c 3238  | b'$GPGSV,3,3,12,28' |
016: 2c32 332c 3231 382c 3337 2c33 322c 3530  | b',23,218,37,32,50' |
032: 2c32 3835 2c34 382c 3434 2c32 332c 3233  | b',285,48,44,23,23' |
048: 352c 3339 2c34 362c 3135 2c32 3436 2c33  | b'5,39,46,15,246,3' |
064: 332c 312a 3644 0d0a                      | b'3,1*6D\r\n' |
<NMEA(GPGSV, numMsg=2, msgNum=1, numSV=8, svid_01=10, elv_01=84.0, az_01=272, cno_01=39, svid_02=12, elv_02=28.0, az_02=98, cno_02=25, svid_03=18, elv_03=5.0, az_03=184, cno_03=12, svid_04=23, elv_04=52.0, az_04=141, cno_04=33, signalID=6)>000: 2447 5047 5356 2c32 2c31 2c30 382c 3130  | b'$GPGSV,2,1,08,10' |
016: 2c38 342c 3237 322c 3339 2c31 322c 3238  | b',84,272,39,12,28' |
032: 2c30 3938 2c32 352c 3138 2c30 352c 3138  | b',098,25,18,05,18' |
048: 342c 3132 2c32 332c 3532 2c31 3431 2c33  | b'4,12,23,52,141,3' |
064: 332c 362a 3637 0d0a                      | b'3,6*67\r\n' |
<NMEA(GPGSV, numMsg=2, msgNum=2, numSV=8, svid_01=24, elv_01=33.0, az_01=53, cno_01=27, svid_02=25, elv_02=21.0, az_02=143, cno_02=31, svid_03=28, elv_03=23.0, az_03=218, cno_03=20, svid_04=32, elv_04=50.0, az_04=285, cno_04=34, signalID=6)>000: 2447 5047 5356 2c32 2c32 2c30 382c 3234  | b'$GPGSV,2,2,08,24' |
016: 2c33 332c 3035 332c 3237 2c32 352c 3231  | b',33,053,27,25,21' |
032: 2c31 3433 2c33 312c 3238 2c32 332c 3231  | b',143,31,28,23,21' |
048: 382c 3230 2c33 322c 3530 2c32 3835 2c33  | b'8,20,32,50,285,3' |
064: 342c 362a 3630 0d0a                      | b'4,6*60\r\n' |
<NMEA(GPGSV, numMsg=1, msgNum=1, numSV=1, svid_01=15, elv_01=6.0, az_01=90, cno_01=, signalID=0)>000: 2447 5047 5356 2c31 2c31 2c30 312c 3135  | b'$GPGSV,1,1,01,15' |
016: 2c30 362c 3039 302c 2c30 2a35 460d 0a    | b',06,090,,0*5F\r\n' |
<NMEA(GLGSV, numMsg=2, msgNum=1, numSV=8, svid_01=70, elv_01=51.0, az_01=75, cno_01=37, svid_02=71, elv_02=56.0, az_02=333, cno_02=48, svid_03=72, elv_03=15.0, az_03=299, cno_03=24, svid_04=73, elv_04=46.0, az_04=150, cno_04=44, signalID=1)>000: 2447 4c47 5356 2c32 2c31 2c30 382c 3730  | b'$GLGSV,2,1,08,70' |
016: 2c35 312c 3037 352c 3337 2c37 312c 3536  | b',51,075,37,71,56' |
032: 2c33 3333 2c34 382c 3732 2c31 352c 3239  | b',333,48,72,15,29' |
048: 392c 3234 2c37 332c 3436 2c31 3530 2c34  | b'9,24,73,46,150,4' |
064: 342c 312a 3742 0d0a                      | b'4,1*7B\r\n' |
<NMEA(GLGSV, numMsg=2, msgNum=2, numSV=8, svid_01=79, elv_01=6.0, az_01=22, cno_01=22, svid_02=80, elv_02=48.0, az_02=58, cno_02=46, svid_03=86, elv_03=23.0, az_03=253, cno_03=39, svid_04=87, elv_04=24.0, az_04=312, cno_04=39, signalID=1)>000: 2447 4c47 5356 2c32 2c32 2c30 382c 3739  | b'$GLGSV,2,2,08,79' |
016: 2c30 362c 3032 322c 3232 2c38 302c 3438  | b',06,022,22,80,48' |
032: 2c30 3538 2c34 362c 3836 2c32 332c 3235  | b',058,46,86,23,25' |
048: 332c 3339 2c38 372c 3234 2c33 3132 2c33  | b'3,39,87,24,312,3' |
064: 392c 312a 3731 0d0a                      | b'9,1*71\r\n' |
<NMEA(GLGSV, numMsg=1, msgNum=1, numSV=4, svid_01=71, elv_01=56.0, az_01=333, cno_01=28, svid_02=73, elv_02=46.0, az_02=150, cno_02=29, svid_03=80, elv_03=48.0, az_03=58, cno_03=33, svid_04=85, elv_04=0.0, az_04=214, cno_04=9, signalID=3)>000: 2447 4c47 5356 2c31 2c31 2c30 342c 3731  | b'$GLGSV,1,1,04,71' |
016: 2c35 362c 3333 332c 3238 2c37 332c 3436  | b',56,333,28,73,46' |
032: 2c31 3530 2c32 392c 3830 2c34 382c 3035  | b',150,29,80,48,05' |
048: 382c 3333 2c38 352c 3030 2c32 3134 2c30  | b'8,33,85,00,214,0' |
064: 392c 332a 3731 0d0a                      | b'9,3*71\r\n' |
<NMEA(GLGSV, numMsg=1, msgNum=1, numSV=2, svid_01=74, elv_01=10.0, az_01=181, cno_01=, svid_02=88, elv_02=0.0, az_02=356, cno_02=, signalID=0)>000: 2447 4c47 5356 2c31 2c31 2c30 322c 3734  | b'$GLGSV,1,1,02,74' |
016: 2c31 302c 3138 312c 2c38 382c 3030 2c33  | b',10,181,,88,00,3' |
032: 3536 2c2c 302a 3731 0d0a                 | b'56,,0*71\r\n' |
<NMEA(GAGSV, numMsg=3, msgNum=1, numSV=9, svid_01=3, elv_01=8.0, az_01=271, cno_01=17, svid_02=4, elv_02=11.0, az_02=82, cno_02=25, svid_03=5, elv_03=57.0, az_03=291, cno_03=37, svid_04=9, elv_04=59.0, az_04=61, cno_04=39, signalID=2)>000: 2447 4147 5356 2c33 2c31 2c30 392c 3033  | b'$GAGSV,3,1,09,03' |
016: 2c30 382c 3237 312c 3137 2c30 342c 3131  | b',08,271,17,04,11' |
032: 2c30 3832 2c32 352c 3035 2c35 372c 3239  | b',082,25,05,57,29' |
048: 312c 3337 2c30 392c 3539 2c30 3631 2c33  | b'1,37,09,59,061,3' |
064: 392c 322a 3743 0d0a                      | b'9,2*7C\r\n' |
<NMEA(GAGSV, numMsg=3, msgNum=2, numSV=9, svid_01=15, elv_01=16.0, az_01=323, cno_01=16, svid_02=24, elv_02=21.0, az_02=146, cno_02=30, svid_03=31, elv_03=33.0, az_03=92, cno_03=30, svid_04=34, elv_04=40.0, az_04=271, cno_04=35, signalID=2)>000: 2447 4147 5356 2c33 2c32 2c30 392c 3135  | b'$GAGSV,3,2,09,15' |
016: 2c31 362c 3332 332c 3136 2c32 342c 3231  | b',16,323,16,24,21' |
032: 2c31 3436 2c33 302c 3331 2c33 332c 3039  | b',146,30,31,33,09' |
048: 322c 3330 2c33 342c 3430 2c32 3731 2c33  | b'2,30,34,40,271,3' |
064: 352c 322a 3736 0d0a                      | b'5,2*76\r\n' |
<NMEA(GAGSV, numMsg=3, msgNum=3, numSV=9, svid_01=36, elv_01=26.0, az_01=210, cno_01=31, signalID=2)>000: 2447 4147 5356 2c33 2c33 2c30 392c 3336  | b'$GAGSV,3,3,09,36' |
016: 2c32 362c 3231 302c 3331 2c32 2a34 460d  | b',26,210,31,2*4F\r' |
032: 0a                                       | b'\n' |
<NMEA(GAGSV, numMsg=2, msgNum=1, numSV=8, svid_01=3, elv_01=8.0, az_01=271, cno_01=21, svid_02=5, elv_02=57.0, az_02=291, cno_02=46, svid_03=9, elv_03=59.0, az_03=61, cno_03=46, svid_04=15, elv_04=16.0, az_04=323, cno_04=32, signalID=7)>000: 2447 4147 5356 2c32 2c31 2c30 382c 3033  | b'$GAGSV,2,1,08,03' |
016: 2c30 382c 3237 312c 3231 2c30 352c 3537  | b',08,271,21,05,57' |
032: 2c32 3931 2c34 362c 3039 2c35 392c 3036  | b',291,46,09,59,06' |
048: 312c 3436 2c31 352c 3136 2c33 3233 2c33  | b'1,46,15,16,323,3' |
064: 322c 372a 3742 0d0a                      | b'2,7*7B\r\n' |
<NMEA(GAGSV, numMsg=2, msgNum=2, numSV=8, svid_01=24, elv_01=21.0, az_01=146, cno_01=35, svid_02=31, elv_02=33.0, az_02=92, cno_02=39, svid_03=34, elv_03=40.0, az_03=271, cno_03=40, svid_04=36, elv_04=26.0, az_04=210, cno_04=25, signalID=7)>000: 2447 4147 5356 2c32 2c32 2c30 382c 3234  | b'$GAGSV,2,2,08,24' |
016: 2c32 312c 3134 362c 3335 2c33 312c 3333  | b',21,146,35,31,33' |
032: 2c30 3932 2c33 392c 3334 2c34 302c 3237  | b',092,39,34,40,27' |
048: 312c 3430 2c33 362c 3236 2c32 3130 2c32  | b'1,40,36,26,210,2' |
064: 352c 372a 3745 0d0a                      | b'5,7*7E\r\n' |
<NMEA(GBGSV, numMsg=2, msgNum=1, numSV=6, svid_01=19, elv_01=27.0, az_01=300, cno_01=42, svid_02=20, elv_02=75.0, az_02=334, cno_02=51, svid_03=29, elv_03=8.0, az_03=249, cno_03=20, svid_04=32, elv_04=41.0, az_04=105, cno_04=48, signalID=1)>000: 2447 4247 5356 2c32 2c31 2c30 362c 3139  | b'$GBGSV,2,1,06,19' |
016: 2c32 372c 3330 302c 3432 2c32 302c 3735  | b',27,300,42,20,75' |
032: 2c33 3334 2c35 312c 3239 2c30 382c 3234  | b',334,51,29,08,24' |
048: 392c 3230 2c33 322c 3431 2c31 3035 2c34  | b'9,20,32,41,105,4' |
064: 382c 312a 3739 0d0a                      | b'8,1*79\r\n' |
<NMEA(GBGSV, numMsg=2, msgNum=2, numSV=6, svid_01=35, elv_01=10.0, az_01=302, cno_01=17, svid_02=37, elv_02=58.0, az_02=126, cno_02=50, signalID=1)>000: 2447 4247 5356 2c32 2c32 2c30 362c 3335  | b'$GBGSV,2,2,06,35' |
016: 2c31 302c 3330 322c 3137 2c33 372c 3538  | b',10,302,17,37,58' |
032: 2c31 3236 2c35 302c 312a 3739 0d0a       | b',126,50,1*79\r\n' |
<NMEA(GBGSV, numMsg=1, msgNum=1, numSV=1, svid_01=23, elv_01=32.0, az_01=52, cno_01=8, signalID=3)>000: 2447 4247 5356 2c31 2c31 2c30 312c 3233  | b'$GBGSV,1,1,01,23' |
016: 2c33 322c 3035 322c 3038 2c33 2a34 410d  | b',32,052,08,3*4A\r' |
032: 0a                                       | b'\n' |
<NMEA(GNGLL, lat=43.8826519833, NS=N, lon=-72.1578420817, EW=W, time=20:14:13.500000, status=A, posMode=D)>000: 2447 4e47 4c4c 2c34 3335 322e 3935 3931  | b'$GNGLL,4352.9591' |
016: 3139 302c 4e2c 3037 3230 392e 3437 3035  | b'190,N,07209.4705' |
032: 3234 392c 572c 3230 3134 3133 2e35 302c  | b'249,W,201413.50,' |
048: 412c 442a 3639 0d0a                      | b'A,D*69\r\n' |
<NMEA(GNRMC, time=20:14:13.750000, status=A, lat=43.882652, NS=N, lon=-72.1578420533, EW=W, spd=0.011, cog=, date=2023-09-05, mv=, mvEW=, posMode=R, navStatus=V)>000: 2447 4e52 4d43 2c32 3031 3431 332e 3735  | b'$GNRMC,201413.75' |
016: 2c41 2c34 3335 322e 3935 3931 3230 302c  | b',A,4352.9591200,' |
032: 4e2c 3037 3230 392e 3437 3035 3233 322c  | b'N,07209.4705232,' |
048: 572c 302e 3031 312c 2c30 3530 3932 332c  | b'W,0.011,,050923,' |
064: 2c2c 522c 562a 3130 0d0a                 | b',,R,V*10\r\n' |
<NMEA(GNVTG, cogt=, cogtUnit=T, cogm=, cogmUnit=M, sogn=0.011, sognUnit=N, sogk=0.02, sogkUnit=K, posMode=D)>000: 2447 4e56 5447 2c2c 542c 2c4d 2c30 2e30  | b'$GNVTG,,T,,M,0.0' |
016: 3131 2c4e 2c30 2e30 3230 2c4b 2c44 2a33  | b'11,N,0.020,K,D*3' |
032: 410d 0a                                  | b'A\r\n' |
<NMEA(GNGSA, opMode=A, navMode=3, svid_01=44, svid_02=25, svid_03=28, svid_04=21, svid_05=24, svid_06=46, svid_07=10, svid_08=2, svid_09=12, svid_10=23, svid_11=32, svid_12=, PDOP=1.25, HDOP=0.65, VDOP=1.07, systemId=1)>000: 2447 4e47 5341 2c41 2c33 2c34 342c 3235  | b'$GNGSA,A,3,44,25' |
016: 2c32 382c 3231 2c32 342c 3436 2c31 302c  | b',28,21,24,46,10,' |
032: 3032 2c31 322c 3233 2c33 322c 2c31 2e32  | b'02,12,23,32,,1.2' |
048: 352c 302e 3635 2c31 2e30 372c 312a 3038  | b'5,0.65,1.07,1*08' |
064: 0d0a                                     | b'\r\n' |
<NMEA(GNGSA, opMode=A, navMode=3, svid_01=87, svid_02=80, svid_03=70, svid_04=71, svid_05=72, svid_06=73, svid_07=, svid_08=, svid_09=, svid_10=, svid_11=, svid_12=, PDOP=1.25, HDOP=0.65, VDOP=1.07, systemId=2)>000: 2447 4e47 5341 2c41 2c33 2c38 372c 3830  | b'$GNGSA,A,3,87,80' |
016: 2c37 302c 3731 2c37 322c 3733 2c2c 2c2c  | b',70,71,72,73,,,,' |
032: 2c2c 2c31 2e32 352c 302e 3635 2c31 2e30  | b',,,1.25,0.65,1.0' |
048: 372c 322a 3036 0d0a                      | b'7,2*06\r\n' |
<NMEA(GNGSA, opMode=A, navMode=3, svid_01=36, svid_02=15, svid_03=5, svid_04=31, svid_05=34, svid_06=4, svid_07=9, svid_08=24, svid_09=, svid_10=, svid_11=, svid_12=, PDOP=1.25, HDOP=0.65, VDOP=1.07, systemId=3)>000: 2447 4e47 5341 2c41 2c33 2c33 362c 3135  | b'$GNGSA,A,3,36,15' |
016: 2c30 352c 3331 2c33 342c 3034 2c30 392c  | b',05,31,34,04,09,' |
032: 3234 2c2c 2c2c 2c31 2e32 352c 302e 3635  | b'24,,,,,1.25,0.65' |
048: 2c31 2e30 372c 332a 3041 0d0a            | b',1.07,3*0A\r\n' |
<NMEA(GNGSA, opMode=A, navMode=3, svid_01=37, svid_02=19, svid_03=32, svid_04=20, svid_05=, svid_06=, svid_07=, svid_08=, svid_09=, svid_10=, svid_11=, svid_12=, PDOP=1.25, HDOP=0.65, VDOP=1.07, systemId=4)>000: 2447 4e47 5341 2c41 2c33 2c33 372c 3139  | b'$GNGSA,A,3,37,19' |
016: 2c33 322c 3230 2c2c 2c2c 2c2c 2c2c 2c31  | b',32,20,,,,,,,,,1' |
032: 2e32 352c 302e 3635 2c31 2e30 372c 342a  | b'.25,0.65,1.07,4*' |
048: 3038 0d0a                                | b'08\r\n' |
<NMEA(GPGSV, numMsg=3, msgNum=1, numSV=12, svid_01=2, elv_01=16.0, az_01=319, cno_01=31, svid_02=10, elv_02=84.0, az_02=272, cno_02=51, svid_03=12, elv_03=28.0, az_03=98, cno_03=37, svid_04=18, elv_04=5.0, az_04=184, cno_04=15, signalID=1)>000: 2447 5047 5356 2c33 2c31 2c31 322c 3032  | b'$GPGSV,3,1,12,02' |
016: 2c31 362c 3331 392c 3331 2c31 302c 3834  | b',16,319,31,10,84' |
032: 2c32 3732 2c35 312c 3132 2c32 382c 3039  | b',272,51,12,28,09' |
048: 382c 3337 2c31 382c 3035 2c31 3834 2c31  | b'8,37,18,05,184,1' |
064: 352c 312a 3645 0d0a                      | b'5,1*6E\r\n' |
<NMEA(GPGSV, numMsg=3, msgNum=2, numSV=12, svid_01=21, elv_01=20.0, az_01=311, cno_01=37, svid_02=23, elv_02=52.0, az_02=141, cno_02=49, svid_03=24, elv_03=33.0, az_03=53, cno_03=28, svid_04=25, elv_04=21.0, az_04=143, cno_04=33, signalID=1)>000: 2447 5047 5356 2c33 2c32 2c31 322c 3231  | b'$GPGSV,3,2,12,21' |
016: 2c32 302c 3331 312c 3337 2c32 332c 3532  | b',20,311,37,23,52' |
032: 2c31 3431 2c34 392c 3234 2c33 332c 3035  | b',141,49,24,33,05' |
048: 332c 3238 2c32 352c 3231 2c31 3433 2c33  | b'3,28,25,21,143,3' |
064: 332c 312a 3637 0d0a                      | b'3,1*67\r\n' |
<NMEA(GPGSV, numMsg=3, msgNum=3, numSV=12, svid_01=28, elv_01=23.0, az_01=218, cno_01=37, svid_02=32, elv_02=50.0, az_02=285, cno_02=48, svid_03=44, elv_03=23.0, az_03=235, cno_03=39, svid_04=46, elv_04=15.0, az_04=246, cno_04=33, signalID=1)>000: 2447 5047 5356 2c33 2c33 2c31 322c 3238  | b'$GPGSV,3,3,12,28' |
016: 2c32 332c 3231 382c 3337 2c33 322c 3530  | b',23,218,37,32,50' |
032: 2c32 3835 2c34 382c 3434 2c32 332c 3233  | b',285,48,44,23,23' |
048: 352c 3339 2c34 362c 3135 2c32 3436 2c33  | b'5,39,46,15,246,3' |
064: 332c 312a 3644 0d0a                      | b'3,1*6D\r\n' |
<NMEA(GPGSV, numMsg=2, msgNum=1, numSV=8, svid_01=10, elv_01=84.0, az_01=272, cno_01=39, svid_02=12, elv_02=28.0, az_02=98, cno_02=26, svid_03=18, elv_03=5.0, az_03=184, cno_03=11, svid_04=23, elv_04=52.0, az_04=141, cno_04=32, signalID=6)>000: 2447 5047 5356 2c32 2c31 2c30 382c 3130  | b'$GPGSV,2,1,08,10' |
016: 2c38 342c 3237 322c 3339 2c31 322c 3238  | b',84,272,39,12,28' |
032: 2c30 3938 2c32 362c 3138 2c30 352c 3138  | b',098,26,18,05,18' |
048: 342c 3131 2c32 332c 3532 2c31 3431 2c33  | b'4,11,23,52,141,3' |
064: 322c 362a 3636 0d0a                      | b'2,6*66\r\n' |
<NMEA(GPGSV, numMsg=2, msgNum=2, numSV=8, svid_01=24, elv_01=33.0, az_01=53, cno_01=27, svid_02=25, elv_02=21.0, az_02=143, cno_02=30, svid_03=28, elv_03=23.0, az_03=218, cno_03=20, svid_04=32, elv_04=50.0, az_04=285, cno_04=34, signalID=6)>000: 2447 5047 5356 2c32 2c32 2c30 382c 3234  | b'$GPGSV,2,2,08,24' |
016: 2c33 332c 3035 332c 3237 2c32 352c 3231  | b',33,053,27,25,21' |
032: 2c31 3433 2c33 302c 3238 2c32 332c 3231  | b',143,30,28,23,21' |
048: 382c 3230 2c33 322c 3530 2c32 3835 2c33  | b'8,20,32,50,285,3' |
064: 342c 362a 3631 0d0a                      | b'4,6*61\r\n' |
<NMEA(GPGSV, numMsg=1, msgNum=1, numSV=1, svid_01=15, elv_01=6.0, az_01=90, cno_01=, signalID=0)>000: 2447 5047 5356 2c31 2c31 2c30 312c 3135  | b'$GPGSV,1,1,01,15' |
016: 2c30 362c 3039 302c 2c30 2a35 460d 0a    | b',06,090,,0*5F\r\n' |
<NMEA(GLGSV, numMsg=2, msgNum=1, numSV=8, svid_01=70, elv_01=51.0, az_01=75, cno_01=37, svid_02=71, elv_02=56.0, az_02=333, cno_02=48, svid_03=72, elv_03=15.0, az_03=299, cno_03=24, svid_04=73, elv_04=46.0, az_04=150, cno_04=44, signalID=1)>000: 2447 4c47 5356 2c32 2c31 2c30 382c 3730  | b'$GLGSV,2,1,08,70' |
016: 2c35 312c 3037 352c 3337 2c37 312c 3536  | b',51,075,37,71,56' |
032: 2c33 3333 2c34 382c 3732 2c31 352c 3239  | b',333,48,72,15,29' |
048: 392c 3234 2c37 332c 3436 2c31 3530 2c34  | b'9,24,73,46,150,4' |
064: 342c 312a 3742 0d0a                      | b'4,1*7B\r\n' |
<NMEA(GLGSV, numMsg=2, msgNum=2, numSV=8, svid_01=79, elv_01=6.0, az_01=22, cno_01=21, svid_02=80, elv_02=48.0, az_02=58, cno_02=45, svid_03=86, elv_03=23.0, az_03=253, cno_03=39, svid_04=87, elv_04=24.0, az_04=312, cno_04=39, signalID=1)>000: 2447 4c47 5356 2c32 2c32 2c30 382c 3739  | b'$GLGSV,2,2,08,79' |
016: 2c30 362c 3032 322c 3231 2c38 302c 3438  | b',06,022,21,80,48' |
032: 2c30 3538 2c34 352c 3836 2c32 332c 3235  | b',058,45,86,23,25' |
048: 332c 3339 2c38 372c 3234 2c33 3132 2c33  | b'3,39,87,24,312,3' |
064: 392c 312a 3731 0d0a                      | b'9,1*71\r\n' |
<NMEA(GLGSV, numMsg=1, msgNum=1, numSV=4, svid_01=71, elv_01=56.0, az_01=333, cno_01=28, svid_02=73, elv_02=46.0, az_02=150, cno_02=29, svid_03=80, elv_03=48.0, az_03=58, cno_03=33, svid_04=85, elv_04=0.0, az_04=214, cno_04=8, signalID=3)>000: 2447 4c47 5356 2c31 2c31 2c30 342c 3731  | b'$GLGSV,1,1,04,71' |
016: 2c35 362c 3333 332c 3238 2c37 332c 3436  | b',56,333,28,73,46' |
032: 2c31 3530 2c32 392c 3830 2c34 382c 3035  | b',150,29,80,48,05' |
048: 382c 3333 2c38 352c 3030 2c32 3134 2c30  | b'8,33,85,00,214,0' |
064: 382c 332a 3730 0d0a                      | b'8,3*70\r\n' |
<NMEA(GLGSV, numMsg=1, msgNum=1, numSV=2, svid_01=74, elv_01=10.0, az_01=181, cno_01=, svid_02=88, elv_02=0.0, az_02=356, cno_02=, signalID=0)>000: 2447 4c47 5356 2c31 2c31 2c30 322c 3734  | b'$GLGSV,1,1,02,74' |
016: 2c31 302c 3138 312c 2c38 382c 3030 2c33  | b',10,181,,88,00,3' |
032: 3536 2c2c 302a 3731 0d0a                 | b'56,,0*71\r\n' |
<NMEA(GAGSV, numMsg=3, msgNum=1, numSV=9, svid_01=3, elv_01=8.0, az_01=271, cno_01=16, svid_02=4, elv_02=11.0, az_02=82, cno_02=25, svid_03=5, elv_03=57.0, az_03=291, cno_03=37, svid_04=9, elv_04=59.0, az_04=61, cno_04=39, signalID=2)>000: 2447 4147 5356 2c33 2c31 2c30 392c 3033  | b'$GAGSV,3,1,09,03' |
016: 2c30 382c 3237 312c 3136 2c30 342c 3131  | b',08,271,16,04,11' |
032: 2c30 3832 2c32 352c 3035 2c35 372c 3239  | b',082,25,05,57,29' |
048: 312c 3337 2c30 392c 3539 2c30 3631 2c33  | b'1,37,09,59,061,3' |
064: 392c 322a 3744 0d0a                      | b'9,2*7D\r\n' |
<NMEA(GAGSV, numMsg=3, msgNum=2, numSV=9, svid_01=15, elv_01=16.0, az_01=323, cno_01=16, svid_02=24, elv_02=21.0, az_02=146, cno_02=29, svid_03=31, elv_03=33.0, az_03=92, cno_03=30, svid_04=34, elv_04=40.0, az_04=271, cno_04=35, signalID=2)>000: 2447 4147 5356 2c33 2c32 2c30 392c 3135  | b'$GAGSV,3,2,09,15' |
016: 2c31 362c 3332 332c 3136 2c32 342c 3231  | b',16,323,16,24,21' |
032: 2c31 3436 2c32 392c 3331 2c33 332c 3039  | b',146,29,31,33,09' |
048: 322c 3330 2c33 342c 3430 2c32 3731 2c33  | b'2,30,34,40,271,3' |
064: 352c 322a 3745 0d0a                      | b'5,2*7E\r\n' |
<NMEA(GAGSV, numMsg=3, msgNum=3, numSV=9, svid_01=36, elv_01=26.0, az_01=210, cno_01=31, signalID=2)>000: 2447 4147 5356 2c33 2c33 2c30 392c 3336  | b'$GAGSV,3,3,09,36' |
016: 2c32 362c 3231 302c 3331 2c32 2a34 460d  | b',26,210,31,2*4F\r' |
032: 0a                                       | b'\n' |
<NMEA(GAGSV, numMsg=2, msgNum=1, numSV=8, svid_01=3, elv_01=8.0, az_01=271, cno_01=20, svid_02=5, elv_02=57.0, az_02=291, cno_02=46, svid_03=9, elv_03=59.0, az_03=61, cno_03=46, svid_04=15, elv_04=16.0, az_04=323, cno_04=32, signalID=7)>000: 2447 4147 5356 2c32 2c31 2c30 382c 3033  | b'$GAGSV,2,1,08,03' |
016: 2c30 382c 3237 312c 3230 2c30 352c 3537  | b',08,271,20,05,57' |
032: 2c32 3931 2c34 362c 3039 2c35 392c 3036  | b',291,46,09,59,06' |
048: 312c 3436 2c31 352c 3136 2c33 3233 2c33  | b'1,46,15,16,323,3' |
064: 322c 372a 3741 0d0a                      | b'2,7*7A\r\n' |
<NMEA(GAGSV, numMsg=2, msgNum=2, numSV=8, svid_01=24, elv_01=21.0, az_01=146, cno_01=36, svid_02=31, elv_02=33.0, az_02=92, cno_02=39, svid_03=34, elv_03=40.0, az_03=271, cno_03=40, svid_04=36, elv_04=26.0, az_04=210, cno_04=25, signalID=7)>000: 2447 4147 5356 2c32 2c32 2c30 382c 3234  | b'$GAGSV,2,2,08,24' |
016: 2c32 312c 3134 362c 3336 2c33 312c 3333  | b',21,146,36,31,33' |
032: 2c30 3932 2c33 392c 3334 2c34 302c 3237  | b',092,39,34,40,27' |
048: 312c 3430 2c33 362c 3236 2c32 3130 2c32  | b'1,40,36,26,210,2' |
064: 352c 372a 3744 0d0a                      | b'5,7*7D\r\n' |
<NMEA(GBGSV, numMsg=2, msgNum=1, numSV=6, svid_01=19, elv_01=27.0, az_01=300, cno_01=42, svid_02=20, elv_02=75.0, az_02=334, cno_02=51, svid_03=29, elv_03=8.0, az_03=249, cno_03=20, svid_04=32, elv_04=41.0, az_04=105, cno_04=48, signalID=1)>000: 2447 4247 5356 2c32 2c31 2c30 362c 3139  | b'$GBGSV,2,1,06,19' |
016: 2c32 372c 3330 302c 3432 2c32 302c 3735  | b',27,300,42,20,75' |
032: 2c33 3334 2c35 312c 3239 2c30 382c 3234  | b',334,51,29,08,24' |
048: 392c 3230 2c33 322c 3431 2c31 3035 2c34  | b'9,20,32,41,105,4' |
064: 382c 312a 3739 0d0a                      | b'8,1*79\r\n' |
<NMEA(GBGSV, numMsg=2, msgNum=2, numSV=6, svid_01=35, elv_01=10.0, az_01=302, cno_01=17, svid_02=37, elv_02=58.0, az_02=126, cno_02=50, signalID=1)>000: 2447 4247 5356 2c32 2c32 2c30 362c 3335  | b'$GBGSV,2,2,06,35' |
016: 2c31 302c 3330 322c 3137 2c33 372c 3538  | b',10,302,17,37,58' |
032: 2c31 3236 2c35 302c 312a 3739 0d0a       | b',126,50,1*79\r\n' |
<NMEA(GBGSV, numMsg=1, msgNum=1, numSV=1, svid_01=23, elv_01=32.0, az_01=52, cno_01=8, signalID=3)>000: 2447 4247 5356 2c31 2c31 2c30 312c 3233  | b'$GBGSV,1,1,01,23' |
016: 2c33 322c 3035 322c 3038 2c33 2a34 410d  | b',32,052,08,3*4A\r' |
032: 0a                                       | b'\n' |
<NMEA(GNGLL, lat=43.882652, NS=N, lon=-72.1578420533, EW=W, time=20:14:13.750000, status=A, posMode=D)>000: 2447 4e47 4c4c 2c34 3335 322e 3935 3931  | b'$GNGLL,4352.9591' |
016: 3230 302c 4e2c 3037 3230 392e 3437 3035  | b'200,N,07209.4705' |
032: 3233 322c 572c 3230 3134 3133 2e37 352c  | b'232,W,201413.75,' |
048: 412c 442a 3638 0d0a                      | b'A,D*68\r\n' |
<NMEA(GNRMC, time=20:14:14, status=A, lat=43.882651975, NS=N, lon=-72.1578421017, EW=W, spd=0.008, cog=, date=2023-09-05, mv=, mvEW=, posMode=R, navStatus=V)>000: 2447 4e52 4d43 2c32 3031 3431 342e 3030  | b'$GNRMC,201414.00' |
016: 2c41 2c34 3335 322e 3935 3931 3138 352c  | b',A,4352.9591185,' |
032: 4e2c 3037 3230 392e 3437 3035 3236 312c  | b'N,07209.4705261,' |
048: 572c 302e 3030 382c 2c30 3530 3932 332c  | b'W,0.008,,050923,' |
064: 2c2c 522c 562a 3135 0d0a                 | b',,R,V*15\r\n' |
<NMEA(GNVTG, cogt=, cogtUnit=T, cogm=, cogmUnit=M, sogn=0.008, sognUnit=N, sogk=0.016, sogkUnit=K, posMode=D)>000: 2447 4e56 5447 2c2c 542c 2c4d 2c30 2e30  | b'$GNVTG,,T,,M,0.0' |
016: 3038 2c4e 2c30 2e30 3136 2c4b 2c44 2a33  | b'08,N,0.016,K,D*3' |
032: 370d 0a                                  | b'7\r\n' |
<NMEA(GNGGA, time=20:14:14, lat=43.882651975, NS=N, lon=-72.1578421017, EW=W, quality=4, numSV=12, HDOP=0.65, alt=141.376, altUnit=M, sep=-32.547, sepUnit=M, diffAge=, diffStation=0)>000: 2447 4e47 4741 2c32 3031 3431 342e 3030  | b'$GNGGA,201414.00' |
016: 2c34 3335 322e 3935 3931 3138 352c 4e2c  | b',4352.9591185,N,' |
032: 3037 3230 392e 3437 3035 3236 312c 572c  | b'07209.4705261,W,' |
048: 342c 3132 2c30 2e36 352c 3134 312e 3337  | b'4,12,0.65,141.37' |
064: 362c 4d2c 2d33 322e 3534 372c 4d2c 2c30  | b'6,M,-32.547,M,,0' |
080: 3030 302a 3743 0d0a                      | b'000*7C\r\n' |
<NMEA(GNGSA, opMode=A, navMode=3, svid_01=44, svid_02=25, svid_03=28, svid_04=21, svid_05=24, svid_06=46, svid_07=10, svid_08=2, svid_09=12, svid_10=23, svid_11=32, svid_12=, PDOP=1.25, HDOP=0.65, VDOP=1.07, systemId=1)>000: 2447 4e47 5341 2c41 2c33 2c34 342c 3235  | b'$GNGSA,A,3,44,25' |
016: 2c32 382c 3231 2c32 342c 3436 2c31 302c  | b',28,21,24,46,10,' |
032: 3032 2c31 322c 3233 2c33 322c 2c31 2e32  | b'02,12,23,32,,1.2' |
048: 352c 302e 3635 2c31 2e30 372c 312a 3038  | b'5,0.65,1.07,1*08' |
064: 0d0a                                     | b'\r\n' |
<NMEA(GNGSA, opMode=A, navMode=3, svid_01=87, svid_02=80, svid_03=70, svid_04=71, svid_05=72, svid_06=73, svid_07=, svid_08=, svid_09=, svid_10=, svid_11=, svid_12=, PDOP=1.25, HDOP=0.65, VDOP=1.07, systemId=2)>000: 2447 4e47 5341 2c41 2c33 2c38 372c 3830  | b'$GNGSA,A,3,87,80' |
016: 2c37 302c 3731 2c37 322c 3733 2c2c 2c2c  | b',70,71,72,73,,,,' |
032: 2c2c 2c31 2e32 352c 302e 3635 2c31 2e30  | b',,,1.25,0.65,1.0' |
048: 372c 322a 3036 0d0a                      | b'7,2*06\r\n' |
<NMEA(GNGSA, opMode=A, navMode=3, svid_01=36, svid_02=15, svid_03=5, svid_04=31, svid_05=34, svid_06=4, svid_07=9, svid_08=24, svid_09=, svid_10=, svid_11=, svid_12=, PDOP=1.25, HDOP=0.65, VDOP=1.07, systemId=3)>000: 2447 4e47 5341 2c41 2c33 2c33 362c 3135  | b'$GNGSA,A,3,36,15' |
016: 2c30 352c 3331 2c33 342c 3034 2c30 392c  | b',05,31,34,04,09,' |
032: 3234 2c2c 2c2c 2c31 2e32 352c 302e 3635  | b'24,,,,,1.25,0.65' |
048: 2c31 2e30 372c 332a 3041 0d0a            | b',1.07,3*0A\r\n' |
<NMEA(GNGSA, opMode=A, navMode=3, svid_01=37, svid_02=19, svid_03=32, svid_04=20, svid_05=, svid_06=, svid_07=, svid_08=, svid_09=, svid_10=, svid_11=, svid_12=, PDOP=1.25, HDOP=0.65, VDOP=1.07, systemId=4)>000: 2447 4e47 5341 2c41 2c33 2c33 372c 3139  | b'$GNGSA,A,3,37,19' |
016: 2c33 322c 3230 2c2c 2c2c 2c2c 2c2c 2c31  | b',32,20,,,,,,,,,1' |
032: 2e32 352c 302e 3635 2c31 2e30 372c 342a  | b'.25,0.65,1.07,4*' |
048: 3038 0d0a                                | b'08\r\n' |
<NMEA(GPGSV, numMsg=3, msgNum=1, numSV=12, svid_01=2, elv_01=16.0, az_01=319, cno_01=31, svid_02=10, elv_02=84.0, az_02=272, cno_02=51, svid_03=12, elv_03=28.0, az_03=98, cno_03=37, svid_04=18, elv_04=5.0, az_04=184, cno_04=15, signalID=1)>000: 2447 5047 5356 2c33 2c31 2c31 322c 3032  | b'$GPGSV,3,1,12,02' |
016: 2c31 362c 3331 392c 3331 2c31 302c 3834  | b',16,319,31,10,84' |
032: 2c32 3732 2c35 312c 3132 2c32 382c 3039  | b',272,51,12,28,09' |
048: 382c 3337 2c31 382c 3035 2c31 3834 2c31  | b'8,37,18,05,184,1' |
064: 352c 312a 3645 0d0a                      | b'5,1*6E\r\n' |
<NMEA(GPGSV, numMsg=3, msgNum=2, numSV=12, svid_01=21, elv_01=20.0, az_01=311, cno_01=37, svid_02=23, elv_02=52.0, az_02=141, cno_02=49, svid_03=24, elv_03=33.0, az_03=53, cno_03=28, svid_04=25, elv_04=21.0, az_04=143, cno_04=33, signalID=1)>000: 2447 5047 5356 2c33 2c32 2c31 322c 3231  | b'$GPGSV,3,2,12,21' |
016: 2c32 302c 3331 312c 3337 2c32 332c 3532  | b',20,311,37,23,52' |
032: 2c31 3431 2c34 392c 3234 2c33 332c 3035  | b',141,49,24,33,05' |
048: 332c 3238 2c32 352c 3231 2c31 3433 2c33  | b'3,28,25,21,143,3' |
064: 332c 312a 3637 0d0a                      | b'3,1*67\r\n' |
<NMEA(GPGSV, numMsg=3, msgNum=3, numSV=12, svid_01=28, elv_01=23.0, az_01=218, cno_01=37, svid_02=32, elv_02=50.0, az_02=285, cno_02=48, svid_03=44, elv_03=23.0, az_03=235, cno_03=39, svid_04=46, elv_04=15.0, az_04=246, cno_04=33, signalID=1)>000: 2447 5047 5356 2c33 2c33 2c31 322c 3238  | b'$GPGSV,3,3,12,28' |
016: 2c32 332c 3231 382c 3337 2c33 322c 3530  | b',23,218,37,32,50' |
032: 2c32 3835 2c34 382c 3434 2c32 332c 3233  | b',285,48,44,23,23' |
048: 352c 3339 2c34 362c 3135 2c32 3436 2c33  | b'5,39,46,15,246,3' |
064: 332c 312a 3644 0d0a                      | b'3,1*6D\r\n' |
<NMEA(GPGSV, numMsg=2, msgNum=1, numSV=8, svid_01=10, elv_01=84.0, az_01=272, cno_01=39, svid_02=12, elv_02=28.0, az_02=98, cno_02=26, svid_03=18, elv_03=5.0, az_03=184, cno_03=10, svid_04=23, elv_04=52.0, az_04=141, cno_04=32, signalID=6)>000: 2447 5047 5356 2c32 2c31 2c30 382c 3130  | b'$GPGSV,2,1,08,10' |
016: 2c38 342c 3237 322c 3339 2c31 322c 3238  | b',84,272,39,12,28' |
032: 2c30 3938 2c32 362c 3138 2c30 352c 3138  | b',098,26,18,05,18' |
048: 342c 3130 2c32 332c 3532 2c31 3431 2c33  | b'4,10,23,52,141,3' |
064: 322c 362a 3637 0d0a                      | b'2,6*67\r\n' |
<NMEA(GPGSV, numMsg=2, msgNum=2, numSV=8, svid_01=24, elv_01=33.0, az_01=53, cno_01=28, svid_02=25, elv_02=21.0, az_02=143, cno_02=30, svid_03=28, elv_03=23.0, az_03=218, cno_03=20, svid_04=32, elv_04=50.0, az_04=285, cno_04=34, signalID=6)>000: 2447 5047 5356 2c32 2c32 2c30 382c 3234  | b'$GPGSV,2,2,08,24' |
016: 2c33 332c 3035 332c 3238 2c32 352c 3231  | b',33,053,28,25,21' |
032: 2c31 3433 2c33 302c 3238 2c32 332c 3231  | b',143,30,28,23,21' |
048: 382c 3230 2c33 322c 3530 2c32 3835 2c33  | b'8,20,32,50,285,3' |
064: 342c 362a 3645 0d0a                      | b'4,6*6E\r\n' |
<NMEA(GPGSV, numMsg=1, msgNum=1, numSV=1, svid_01=15, elv_01=6.0, az_01=90, cno_01=, signalID=0)>000: 2447 5047 5356 2c31 2c31 2c30 312c 3135  | b'$GPGSV,1,1,01,15' |
016: 2c30 362c 3039 302c 2c30 2a35 460d 0a    | b',06,090,,0*5F\r\n' |
<NMEA(GLGSV, numMsg=2, msgNum=1, numSV=8, svid_01=70, elv_01=51.0, az_01=75, cno_01=37, svid_02=71, elv_02=56.0, az_02=333, cno_02=48, svid_03=72, elv_03=15.0, az_03=299, cno_03=24, svid_04=73, elv_04=46.0, az_04=150, cno_04=44, signalID=1)>000: 2447 4c47 5356 2c32 2c31 2c30 382c 3730  | b'$GLGSV,2,1,08,70' |
016: 2c35 312c 3037 352c 3337 2c37 312c 3536  | b',51,075,37,71,56' |
032: 2c33 3333 2c34 382c 3732 2c31 352c 3239  | b',333,48,72,15,29' |
048: 392c 3234 2c37 332c 3436 2c31 3530 2c34  | b'9,24,73,46,150,4' |
064: 342c 312a 3742 0d0a                      | b'4,1*7B\r\n' |
<NMEA(GLGSV, numMsg=2, msgNum=2, numSV=8, svid_01=79, elv_01=6.0, az_01=22, cno_01=21, svid_02=80, elv_02=48.0, az_02=58, cno_02=45, svid_03=86, elv_03=23.0, az_03=253, cno_03=39, svid_04=87, elv_04=24.0, az_04=312, cno_04=39, signalID=1)>000: 2447 4c47 5356 2c32 2c32 2c30 382c 3739  | b'$GLGSV,2,2,08,79' |
016: 2c30 362c 3032 322c 3231 2c38 302c 3438  | b',06,022,21,80,48' |
032: 2c30 3538 2c34 352c 3836 2c32 332c 3235  | b',058,45,86,23,25' |
048: 332c 3339 2c38 372c 3234 2c33 3132 2c33  | b'3,39,87,24,312,3' |
064: 392c 312a 3731 0d0a                      | b'9,1*71\r\n' |
<NMEA(GLGSV, numMsg=1, msgNum=1, numSV=4, svid_01=71, elv_01=56.0, az_01=333, cno_01=28, svid_02=73, elv_02=46.0, az_02=150, cno_02=29, svid_03=80, elv_03=48.0, az_03=58, cno_03=33, svid_04=85, elv_04=0.0, az_04=214, cno_04=8, signalID=3)>000: 2447 4c47 5356 2c31 2c31 2c30 342c 3731  | b'$GLGSV,1,1,04,71' |
016: 2c35 362c 3333 332c 3238 2c37 332c 3436  | b',56,333,28,73,46' |
032: 2c31 3530 2c32 392c 3830 2c34 382c 3035  | b',150,29,80,48,05' |
048: 382c 3333 2c38 352c 3030 2c32 3134 2c30  | b'8,33,85,00,214,0' |
064: 382c 332a 3730 0d0a                      | b'8,3*70\r\n' |
<NMEA(GLGSV, numMsg=1, msgNum=1, numSV=2, svid_01=74, elv_01=10.0, az_01=181, cno_01=, svid_02=88, elv_02=0.0, az_02=356, cno_02=, signalID=0)>000: 2447 4c47 5356 2c31 2c31 2c30 322c 3734  | b'$GLGSV,1,1,02,74' |
016: 2c31 302c 3138 312c 2c38 382c 3030 2c33  | b',10,181,,88,00,3' |
032: 3536 2c2c 302a 3731 0d0a                 | b'56,,0*71\r\n' |
<NMEA(GAGSV, numMsg=3, msgNum=1, numSV=9, svid_01=3, elv_01=8.0, az_01=271, cno_01=15, svid_02=4, elv_02=11.0, az_02=82, cno_02=25, svid_03=5, elv_03=57.0, az_03=291, cno_03=37, svid_04=9, elv_04=59.0, az_04=61, cno_04=38, signalID=2)>000: 2447 4147 5356 2c33 2c31 2c30 392c 3033  | b'$GAGSV,3,1,09,03' |
016: 2c30 382c 3237 312c 3135 2c30 342c 3131  | b',08,271,15,04,11' |
032: 2c30 3832 2c32 352c 3035 2c35 372c 3239  | b',082,25,05,57,29' |
048: 312c 3337 2c30 392c 3539 2c30 3631 2c33  | b'1,37,09,59,061,3' |
064: 382c 322a 3746 0d0a                      | b'8,2*7F\r\n' |
<NMEA(GAGSV, numMsg=3, msgNum=2, numSV=9, svid_01=15, elv_01=16.0, az_01=323, cno_01=16, svid_02=24, elv_02=21.0, az_02=146, cno_02=29, svid_03=31, elv_03=33.0, az_03=92, cno_03=30, svid_04=34, elv_04=40.0, az_04=271, cno_04=35, signalID=2)>000: 2447 4147 5356 2c33 2c32 2c30 392c 3135  | b'$GAGSV,3,2,09,15' |
016: 2c31 362c 3332 332c 3136 2c32 342c 3231  | b',16,323,16,24,21' |
032: 2c31 3436 2c32 392c 3331 2c33 332c 3039  | b',146,29,31,33,09' |
048: 322c 3330 2c33 342c 3430 2c32 3731 2c33  | b'2,30,34,40,271,3' |
064: 352c 322a 3745 0d0a                      | b'5,2*7E\r\n' |
<NMEA(GAGSV, numMsg=3, msgNum=3, numSV=9, svid_01=36, elv_01=26.0, az_01=210, cno_01=31, signalID=2)>000: 2447 4147 5356 2c33 2c33 2c30 392c 3336  | b'$GAGSV,3,3,09,36' |
016: 2c32 362c 3231 302c 3331 2c32 2a34 460d  | b',26,210,31,2*4F\r' |
032: 0a                                       | b'\n' |
<NMEA(GAGSV, numMsg=2, msgNum=1, numSV=8, svid_01=3, elv_01=8.0, az_01=271, cno_01=20, svid_02=5, elv_02=57.0, az_02=291, cno_02=46, svid_03=9, elv_03=59.0, az_03=61, cno_03=46, svid_04=15, elv_04=16.0, az_04=323, cno_04=32, signalID=7)>000: 2447 4147 5356 2c32 2c31 2c30 382c 3033  | b'$GAGSV,2,1,08,03' |
016: 2c30 382c 3237 312c 3230 2c30 352c 3537  | b',08,271,20,05,57' |
032: 2c32 3931 2c34 362c 3039 2c35 392c 3036  | b',291,46,09,59,06' |
048: 312c 3436 2c31 352c 3136 2c33 3233 2c33  | b'1,46,15,16,323,3' |
064: 322c 372a 3741 0d0a                      | b'2,7*7A\r\n' |
<NMEA(GAGSV, numMsg=2, msgNum=2, numSV=8, svid_01=24, elv_01=21.0, az_01=146, cno_01=36, svid_02=31, elv_02=33.0, az_02=92, cno_02=39, svid_03=34, elv_03=40.0, az_03=271, cno_03=40, svid_04=36, elv_04=26.0, az_04=210, cno_04=25, signalID=7)>000: 2447 4147 5356 2c32 2c32 2c30 382c 3234  | b'$GAGSV,2,2,08,24' |
016: 2c32 312c 3134 362c 3336 2c33 312c 3333  | b',21,146,36,31,33' |
032: 2c30 3932 2c33 392c 3334 2c34 302c 3237  | b',092,39,34,40,27' |
048: 312c 3430 2c33 362c 3236 2c32 3130 2c32  | b'1,40,36,26,210,2' |
064: 352c 372a 3744 0d0a                      | b'5,7*7D\r\n' |
