<NMEA(GNRMC, time=20:13:10.750000, status=A, lat=43.8825914917, NS=N, lon=-72.157674085, EW=W, spd=0.547, cog=302.47, date=2023-09-05, mv=, mvEW=, posMode=R, navStatus=V)>000: 2447 4e52 4d43 2c32 3031 3331 302e 3735  | b'$GNRMC,201310.75' |
016: 2c41 2c34 3335 322e 3935 3534 3839 352c  | b',A,4352.9554895,' |
032: 4e2c 3037 3230 392e 3436 3034 3435 312c  | b'N,07209.4604451,' |
048: 572c 302e 3534 372c 3330 322e 3437 2c30  | b'W,0.547,302.47,0' |
064: 3530 3932 332c 2c2c 522c 562a 3032 0d0a  | b'50923,,,R,V*02\r\n' |
<NMEA(GNVTG, cogt=302.47, cogtUnit=T, cogm=, cogmUnit=M, sogn=0.547, sognUnit=N, sogk=1.013, sogkUnit=K, posMode=D)>000: 2447 4e56 5447 2c33 3032 2e34 372c 542c  | b'$GNVTG,302.47,T,' |
016: 2c4d 2c30 2e35 3437 2c4e 2c31 2e30 3133  | b',M,0.547,N,1.013' |
032: 2c4b 2c44 2a32 310d 0a                   | b',K,D*21\r\n' |
<NMEA(GNGGA, time=20:13:10.750000, lat=43.8825914917, NS=N, lon=-72.157674085, EW=W, quality=4, numSV=12, HDOP=0.62, alt=141.414, altUnit=M, sep=-32.547, sepUnit=M, diffAge=, diffStation=0)>000: 2447 4e47 4741 2c32 3031 3331 302e 3735  | b'$GNGGA,201310.75' |
016: 2c34 3335 322e 3935 3534 3839 352c 4e2c  | b',4352.9554895,N,' |
032: 3037 3230 392e 3436 3034 3435 312c 572c  | b'07209.4604451,W,' |
048: 342c 3132 2c30 2e36 322c 3134 312e 3431  | b'4,12,0.62,141.41' |
064: 342c 4d2c 2d33 322e 3534 372c 4d2c 2c30  | b'4,M,-32.547,M,,0' |
080: 3030 302a 3744 0d0a                      | b'000*7D\r\n' |
<NMEA(GNGSA, opMode=A, navMode=3, svid_01=44, svid_02=25, svid_03=28, svid_04=21, svid_05=24, svid_06=10, svid_07=2, svid_08=12, svid_09=23, svid_10=32, svid_11=, svid_12=, PDOP=1.22, HDOP=0.62, VDOP=1.05, systemId=1)>000: 2447 4e47 5341 2c41 2c33 2c34 342c 3235  | b'$GNGSA,A,3,44,25' |
016: 2c32 382c 3231 2c32 342c 3130 2c30 322c  | b',28,21,24,10,02,' |
032: 3132 2c32 332c 3332 2c2c 2c31 2e32 322c  | b'12,23,32,,,1.22,' |
048: 302e 3632 2c31 2e30 352c 312a 3038 0d0a  | b'0.62,1.05,1*08\r\n' |
<NMEA(GNGSA, opMode=A, navMode=3, svid_01=87, svid_02=80, svid_03=70, svid_04=71, svid_05=72, svid_06=73, svid_07=, svid_08=, svid_09=, svid_10=, svid_11=, svid_12=, PDOP=1.22, HDOP=0.62, VDOP=1.05, systemId=2)>000: 2447 4e47 5341 2c41 2c33 2c38 372c 3830  | b'$GNGSA,A,3,87,80' |
016: 2c37 302c 3731 2c37 322c 3733 2c2c 2c2c  | b',70,71,72,73,,,,' |
032: 2c2c 2c31 2e32 322c 302e 3632 2c31 2e30  | b',,,1.22,0.62,1.0' |
048: 352c 322a 3034 0d0a                      | b'5,2*04\r\n' |
<NMEA(GNGSA, opMode=A, navMode=3, svid_01=36, svid_02=15, svid_03=5, svid_04=31, svid_05=34, svid_06=4, svid_07=9, svid_08=24, svid_09=, svid_10=, svid_11=, svid_12=, PDOP=1.22, HDOP=0.62, VDOP=1.05, systemId=3)>000: 2447 4e47 5341 2c41 2c33 2c33 362c 3135  | b'$GNGSA,A,3,36,15' |
016: 2c30 352c 3331 2c33 342c 3034 2c30 392c  | b',05,31,34,04,09,' |
032: 3234 2c2c 2c2c 2c31 2e32 322c 302e 3632  | b'24,,,,,1.22,0.62' |
048: 2c31 2e30 352c 332a 3038 0d0a            | b',1.05,3*08\r\n' |
<NMEA(GNGSA, opMode=A, navMode=3, svid_01=37, svid_02=19, svid_03=32, svid_04=20, svid_05=23, svid_06=, svid_07=, svid_08=, svid_09=, svid_10=, svid_11=, svid_12=, PDOP=1.22, HDOP=0.62, VDOP=1.05, systemId=4)>000: 2447 4e47 5341 2c41 2c33 2c33 372c 3139  | b'$GNGSA,A,3,37,19' |
016: 2c33 322c 3230 2c32 332c 2c2c 2c2c 2c2c  | b',32,20,23,,,,,,,' |
032: 2c31 2e32 322c 302e 3632 2c31 2e30 352c  | b',1.22,0.62,1.05,' |
048: 342a 3042 0d0a                           | b'4*0B\r\n' |
<NMEA(GPGSV, numMsg=3, msgNum=1, numSV=11, svid_01=2, elv_01=15.0, az_01=319, cno_01=38, svid_02=10, elv_02=84.0, az_02=280, cno_02=51, svid_03=12, elv_03=28.0, az_03=99, cno_03=32, svid_04=18, elv_04=5.0, az_04=184, cno_04=20, signalID=1)>000: 2447 5047 5356 2c33 2c31 2c31 312c 3032  | b'$GPGSV,3,1,11,02' |
016: 2c31 352c 3331 392c 3338 2c31 302c 3834  | b',15,319,38,10,84' |
032: 2c32 3830 2c35 312c 3132 2c32 382c 3039  | b',280,51,12,28,09' |
048: 392c 3332 2c31 382c 3035 2c31 3834 2c32  | b'9,32,18,05,184,2' |
064: 302c 312a 3638 0d0a                      | b'0,1*68\r\n' |
<NMEA(GPGSV, numMsg=3, msgNum=2, numSV=11, svid_01=21, elv_01=20.0, az_01=312, cno_01=35, svid_02=23, elv_02=53.0, az_02=140, cno_02=47, svid_03=24, elv_03=34.0, az_03=53, cno_03=38, svid_04=28, elv_04=23.0, az_04=218, cno_04=33, signalID=1)>000: 2447 5047 5356 2c33 2c32 2c31 312c 3231  | b'$GPGSV,3,2,11,21' |
016: 2c32 302c 3331 322c 3335 2c32 332c 3533  | b',20,312,35,23,53' |
032: 2c31 3430 2c34 372c 3234 2c33 342c 3035  | b',140,47,24,34,05' |
048: 332c 3338 2c32 382c 3233 2c32 3138 2c33  | b'3,38,28,23,218,3' |
064: 332c 312a 3646 0d0a                      | b'3,1*6F\r\n' |
<NMEA(GPGSV, numMsg=3, msgNum=3, numSV=11, svid_01=32, elv_01=50.0, az_01=285, cno_01=47, svid_02=44, elv_02=23.0, az_02=235, cno_02=40, svid_03=46, elv_03=15.0, az_03=246, cno_03=27, signalID=1)>000: 2447 5047 5356 2c33 2c33 2c31 312c 3332  | b'$GPGSV,3,3,11,32' |
016: 2c35 302c 3238 352c 3437 2c34 342c 3233  | b',50,285,47,44,23' |
032: 2c32 3335 2c34 302c 3436 2c31 352c 3234  | b',235,40,46,15,24' |
048: 362c 3237 2c31 2a35 450d 0a              | b'6,27,1*5E\r\n' |
<NMEA(GPGSV, numMsg=2, msgNum=1, numSV=8, svid_01=10, elv_01=84.0, az_01=280, cno_01=38, svid_02=12, elv_02=28.0, az_02=99, cno_02=22, svid_03=18, elv_03=5.0, az_03=184, cno_03=13, svid_04=23, elv_04=53.0, az_04=140, cno_04=35, signalID=6)>000: 2447 5047 5356 2c32 2c31 2c30 382c 3130  | b'$GPGSV,2,1,08,10' |
016: 2c38 342c 3238 302c 3338 2c31 322c 3238  | b',84,280,38,12,28' |
032: 2c30 3939 2c32 322c 3138 2c30 352c 3138  | b',099,22,18,05,18' |
048: 342c 3133 2c32 332c 3533 2c31 3430 2c33  | b'4,13,23,53,140,3' |
064: 352c 362a 3641 0d0a                      | b'5,6*6A\r\n' |
<NMEA(GPGSV, numMsg=2, msgNum=2, numSV=8, svid_01=24, elv_01=34.0, az_01=53, cno_01=30, svid_02=25, elv_02=21.0, az_02=143, cno_02=23, svid_03=28, elv_03=23.0, az_03=218, cno_03=29, svid_04=32, elv_04=50.0, az_04=285, cno_04=34, signalID=6)>000: 2447 5047 5356 2c32 2c32 2c30 382c 3234  | b'$GPGSV,2,2,08,24' |
016: 2c33 342c 3035 332c 3330 2c32 352c 3231  | b',34,053,30,25,21' |
032: 2c31 3433 2c32 332c 3238 2c32 332c 3231  | b',143,23,28,23,21' |
048: 382c 3239 2c33 322c 3530 2c32 3835 2c33  | b'8,29,32,50,285,3' |
064: 342c 362a 3642 0d0a                      | b'4,6*6B\r\n' |
<NMEA(GPGSV, numMsg=1, msgNum=1, numSV=1, svid_01=15, elv_01=6.0, az_01=89, cno_01=, signalID=0)>000: 2447 5047 5356 2c31 2c31 2c30 312c 3135  | b'$GPGSV,1,1,01,15' |
016: 2c30 362c 3038 392c 2c30 2a35 370d 0a    | b',06,089,,0*57\r\n' |
<NMEA(GLGSV, numMsg=3, msgNum=1, numSV=9, svid_01=70, elv_01=51.0, az_01=73, cno_01=37, svid_02=71, elv_02=56.0, az_02=331, cno_02=47, svid_03=72, elv_03=14.0, az_03=298, cno_03=26, svid_04=73, elv_04=45.0, az_04=151, cno_04=40, signalID=1)>000: 2447 4c47 5356 2c33 2c31 2c30 392c 3730  | b'$GLGSV,3,1,09,70' |
016: 2c35 312c 3037 332c 3337 2c37 312c 3536  | b',51,073,37,71,56' |
032: 2c33 3331 2c34 372c 3732 2c31 342c 3239  | b',331,47,72,14,29' |
048: 382c 3236 2c37 332c 3435 2c31 3531 2c34  | b'8,26,73,45,151,4' |
064: 302c 312a 3734 0d0a                      | b'0,1*74\r\n' |
<NMEA(GLGSV, numMsg=3, msgNum=2, numSV=9, svid_01=74, elv_01=9.0, az_01=181, cno_01=24, svid_02=79, elv_02=7.0, az_02=23, cno_02=24, svid_03=80, elv_03=48.0, az_03=59, cno_03=46, svid_04=86, elv_04=24.0, az_04=254, cno_04=43, signalID=1)>000: 2447 4c47 5356 2c33 2c32 2c30 392c 3734  | b'$GLGSV,3,2,09,74' |
016: 2c30 392c 3138 312c 3234 2c37 392c 3037  | b',09,181,24,79,07' |
032: 2c30 3233 2c32 342c 3830 2c34 382c 3035  | b',023,24,80,48,05' |
048: 392c 3436 2c38 362c 3234 2c32 3534 2c34  | b'9,46,86,24,254,4' |
064: 332c 312a 3743 0d0a                      | b'3,1*7C\r\n' |
<NMEA(GLGSV, numMsg=3, msgNum=3, numSV=9, svid_01=87, elv_01=23.0, az_01=313, cno_01=37, signalID=1)>000: 2447 4c47 5356 2c33 2c33 2c30 392c 3837  | b'$GLGSV,3,3,09,87' |
016: 2c32 332c 3331 332c 3337 2c31 2a34 410d  | b',23,313,37,1*4A\r' |
032: 0a                                       | b'\n' |
<NMEA(GLGSV, numMsg=1, msgNum=1, numSV=3, svid_01=71, elv_01=56.0, az_01=331, cno_01=31, svid_02=73, elv_02=45.0, az_02=151, cno_02=22, svid_03=85, elv_03=1.0, az_03=214, cno_03=8, signalID=3)>000: 2447 4c47 5356 2c31 2c31 2c30 332c 3731  | b'$GLGSV,1,1,03,71' |
016: 2c35 362c 3333 312c 3331 2c37 332c 3435  | b',56,331,31,73,45' |
032: 2c31 3531 2c32 322c 3835 2c30 312c 3231  | b',151,22,85,01,21' |
048: 342c 3038 2c33 2a34 430d 0a              | b'4,08,3*4C\r\n' |
<NMEA(GLGSV, numMsg=1, msgNum=1, numSV=1, svid_01=88, elv_01=0.0, az_01=356, cno_01=, signalID=0)>000: 2447 4c47 5356 2c31 2c31 2c30 312c 3838  | b'$GLGSV,1,1,01,88' |
016: 2c30 302c 3335 362c 2c30 2a34 380d 0a    | b',00,356,,0*48\r\n' |
<NMEA(GAGSV, numMsg=3, msgNum=1, numSV=9, svid_01=3, elv_01=8.0, az_01=271, cno_01=24, svid_02=4, elv_02=11.0, az_02=82, cno_02=20, svid_03=5, elv_03=57.0, az_03=290, cno_03=39, svid_04=9, elv_04=59.0, az_04=61, cno_04=38, signalID=2)>000: 2447 4147 5356 2c33 2c31 2c30 392c 3033  | b'$GAGSV,3,1,09,03' |
016: 2c30 382c 3237 312c 3234 2c30 342c 3131  | b',08,271,24,04,11' |
032: 2c30 3832 2c32 302c 3035 2c35 372c 3239  | b',082,20,05,57,29' |
048: 302c 3339 2c30 392c 3539 2c30 3631 2c33  | b'0,39,09,59,061,3' |
064: 382c 322a 3737 0d0a                      | b'8,2*77\r\n' |
<NMEA(GAGSV, numMsg=3, msgNum=2, numSV=9, svid_01=15, elv_01=16.0, az_01=323, cno_01=24, svid_02=24, elv_02=21.0, az_02=146, cno_02=26, svid_03=31, elv_03=33.0, az_03=92, cno_03=30, svid_04=34, elv_04=40.0, az_04=271, cno_04=37, signalID=2)>000: 2447 4147 5356 2c33 2c32 2c30 392c 3135  | b'$GAGSV,3,2,09,15' |
016: 2c31 362c 3332 332c 3234 2c32 342c 3231  | b',16,323,24,24,21' |
032: 2c31 3436 2c32 362c 3331 2c33 332c 3039  | b',146,26,31,33,09' |
048: 322c 3330 2c33 342c 3430 2c32 3731 2c33  | b'2,30,34,40,271,3' |
064: 372c 322a 3732 0d0a                      | b'7,2*72\r\n' |
<NMEA(GAGSV, numMsg=3, msgNum=3, numSV=9, svid_01=36, elv_01=26.0, az_01=210, cno_01=33, signalID=2)>000: 2447 4147 5356 2c33 2c33 2c30 392c 3336  | b'$GAGSV,3,3,09,36' |
016: 2c32 362c 3231 302c 3333 2c32 2a34 440d  | b',26,210,33,2*4D\r' |
032: 0a                                       | b'\n' |
<NMEA(GAGSV, numMsg=2, msgNum=1, numSV=8, svid_01=3, elv_01=8.0, az_01=271, cno_01=26, svid_02=5, elv_02=57.0, az_02=290, cno_02=44, svid_03=9, elv_03=59.0, az_03=61, cno_03=48, svid_04=15, elv_04=16.0, az_04=323, cno_04=31, signalID=7)>000: 2447 4147 5356 2c32 2c31 2c30 382c 3033  | b'$GAGSV,2,1,08,03' |
016: 2c30 382c 3237 312c 3236 2c30 352c 3537  | b',08,271,26,05,57' |
032: 2c32 3930 2c34 342c 3039 2c35 392c 3036  | b',290,44,09,59,06' |
048: 312c 3438 2c31 352c 3136 2c33 3233 2c33  | b'1,48,15,16,323,3' |
064: 312c 372a 3732 0d0a                      | b'1,7*72\r\n' |
<NMEA(GAGSV, numMsg=2, msgNum=2, numSV=8, svid_01=24, elv_01=21.0, az_01=146, cno_01=27, svid_02=31, elv_02=33.0, az_02=92, cno_02=39, svid_03=34, elv_03=40.0, az_03=271, cno_03=44, svid_04=36, elv_04=26.0, az_04=210, cno_04=28, signalID=7)>000: 2447 4147 5356 2c32 2c32 2c30 382c 3234  | b'$GAGSV,2,2,08,24' |
016: 2c32 312c 3134 362c 3237 2c33 312c 3333  | b',21,146,27,31,33' |
032: 2c30 3932 2c33 392c 3334 2c34 302c 3237  | b',092,39,34,40,27' |
048: 312c 3434 2c33 362c 3236 2c32 3130 2c32  | b'1,44,36,26,210,2' |
064: 382c 372a 3734 0d0a                      | b'8,7*74\r\n' |
<NMEA(GBGSV, numMsg=2, msgNum=1, numSV=7, svid_01=19, elv_01=27.0, az_01=300, cno_01=41, svid_02=20, elv_02=75.0, az_02=334, cno_02=50, svid_03=23, elv_03=32.0, az_03=52, cno_03=37, svid_04=29, elv_04=8.0, az_04=250, cno_04=26, signalID=1)>000: 2447 4247 5356 2c32 2c31 2c30 372c 3139  | b'$GBGSV,2,1,07,19' |
016: 2c32 372c 3330 302c 3431 2c32 302c 3735  | b',27,300,41,20,75' |
032: 2c33 3334 2c35 302c 3233 2c33 322c 3035  | b',334,50,23,32,05' |
048: 322c 3337 2c32 392c 3038 2c32 3530 2c32  | b'2,37,29,08,250,2' |
064: 362c 312a 3742 0d0a                      | b'6,1*7B\r\n' |
<NMEA(GNTXT, numMsg=1, msgNum=1, msgType=0, text=txbuf alloc)>000: 2447 4e54 5854 2c30 312c 3031 2c30 302c  | b'$GNTXT,01,01,00,' |
016: 7478 6275 6620 616c 6c6f 632a 3631 0d0a  | b'txbuf alloc*61\r\n' |
<NMEA(GNRMC, time=20:13:11.250000, status=A, lat=43.8825920117, NS=N, lon=-72.1576756483, EW=W, spd=0.356, cog=307.78, date=2023-09-05, mv=, mvEW=, posMode=R, navStatus=V)>000: 2447 4e52 4d43 2c32 3031 3331 312e 3235  | b'$GNRMC,201311.25' |
016: 2c41 2c34 3335 322e 3935 3535 3230 372c  | b',A,4352.9555207,' |
032: 4e2c 3037 3230 392e 3436 3035 3338 392c  | b'N,07209.4605389,' |
048: 572c 302e 3335 362c 3330 372e 3738 2c30  | b'W,0.356,307.78,0' |
064: 3530 3932 332c 2c2c 522c 562a 3041 0d0a  | b'50923,,,R,V*0A\r\n' |
<NMEA(GNVTG, cogt=307.78, cogtUnit=T, cogm=, cogmUnit=M, sogn=0.356, sognUnit=N, sogk=0.659, sogkUnit=K, posMode=D)>000: 2447 4e56 5447 2c33 3037 2e37 382c 542c  | b'$GNVTG,307.78,T,' |
016: 2c4d 2c30 2e33 3536 2c4e 2c30 2e36 3539  | b',M,0.356,N,0.659' |
032: 2c4b 2c44 2a32 370d 0a                   | b',K,D*27\r\n' |
<NMEA(GNGGA, time=20:13:11.250000, lat=43.8825920117, NS=N, lon=-72.1576756483, EW=W, quality=4, numSV=12, HDOP=0.62, alt=141.409, altUnit=M, sep=-32.547, sepUnit=M, diffAge=, diffStation=0)>000: 2447 4e47 4741 2c32 3031 3331 312e 3235  | b'$GNGGA,201311.25' |
016: 2c34 3335 322e 3935 3535 3230 372c 4e2c  | b',4352.9555207,N,' |
032: 3037 3230 392e 3436 3035 3338 392c 572c  | b'07209.4605389,W,' |
048: 342c 3132 2c30 2e36 322c 3134 312e 3430  | b'4,12,0.62,141.40' |
064: 392c 4d2c 2d33 322e 3534 372c 4d2c 2c30  | b'9,M,-32.547,M,,0' |
080: 3030 302a 3736 0d0a                      | b'000*76\r\n' |
<NMEA(GNGSA, opMode=A, navMode=3, svid_01=44, svid_02=25, svid_03=28, svid_04=21, svid_05=24, svid_06=46, svid_07=10, svid_08=2, svid_09=12, svid_10=23, svid_11=32, svid_12=, PDOP=1.22, HDOP=0.62, VDOP=1.05, systemId=1)>000: 2447 4e47 5341 2c41 2c33 2c34 342c 3235  | b'$GNGSA,A,3,44,25' |
016: 2c32 382c 3231 2c32 342c 3436 2c31 302c  | b',28,21,24,46,10,' |
032: 3032 2c31 322c 3233 2c33 322c 2c31 2e32  | b'02,12,23,32,,1.2' |
048: 322c 302e 3632 2c31 2e30 352c 312a 3041  | b'2,0.62,1.05,1*0A' |
064: 0d0a                                     | b'\r\n' |
<NMEA(GNGSA, opMode=A, navMode=3, svid_01=87, svid_02=80, svid_03=70, svid_04=71, svid_05=72, svid_06=73, svid_07=, svid_08=, svid_09=, svid_10=, svid_11=, svid_12=, PDOP=1.22, HDOP=0.62, VDOP=1.05, systemId=2)>000: 2447 4e47 5341 2c41 2c33 2c38 372c 3830  | b'$GNGSA,A,3,87,80' |
016: 2c37 302c 3731 2c37 322c 3733 2c2c 2c2c  | b',70,71,72,73,,,,' |
032: 2c2c 2c31 2e32 322c 302e 3632 2c31 2e30  | b',,,1.22,0.62,1.0' |
048: 352c 322a 3034 0d0a                      | b'5,2*04\r\n' |
<NMEA(GNGSA, opMode=A, navMode=3, svid_01=36, svid_02=15, svid_03=5, svid_04=31, svid_05=34, svid_06=4, svid_07=9, svid_08=24, svid_09=, svid_10=, svid_11=, svid_12=, PDOP=1.22, HDOP=0.62, VDOP=1.05, systemId=3)>000: 2447 4e47 5341 2c41 2c33 2c33 362c 3135  | b'$GNGSA,A,3,36,15' |
016: 2c30 352c 3331 2c33 342c 3034 2c30 392c  | b',05,31,34,04,09,' |
032: 3234 2c2c 2c2c 2c31 2e32 322c 302e 3632  | b'24,,,,,1.22,0.62' |
048: 2c31 2e30 352c 332a 3038 0d0a            | b',1.05,3*08\r\n' |
<NMEA(GNGSA, opMode=A, navMode=3, svid_01=37, svid_02=19, svid_03=32, svid_04=20, svid_05=23, svid_06=, svid_07=, svid_08=, svid_09=, svid_10=, svid_11=, svid_12=, PDOP=1.22, HDOP=0.62, VDOP=1.05, systemId=4)>000: 2447 4e47 5341 2c41 2c33 2c33 372c 3139  | b'$GNGSA,A,3,37,19' |
016: 2c33 322c 3230 2c32 332c 2c2c 2c2c 2c2c  | b',32,20,23,,,,,,,' |
032: 2c31 2e32 322c 302e 3632 2c31 2e30 352c  | b',1.22,0.62,1.05,' |
048: 342a 3042 0d0a                           | b'4*0B\r\n' |
<NMEA(GPGSV, numMsg=3, msgNum=1, numSV=12, svid_01=2, elv_01=15.0, az_01=319, cno_01=33, svid_02=10, elv_02=84.0, az_02=280, cno_02=51, svid_03=12, elv_03=28.0, az_03=99, cno_03=28, svid_04=18, elv_04=5.0, az_04=184, cno_04=20, signalID=1)>000: 2447 5047 5356 2c33 2c31 2c31 322c 3032  | b'$GPGSV,3,1,12,02' |
016: 2c31 352c 3331 392c 3333 2c31 302c 3834  | b',15,319,33,10,84' |
032: 2c32 3830 2c35 312c 3132 2c32 382c 3039  | b',280,51,12,28,09' |
048: 392c 3238 2c31 382c 3035 2c31 3834 2c32  | b'9,28,18,05,184,2' |
064: 302c 312a 3642 0d0a                      | b'0,1*6B\r\n' |
<NMEA(GPGSV, numMsg=3, msgNum=2, numSV=12, svid_01=21, elv_01=20.0, az_01=312, cno_01=32, svid_02=23, elv_02=53.0, az_02=140, cno_02=45, svid_03=24, elv_03=34.0, az_03=53, cno_03=37, svid_04=25, elv_04=21.0, az_04=143, cno_04=36, signalID=1)>000: 2447 5047 5356 2c33 2c32 2c31 322c 3231  | b'$GPGSV,3,2,12,21' |
016: 2c32 302c 3331 322c 3332 2c32 332c 3533  | b',20,312,32,23,53' |
032: 2c31 3430 2c34 352c 3234 2c33 342c 3035  | b',140,45,24,34,05' |
048: 332c 3337 2c32 352c 3231 2c31 3433 2c33  | b'3,37,25,21,143,3' |
064: 362c 312a 3631 0d0a                      | b'6,1*61\r\n' |
<NMEA(GPGSV, numMsg=3, msgNum=3, numSV=12, svid_01=28, elv_01=23.0, az_01=218, cno_01=38, svid_02=32, elv_02=50.0, az_02=285, cno_02=44, svid_03=44, elv_03=23.0, az_03=235, cno_03=37, svid_04=46, elv_04=15.0, az_04=246, cno_04=28, signalID=1)>000: 2447 5047 5356 2c33 2c33 2c31 322c 3238  | b'$GPGSV,3,3,12,28' |
016: 2c32 332c 3231 382c 3338 2c33 322c 3530  | b',23,218,38,32,50' |
032: 2c32 3835 2c34 342c 3434 2c32 332c 3233  | b',285,44,44,23,23' |
048: 352c 3337 2c34 362c 3135 2c32 3436 2c32  | b'5,37,46,15,246,2' |
064: 382c 312a 3641 0d0a                      | b'8,1*6A\r\n' |
<NMEA(GPGSV, numMsg=2, msgNum=1, numSV=8, svid_01=10, elv_01=84.0, az_01=280, cno_01=39, svid_02=12, elv_02=28.0, az_02=99, cno_02=20, svid_03=18, elv_03=5.0, az_03=184, cno_03=12, svid_04=23, elv_04=53.0, az_04=140, cno_04=38, signalID=6)>000: 2447 5047 5356 2c32 2c31 2c30 382c 3130  | b'$GPGSV,2,1,08,10' |
016: 2c38 342c 3238 302c 3339 2c31 322c 3238  | b',84,280,39,12,28' |
032: 2c30 3939 2c32 302c 3138 2c30 352c 3138  | b',099,20,18,05,18' |
048: 342c 3132 2c32 332c 3533 2c31 3430 2c33  | b'4,12,23,53,140,3' |
064: 382c 362a 3635 0d0a                      | b'8,6*65\r\n' |
<NMEA(GPGSV, numMsg=2, msgNum=2, numSV=8, svid_01=24, elv_01=34.0, az_01=53, cno_01=29, svid_02=25, elv_02=21.0, az_02=143, cno_02=23, svid_03=28, elv_03=23.0, az_03=218, cno_03=28, svid_04=32, elv_04=50.0, az_04=285, cno_04=34, signalID=6)>000: 2447 5047 5356 2c32 2c32 2c30 382c 3234  | b'$GPGSV,2,2,08,24' |
016: 2c33 342c 3035 332c 3239 2c32 352c 3231  | b',34,053,29,25,21' |
032: 2c31 3433 2c32 332c 3238 2c32 332c 3231  | b',143,23,28,23,21' |
048: 382c 3238 2c33 322c 3530 2c32 3835 2c33  | b'8,28,32,50,285,3' |
064: 342c 362a 3632 0d0a                      | b'4,6*62\r\n' |
<NMEA(GPGSV, numMsg=1, msgNum=1, numSV=1, svid_01=15, elv_01=6.0, az_01=89, cno_01=, signalID=0)>000: 2447 5047 5356 2c31 2c31 2c30 312c 3135  | b'$GPGSV,1,1,01,15' |
016: 2c30 362c 3038 392c 2c30 2a35 370d 0a    | b',06,089,,0*57\r\n' |
<NMEA(GLGSV, numMsg=3, msgNum=1, numSV=9, svid_01=70, elv_01=51.0, az_01=73, cno_01=35, svid_02=71, elv_02=56.0, az_02=331, cno_02=47, svid_03=72, elv_03=14.0, az_03=298, cno_03=25, svid_04=73, elv_04=45.0, az_04=151, cno_04=42, signalID=1)>000: 2447 4c47 5356 2c33 2c31 2c30 392c 3730  | b'$GLGSV,3,1,09,70' |
016: 2c35 312c 3037 332c 3335 2c37 312c 3536  | b',51,073,35,71,56' |
032: 2c33 3331 2c34 372c 3732 2c31 342c 3239  | b',331,47,72,14,29' |
048: 382c 3235 2c37 332c 3435 2c31 3531 2c34  | b'8,25,73,45,151,4' |
064: 322c 312a 3737 0d0a                      | b'2,1*77\r\n' |
<NMEA(GLGSV, numMsg=3, msgNum=3, numSV=9, svid_01=87, elv_01=23.0, az_01=313, cno_01=35, signalID=1)>000: 2447 4c47 5356 2c33 2c33 2c30 392c 3837  | b'$GLGSV,3,3,09,87' |
016: 2c32 332c 3331 332c 3335 2c31 2a34 380d  | b',23,313,35,1*48\r' |
032: 0a                                       | b'\n' |
<NMEA(GLGSV, numMsg=1, msgNum=1, numSV=3, svid_01=71, elv_01=56.0, az_01=331, cno_01=32, svid_02=73, elv_02=45.0, az_02=151, cno_02=30, svid_03=85, elv_03=1.0, az_03=214, cno_03=13, signalID=3)>000: 2447 4c47 5356 2c31 2c31 2c30 332c 3731  | b'$GLGSV,1,1,03,71' |
016: 2c35 362c 3333 312c 3332 2c37 332c 3435  | b',56,331,32,73,45' |
032: 2c31 3531 2c33 302c 3835 2c30 312c 3231  | b',151,30,85,01,21' |
048: 342c 3133 2c33 2a34 360d 0a              | b'4,13,3*46\r\n' |
<NMEA(GLGSV, numMsg=1, msgNum=1, numSV=1, svid_01=88, elv_01=0.0, az_01=356, cno_01=, signalID=0)>000: 2447 4c47 5356 2c31 2c31 2c30 312c 3838  | b'$GLGSV,1,1,01,88' |
016: 2c30 302c 3335 362c 2c30 2a34 380d 0a    | b',00,356,,0*48\r\n' |
<NMEA(GAGSV, numMsg=3, msgNum=1, numSV=9, svid_01=3, elv_01=8.0, az_01=271, cno_01=24, svid_02=4, elv_02=11.0, az_02=82, cno_02=28, svid_03=5, elv_03=57.0, az_03=290, cno_03=39, svid_04=9, elv_04=59.0, az_04=61, cno_04=38, signalID=2)>000: 2447 4147 5356 2c33 2c31 2c30 392c 3033  | b'$GAGSV,3,1,09,03' |
016: 2c30 382c 3237 312c 3234 2c30 342c 3131  | b',08,271,24,04,11' |
032: 2c30 3832 2c32 382c 3035 2c35 372c 3239  | b',082,28,05,57,29' |
048: 302c 3339 2c30 392c 3539 2c30 3631 2c33  | b'0,39,09,59,061,3' |
064: 382c 322a 3746 0d0a                      | b'8,2*7F\r\n' |
<NMEA(GAGSV, numMsg=3, msgNum=2, numSV=9, svid_01=15, elv_01=16.0, az_01=323, cno_01=30, svid_02=24, elv_02=21.0, az_02=146, cno_02=27, svid_03=31, elv_03=33.0, az_03=92, cno_03=34, svid_04=34, elv_04=40.0, az_04=271, cno_04=40, signalID=2)>000: 2447 4147 5356 2c33 2c32 2c30 392c 3135  | b'$GAGSV,3,2,09,15' |
016: 2c31 362c 3332 332c 3330 2c32 342c 3231  | b',16,323,30,24,21' |
032: 2c31 3436 2c32 372c 3331 2c33 332c 3039  | b',146,27,31,33,09' |
048: 322c 3334 2c33 342c 3430 2c32 3731 2c34  | b'2,34,34,40,271,4' |
064: 302c 322a 3732 0d0a                      | b'0,2*72\r\n' |
<NMEA(GAGSV, numMsg=3, msgNum=3, numSV=9, svid_01=36, elv_01=26.0, az_01=210, cno_01=30, signalID=2)>000: 2447 4147 5356 2c33 2c33 2c30 392c 3336  | b'$GAGSV,3,3,09,36' |
016: 2c32 362c 3231 302c 3330 2c32 2a34 450d  | b',26,210,30,2*4E\r' |
032: 0a                                       | b'\n' |
<NMEA(GAGSV, numMsg=2, msgNum=1, numSV=8, svid_01=3, elv_01=8.0, az_01=271, cno_01=26, svid_02=5, elv_02=57.0, az_02=290, cno_02=46, svid_03=9, elv_03=59.0, az_03=61, cno_03=47, svid_04=15, elv_04=16.0, az_04=323, cno_04=31, signalID=7)>000: 2447 4147 5356 2c32 2c31 2c30 382c 3033  | b'$GAGSV,2,1,08,03' |
016: 2c30 382c 3237 312c 3236 2c30 352c 3537  | b',08,271,26,05,57' |
032: 2c32 3930 2c34 362c 3039 2c35 392c 3036  | b',290,46,09,59,06' |
048: 312c 3437 2c31 352c 3136 2c33 3233 2c33  | b'1,47,15,16,323,3' |
064: 312c 372a 3746 0d0a                      | b'1,7*7F\r\n' |
<NMEA(GAGSV, numMsg=2, msgNum=2, numSV=8, svid_01=24, elv_01=21.0, az_01=146, cno_01=38, svid_02=31, elv_02=33.0, az_02=92, cno_02=34, svid_03=34, elv_03=40.0, az_03=271, cno_03=45, svid_04=36, elv_04=26.0, az_04=210, cno_04=38, signalID=7)>000: 2447 4147 5356 2c32 2c32 2c30 382c 3234  | b'$GAGSV,2,2,08,24' |
016: 2c32 312c 3134 362c 3338 2c33 312c 3333  | b',21,146,38,31,33' |
032: 2c30 3932 2c33 342c 3334 2c34 302c 3237  | b',092,34,34,40,27' |
048: 312c 3435 2c33 362c 3236 2c32 3130 2c33  | b'1,45,36,26,210,3' |
064: 382c 372a 3737 0d0a                      | b'8,7*77\r\n' |
<NMEA(GBGSV, numMsg=2, msgNum=1, numSV=7, svid_01=19, elv_01=27.0, az_01=300, cno_01=42, svid_02=20, elv_02=75.0, az_02=334, cno_02=51, svid_03=23, elv_03=32.0, az_03=52, cno_03=40, svid_04=29, elv_04=8.0, az_04=250, cno_04=26, signalID=1)>000: 2447 4247 5356 2c32 2c31 2c30 372c 3139  | b'$GBGSV,2,1,07,19' |
016: 2c32 372c 3330 302c 3432 2c32 302c 3735  | b',27,300,42,20,75' |
032: 2c33 3334 2c35 312c 3233 2c33 322c 3035  | b',334,51,23,32,05' |
048: 322c 3430 2c32 392c 3038 2c32 3530 2c32  | b'2,40,29,08,250,2' |
064: 362c 312a 3739 0d0a                      | b'6,1*79\r\n' |
<NMEA(GBGSV, numMsg=2, msgNum=2, numSV=7, svid_01=32, elv_01=42.0, az_01=104, cno_01=47, svid_02=35, elv_02=10.0, az_02=303, cno_02=27, svid_03=37, elv_03=58.0, az_03=127, cno_03=44, signalID=1)>000: 2447 4247 5356 2c32 2c32 2c30 372c 3332  | b'$GBGSV,2,2,07,32' |
016: 2c34 322c 3130 342c 3437 2c33 352c 3130  | b',42,104,47,35,10' |
032: 2c33 3033 2c32 372c 3337 2c35 382c 3132  | b',303,27,37,58,12' |
048: 372c 3434 2c31 2a34 460d 0a              | b'7,44,1*4F\r\n' |
<NMEA(GBGSV, numMsg=1, msgNum=1, numSV=2, svid_01=20, elv_01=75.0, az_01=334, cno_01=9, svid_02=23, elv_02=32.0, az_02=52, cno_02=7, signalID=3)>000: 2447 4247 5356 2c31 2c31 2c30 322c 3230  | b'$GBGSV,1,1,02,20' |
016: 2c37 352c 3333 342c 3039 2c32 332c 3332  | b',75,334,09,23,32' |
032: 2c30 3532 2c30 372c 332a 3742 0d0a       | b',052,07,3*7B\r\n' |
<NMEA(GNGLL, lat=43.8825920117, NS=N, lon=-72.1576756483, EW=W, time=20:13:11.250000, status=A, posMode=D)>000: 2447 4e47 4c4c 2c34 3335 322e 3935 3535  | b'$GNGLL,4352.9555' |
016: 3230 372c 4e2c 3037 3230 392e 3436 3035  | b'207,N,07209.4605' |
032: 3338 392c 572c 3230 3133 3131 2e32 352c  | b'389,W,201311.25,' |
048: 412c 442a 3637 0d0a                      | b'A,D*67\r\n' |
<NMEA(GNRMC, time=20:13:11.500000, status=A, lat=43.8825921483, NS=N, lon=-72.15767679, EW=W, spd=0.629, cog=275.38, date=2023-09-05, mv=, mvEW=, posMode=R, navStatus=V)>000: 2447 4e52 4d43 2c32 3031 3331 312e 3530  | b'$GNRMC,201311.50' |
016: 2c41 2c34 3335 322e 3935 3535 3238 392c  | b',A,4352.9555289,' |
032: 4e2c 3037 3230 392e 3436 3036 3037 342c  | b'N,07209.4606074,' |
048: 572c 302e 3632 392c 3237 352e 3338 2c30  | b'W,0.629,275.38,0' |
064: 3530 3932 332c 2c2c 522c 562a 3031 0d0a  | b'50923,,,R,V*01\r\n' |
<NMEA(GNVTG, cogt=275.38, cogtUnit=T, cogm=, cogmUnit=M, sogn=0.629, sognUnit=N, sogk=1.165, sogkUnit=K, posMode=D)>000: 2447 4e56 5447 2c32 3735 2e33 382c 542c  | b'$GNVTG,275.38,T,' |
016: 2c4d 2c30 2e36 3239 2c4e 2c31 2e31 3635  | b',M,0.629,N,1.165' |
032: 2c4b 2c44 2a32 330d 0a                   | b',K,D*23\r\n' |
<NMEA(GNGGA, time=20:13:11.500000, lat=43.8825921483, NS=N, lon=-72.15767679, EW=W, quality=4, numSV=12, HDOP=0.62, alt=141.41, altUnit=M, sep=-32.547, sepUnit=M, diffAge=, diffStation=0)>000: 2447 4e47 4741 2c32 3031 3331 312e 3530  | b'$GNGGA,201311.50' |
016: 2c34 3335 322e 3935 3535 3238 392c 4e2c  | b',4352.9555289,N,' |
032: 3037 3230 392e 3436 3036 3037 342c 572c  | b'07209.4606074,W,' |
048: 342c 3132 2c30 2e36 322c 3134 312e 3431  | b'4,12,0.62,141.41' |
064: 302c 4d2c 2d33 322e 3534 372c 4d2c 2c30  | b'0,M,-32.547,M,,0' |
080: 3030 302a 3738 0d0a                      | b'000*78\r\n' |
<NMEA(GNGSA, opMode=A, navMode=3, svid_01=44, svid_02=25, svid_03=28, svid_04=21, svid_05=24, svid_06=46, svid_07=10, svid_08=2, svid_09=12, svid_10=23, svid_11=32, svid_12=, PDOP=1.22, HDOP=0.62, VDOP=1.05, systemId=1)>000: 2447 4e47 5341 2c41 2c33 2c34 342c 3235  | b'$GNGSA,A,3,44,25' |
016: 2c32 382c 3231 2c32 342c 3436 2c31 302c  | b',28,21,24,46,10,' |
032: 3032 2c31 322c 3233 2c33 322c 2c31 2e32  | b'02,12,23,32,,1.2' |
048: 322c 302e 3632 2c31 2e30 352c 312a 3041  | b'2,0.62,1.05,1*0A' |
064: 0d0a                                     | b'\r\n' |
<NMEA(GNGSA, opMode=A, navMode=3, svid_01=87, svid_02=80, svid_03=70, svid_04=71, svid_05=72, svid_06=73, svid_07=, svid_08=, svid_09=, svid_10=, svid_11=, svid_12=, PDOP=1.22, HDOP=0.62, VDOP=1.05, systemId=2)>000: 2447 4e47 5341 2c41 2c33 2c38 372c 3830  | b'$GNGSA,A,3,87,80' |
016: 2c37 302c 3731 2c37 322c 3733 2c2c 2c2c  | b',70,71,72,73,,,,' |
032: 2c2c 2c31 2e32 322c 302e 3632 2c31 2e30  | b',,,1.22,0.62,1.0' |
048: 352c 322a 3034 0d0a                      | b'5,2*04\r\n' |
<NMEA(GNGSA, opMode=A, navMode=3, svid_01=36, svid_02=15, svid_03=5, svid_04=31, svid_05=34, svid_06=4, svid_07=9, svid_08=24, svid_09=, svid_10=, svid_11=, svid_12=, PDOP=1.22, HDOP=0.62, VDOP=1.05, systemId=3)>000: 2447 4e47 5341 2c41 2c33 2c33 362c 3135  | b'$GNGSA,A,3,36,15' |
016: 2c30 352c 3331 2c33 342c 3034 2c30 392c  | b',05,31,34,04,09,' |
032: 3234 2c2c 2c2c 2c31 2e32 322c 302e 3632  | b'24,,,,,1.22,0.62' |
048: 2c31 2e30 352c 332a 3038 0d0a            | b',1.05,3*08\r\n' |
<NMEA(GNGSA, opMode=A, navMode=3, svid_01=37, svid_02=19, svid_03=32, svid_04=20, svid_05=23, svid_06=, svid_07=, svid_08=, svid_09=, svid_10=, svid_11=, svid_12=, PDOP=1.22, HDOP=0.62, VDOP=1.05, systemId=4)>000: 2447 4e47 5341 2c41 2c33 2c33 372c 3139  | b'$GNGSA,A,3,37,19' |
016: 2c33 322c 3230 2c32 332c 2c2c 2c2c 2c2c  | b',32,20,23,,,,,,,' |
032: 2c31 2e32 322c 302e 3632 2c31 2e30 352c  | b',1.22,0.62,1.05,' |
048: 342a 3042 0d0a                           | b'4*0B\r\n' |
<NMEA(GPGSV, numMsg=3, msgNum=1, numSV=12, svid_01=2, elv_01=15.0, az_01=319, cno_01=30, svid_02=10, elv_02=84.0, az_02=280, cno_02=50, svid_03=12, elv_03=28.0, az_03=99, cno_03=39, svid_04=18, elv_04=5.0, az_04=184, cno_04=20, signalID=1)>000: 2447 5047 5356 2c33 2c31 2c31 322c 3032  | b'$GPGSV,3,1,12,02' |
016: 2c31 352c 3331 392c 3330 2c31 302c 3834  | b',15,319,30,10,84' |
032: 2c32 3830 2c35 302c 3132 2c32 382c 3039  | b',280,50,12,28,09' |
048: 392c 3339 2c31 382c 3035 2c31 3834 2c32  | b'9,39,18,05,184,2' |
064: 302c 312a 3639 0d0a                      | b'0,1*69\r\n' |
<NMEA(GPGSV, numMsg=3, msgNum=2, numSV=12, svid_01=21, elv_01=20.0, az_01=312, cno_01=28, svid_02=23, elv_02=53.0, az_02=140, cno_02=49, svid_03=24, elv_03=34.0, az_03=53, cno_03=41, svid_04=25, elv_04=21.0, az_04=143, cno_04=36, signalID=1)>000: 2447 5047 5356 2c33 2c32 2c31 322c 3231  | b'$GPGSV,3,2,12,21' |
016: 2c32 302c 3331 322c 3238 2c32 332c 3533  | b',20,312,28,23,53' |
032: 2c31 3430 2c34 392c 3234 2c33 342c 3035  | b',140,49,24,34,05' |
048: 332c 3431 2c32 352c 3231 2c31 3433 2c33  | b'3,41,25,21,143,3' |
064: 362c 312a 3637 0d0a                      | b'6,1*67\r\n' |
<NMEA(GPGSV, numMsg=3, msgNum=3, numSV=12, svid_01=28, elv_01=23.0, az_01=218, cno_01=32, svid_02=32, elv_02=50.0, az_02=285, cno_02=43, svid_03=44, elv_03=23.0, az_03=235, cno_03=37, svid_04=46, elv_04=15.0, az_04=246, cno_04=28, signalID=1)>000: 2447 5047 5356 2c33 2c33 2c31 322c 3238  | b'$GPGSV,3,3,12,28' |
016: 2c32 332c 3231 382c 3332 2c33 322c 3530  | b',23,218,32,32,50' |
032: 2c32 3835 2c34 332c 3434 2c32 332c 3233  | b',285,43,44,23,23' |
048: 352c 3337 2c34 362c 3135 2c32 3436 2c32  | b'5,37,46,15,246,2' |
064: 382c 312a 3637 0d0a                      | b'8,1*67\r\n' |
<NMEA(GPGSV, numMsg=2, msgNum=1, numSV=8, svid_01=10, elv_01=84.0, az_01=280, cno_01=40, svid_02=12, elv_02=28.0, az_02=99, cno_02=20, svid_03=18, elv_03=5.0, az_03=184, cno_03=11, svid_04=23, elv_04=53.0, az_04=140, cno_04=38, signalID=6)>000: 2447 5047 5356 2c32 2c31 2c30 382c 3130  | b'$GPGSV,2,1,08,10' |
016: 2c38 342c 3238 302c 3430 2c31 322c 3238  | b',84,280,40,12,28' |
032: 2c30 3939 2c32 302c 3138 2c30 352c 3138  | b',099,20,18,05,18' |
048: 342c 3131 2c32 332c 3533 2c31 3430 2c33  | b'4,11,23,53,140,3' |
064: 382c 362a 3638 0d0a                      | b'8,6*68\r\n' |
<NMEA(GPGSV, numMsg=1, msgNum=1, numSV=1, svid_01=15, elv_01=6.0, az_01=89, cno_01=, signalID=0)>000: 2447 5047 5356 2c31 2c31 2c30 312c 3135  | b'$GPGSV,1,1,01,15' |
016: 2c30 362c 3038 392c 2c30 2a35 370d 0a    | b',06,089,,0*57\r\n' |
<NMEA(GLGSV, numMsg=3, msgNum=1, numSV=9, svid_01=70, elv_01=51.0, az_01=73, cno_01=35, svid_02=71, elv_02=56.0, az_02=331, cno_02=47, svid_03=72, elv_03=14.0, az_03=298, cno_03=25, svid_04=73, elv_04=45.0, az_04=151, cno_04=50, signalID=1)>000: 2447 4c47 5356 2c33 2c31 2c30 392c 3730  | b'$GLGSV,3,1,09,70' |
016: 2c35 312c 3037 332c 3335 2c37 312c 3536  | b',51,073,35,71,56' |
032: 2c33 3331 2c34 372c 3732 2c31 342c 3239  | b',331,47,72,14,29' |
048: 382c 3235 2c37 332c 3435 2c31 3531 2c35  | b'8,25,73,45,151,5' |
064: 302c 312a 3734 0d0a                      | b'0,1*74\r\n' |
<NMEA(GLGSV, numMsg=3, msgNum=2, numSV=9, svid_01=74, elv_01=9.0, az_01=181, cno_01=23, svid_02=79, elv_02=7.0, az_02=23, cno_02=30, svid_03=80, elv_03=48.0, az_03=59, cno_03=47, svid_04=86, elv_04=24.0, az_04=254, cno_04=34, signalID=1)>000: 2447 4c47 5356 2c33 2c32 2c30 392c 3734  | b'$GLGSV,3,2,09,74' |
016: 2c30 392c 3138 312c 3233 2c37 392c 3037  | b',09,181,23,79,07' |
032: 2c30 3233 2c33 302c 3830 2c34 382c 3035  | b',023,30,80,48,05' |
048: 392c 3437 2c38 362c 3234 2c32 3534 2c33  | b'9,47,86,24,254,3' |
064: 342c 312a 3746 0d0a                      | b'4,1*7F\r\n' |
<NMEA(GLGSV, numMsg=3, msgNum=3, numSV=9, svid_01=87, elv_01=23.0, az_01=313, cno_01=31, signalID=1)>000: 2447 4c47 5356 2c33 2c33 2c30 392c 3837  | b'$GLGSV,3,3,09,87' |
016: 2c32 332c 3331 332c 3331 2c31 2a34 430d  | b',23,313,31,1*4C\r' |
032: 0a                                       | b'\n' |
<NMEA(GLGSV, numMsg=1, msgNum=1, numSV=3, svid_01=71, elv_01=56.0, az_01=331, cno_01=32, svid_02=73, elv_02=45.0, az_02=151, cno_02=31, svid_03=85, elv_03=1.0, az_03=214, cno_03=12, signalID=3)>000: 2447 4c47 5356 2c31 2c31 2c30 332c 3731  | b'$GLGSV,1,1,03,71' |
016: 2c35 362c 3333 312c 3332 2c37 332c 3435  | b',56,331,32,73,45' |
032: 2c31 3531 2c33 312c 3835 2c30 312c 3231  | b',151,31,85,01,21' |
048: 342c 3132 2c33 2a34 360d 0a              | b'4,12,3*46\r\n' |
<NMEA(GLGSV, numMsg=1, msgNum=1, numSV=1, svid_01=88, elv_01=0.0, az_01=356, cno_01=, signalID=0)>000: 2447 4c47 5356 2c31 2c31 2c30 312c 3838  | b'$GLGSV,1,1,01,88' |
016: 2c30 302c 3335 362c 2c30 2a34 380d 0a    | b',00,356,,0*48\r\n' |
<NMEA(GAGSV, numMsg=3, msgNum=1, numSV=9, svid_01=3, elv_01=8.0, az_01=271, cno_01=24, svid_02=4, elv_02=11.0, az_02=82, cno_02=27, svid_03=5, elv_03=57.0, az_03=290, cno_03=39, svid_04=9, elv_04=59.0, az_04=61, cno_04=38, signalID=2)>000: 2447 4147 5356 2c33 2c31 2c30 392c 3033  | b'$GAGSV,3,1,09,03' |
016: 2c30 382c 3237 312c 3234 2c30 342c 3131  | b',08,271,24,04,11' |
032: 2c30 3832 2c32 372c 3035 2c35 372c 3239  | b',082,27,05,57,29' |
048: 302c 3339 2c30 392c 3539 2c30 3631 2c33  | b'0,39,09,59,061,3' |
064: 382c 322a 3730 0d0a                      | b'8,2*70\r\n' |
<NMEA(GAGSV, numMsg=3, msgNum=2, numSV=9, svid_01=15, elv_01=16.0, az_01=323, cno_01=30, svid_02=24, elv_02=21.0, az_02=146, cno_02=26, svid_03=31, elv_03=33.0, az_03=92, cno_03=33, svid_04=34, elv_04=40.0, az_04=271, cno_04=39, signalID=2)>000: 2447 4147 5356 2c33 2c32 2c30 392c 3135  | b'$GAGSV,3,2,09,15' |
016: 2c31 362c 3332 332c 3330 2c32 342c 3231  | b',16,323,30,24,21' |
032: 2c31 3436 2c32 362c 3331 2c33 332c 3039  | b',146,26,31,33,09' |
048: 322c 3333 2c33 342c 3430 2c32 3731 2c33  | b'2,33,34,40,271,3' |
064: 392c 322a 3741 0d0a                      | b'9,2*7A\r\n' |
<NMEA(GAGSV, numMsg=3, msgNum=3, numSV=9, svid_01=36, elv_01=26.0, az_01=210, cno_01=29, signalID=2)>000: 2447 4147 5356 2c33 2c33 2c30 392c 3336  | b'$GAGSV,3,3,09,36' |
016: 2c32 362c 3231 302c 3239 2c32 2a34 360d  | b',26,210,29,2*46\r' |
032: 0a                                       | b'\n' |
<NMEA(GAGSV, numMsg=2, msgNum=1, numSV=8, svid_01=3, elv_01=8.0, az_01=271, cno_01=26, svid_02=5, elv_02=57.0, az_02=290, cno_02=42, svid_03=9, elv_03=59.0, az_03=61, cno_03=47, svid_04=15, elv_04=16.0, az_04=323, cno_04=34, signalID=7)>000: 2447 4147 5356 2c32 2c31 2c30 382c 3033  | b'$GAGSV,2,1,08,03' |
016: 2c30 382c 3237 312c 3236 2c30 352c 3537  | b',08,271,26,05,57' |
032: 2c32 3930 2c34 322c 3039 2c35 392c 3036  | b',290,42,09,59,06' |
048: 312c 3437 2c31 352c 3136 2c33 3233 2c33  | b'1,47,15,16,323,3' |
064: 342c 372a 3745 0d0a                      | b'4,7*7E\r\n' |
<NMEA(GAGSV, numMsg=2, msgNum=2, numSV=8, svid_01=24, elv_01=21.0, az_01=146, cno_01=34, svid_02=31, elv_02=33.0, az_02=92, cno_02=34, svid_03=34, elv_03=40.0, az_03=271, cno_03=45, svid_04=36, elv_04=26.0, az_04=210, cno_04=38, signalID=7)>000: 2447 4147 5356 2c32 2c32 2c30 382c 3234  | b'$GAGSV,2,2,08,24' |
016: 2c32 312c 3134 362c 3334 2c33 312c 3333  | b',21,146,34,31,33' |
032: 2c30 3932 2c33 342c 3334 2c34 302c 3237  | b',092,34,34,40,27' |
048: 312c 3435 2c33 362c 3236 2c32 3130 2c33  | b'1,45,36,26,210,3' |
064: 382c 372a 3742 0d0a                      | b'8,7*7B\r\n' |
<NMEA(GBGSV, numMsg=2, msgNum=1, numSV=7, svid_01=19, elv_01=27.0, az_01=300, cno_01=43, svid_02=20, elv_02=75.0, az_02=334, cno_02=52, svid_03=23, elv_03=32.0, az_03=52, cno_03=45, svid_04=29, elv_04=8.0, az_04=250, cno_04=25, signalID=1)>000: 2447 4247 5356 2c32 2c31 2c30 372c 3139  | b'$GBGSV,2,1,07,19' |
016: 2c32 372c 3330 302c 3433 2c32 302c 3735  | b',27,300,43,20,75' |
032: 2c33 3334 2c35 322c 3233 2c33 322c 3035  | b',334,52,23,32,05' |
048: 322c 3435 2c32 392c 3038 2c32 3530 2c32  | b'2,45,29,08,250,2' |
064: 352c 312a 3744 0d0a                      | b'5,1*7D\r\n' |
<NMEA(GBGSV, numMsg=2, msgNum=2, numSV=7, svid_01=32, elv_01=42.0, az_01=104, cno_01=48, svid_02=35, elv_02=10.0, az_02=303, cno_02=32, svid_03=37, elv_03=58.0, az_03=127, cno_03=50, signalID=1)>000: 2447 4247 5356 2c32 2c32 2c30 372c 3332  | b'$GBGSV,2,2,07,32' |
016: 2c34 322c 3130 342c 3438 2c33 352c 3130  | b',42,104,48,35,10' |
032: 2c33 3033 2c33 322c 3337 2c35 382c 3132  | b',303,32,37,58,12' |
048: 372c 3530 2c31 2a34 310d 0a              | b'7,50,1*41\r\n' |
<NMEA(GBGSV, numMsg=1, msgNum=1, numSV=2, svid_01=20, elv_01=75.0, az_01=334, cno_01=9, svid_02=23, elv_02=32.0, az_02=52, cno_02=8, signalID=3)>000: 2447 4247 5356 2c31 2c31 2c30 322c 3230  | b'$GBGSV,1,1,02,20' |
016: 2c37 352c 3333 342c 3039 2c32 332c 3332  | b',75,334,09,23,32' |
032: 2c30 3532 2c30 382c 332a 3734 0d0a       | b',052,08,3*74\r\n' |
<NMEA(GNGLL, lat=43.8825921483, NS=N, lon=-72.15767679, EW=W, time=20:13:11.500000, status=A, posMode=D)>000: 2447 4e47 4c4c 2c34 3335 322e 3935 3535  | b'$GNGLL,4352.9555' |
016: 3238 392c 4e2c 3037 3230 392e 3436 3036  | b'289,N,07209.4606' |
032: 3037 342c 572c 3230 3133 3131 2e35 302c  | b'074,W,201311.50,' |
048: 412c 442a 3631 0d0a                      | b'A,D*61\r\n' |
<NMEA(GNRMC, time=20:13:11.750000, status=A, lat=43.8825926433, NS=N, lon=-72.1576781417, EW=W, spd=0.876, cog=305.55, date=2023-09-05, mv=, mvEW=, posMode=R, navStatus=V)>000: 2447 4e52 4d43 2c32 3031 3331 312e 3735  | b'$GNRMC,201311.75' |
016: 2c41 2c34 3335 322e 3935 3535 3538 362c  | b',A,4352.9555586,' |
032: 4e2c 3037 3230 392e 3436 3036 3838 352c  | b'N,07209.4606885,' |
048: 572c 302e 3837 362c 3330 352e 3535 2c30  | b'W,0.876,305.55,0' |
064: 3530 3932 332c 2c2c 522c 562a 3031 0d0a  | b'50923,,,R,V*01\r\n' |
<NMEA(GNVTG, cogt=305.55, cogtUnit=T, cogm=, cogmUnit=M, sogn=0.876, sognUnit=N, sogk=1.623, sogkUnit=K, posMode=D)>000: 2447 4e56 5447 2c33 3035 2e35 352c 542c  | b'$GNVTG,305.55,T,' |
016: 2c4d 2c30 2e38 3736 2c4e 2c31 2e36 3233  | b',M,0.876,N,1.623' |
032: 2c4b 2c44 2a32 460d 0a                   | b',K,D*2F\r\n' |
<NMEA(GNGGA, time=20:13:11.750000, lat=43.8825926433, NS=N, lon=-72.1576781417, EW=W, quality=4, numSV=12, HDOP=0.62, alt=141.429, altUnit=M, sep=-32.547, sepUnit=M, diffAge=, diffStation=0)>000: 2447 4e47 4741 2c32 3031 3331 312e 3735  | b'$GNGGA,201311.75' |
016: 2c34 3335 322e 3935 3535 3538 362c 4e2c  | b',4352.9555586,N,' |
032: 3037 3230 392e 3436 3036 3838 352c 572c  | b'07209.4606885,W,' |
048: 342c 3132 2c30 2e36 322c 3134 312e 3432  | b'4,12,0.62,141.42' |
064: 392c 4d2c 2d33 322e 3534 372c 4d2c 2c30  | b'9,M,-32.547,M,,0' |
080: 3030 302a 3742 0d0a                      | b'000*7B\r\n' |
<NMEA(GNGSA, opMode=A, navMode=3, svid_01=44, svid_02=25, svid_03=28, svid_04=21, svid_05=24, svid_06=46, svid_07=10, svid_08=2, svid_09=12, svid_10=23, svid_11=32, svid_12=, PDOP=1.22, HDOP=0.62, VDOP=1.05, systemId=1)>000: 2447 4e47 5341 2c41 2c33 2c34 342c 3235  | b'$GNGSA,A,3,44,25' |
016: 2c32 382c 3231 2c32 342c 3436 2c31 302c  | b',28,21,24,46,10,' |
032: 3032 2c31 322c 3233 2c33 322c 2c31 2e32  | b'02,12,23,32,,1.2' |
048: 322c 302e 3632 2c31 2e30 352c 312a 3041  | b'2,0.62,1.05,1*0A' |
064: 0d0a                                     | b'\r\n' |
<NMEA(GNGSA, opMode=A, navMode=3, svid_01=87, svid_02=80, svid_03=70, svid_04=71, svid_05=72, svid_06=73, svid_07=, svid_08=, svid_09=, svid_10=, svid_11=, svid_12=, PDOP=1.22, HDOP=0.62, VDOP=1.05, systemId=2)>000: 2447 4e47 5341 2c41 2c33 2c38 372c 3830  | b'$GNGSA,A,3,87,80' |
016: 2c37 302c 3731 2c37 322c 3733 2c2c 2c2c  | b',70,71,72,73,,,,' |
032: 2c2c 2c31 2e32 322c 302e 3632 2c31 2e30  | b',,,1.22,0.62,1.0' |
048: 352c 322a 3034 0d0a                      | b'5,2*04\r\n' |
<NMEA(GNGSA, opMode=A, navMode=3, svid_01=36, svid_02=15, svid_03=5, svid_04=31, svid_05=34, svid_06=4, svid_07=9, svid_08=24, svid_09=, svid_10=, svid_11=, svid_12=, PDOP=1.22, HDOP=0.62, VDOP=1.05, systemId=3)>000: 2447 4e47 5341 2c41 2c33 2c33 362c 3135  | b'$GNGSA,A,3,36,15' |
016: 2c30 352c 3331 2c33 342c 3034 2c30 392c  | b',05,31,34,04,09,' |
032: 3234 2c2c 2c2c 2c31 2e32 322c 302e 3632  | b'24,,,,,1.22,0.62' |
048: 2c31 2e30 352c 332a 3038 0d0a            | b',1.05,3*08\r\n' |
<NMEA(GNGSA, opMode=A, navMode=3, svid_01=37, svid_02=19, svid_03=32, svid_04=20, svid_05=23, svid_06=, svid_07=, svid_08=, svid_09=, svid_10=, svid_11=, svid_12=, PDOP=1.22, HDOP=0.62, VDOP=1.05, systemId=4)>000: 2447 4e47 5341 2c41 2c33 2c33 372c 3139  | b'$GNGSA,A,3,37,19' |
016: 2c33 322c 3230 2c32 332c 2c2c 2c2c 2c2c  | b',32,20,23,,,,,,,' |
032: 2c31 2e32 322c 302e 3632 2c31 2e30 352c  | b',1.22,0.62,1.05,' |
048: 342a 3042 0d0a                           | b'4*0B\r\n' |
<NMEA(GPGSV, numMsg=3, msgNum=1, numSV=12, svid_01=2, elv_01=15.0, az_01=319, cno_01=30, svid_02=10, elv_02=84.0, az_02=280, cno_02=52, svid_03=12, elv_03=28.0, az_03=99, cno_03=30, svid_04=18, elv_04=5.0, az_04=184, cno_04=20, signalID=1)>000: 2447 5047 5356 2c33 2c31 2c31 322c 3032  | b'$GPGSV,3,1,12,02' |
016: 2c31 352c 3331 392c 3330 2c31 302c 3834  | b',15,319,30,10,84' |
032: 2c32 3830 2c35 322c 3132 2c32 382c 3039  | b',280,52,12,28,09' |
048: 392c 3330 2c31 382c 3035 2c31 3834 2c32  | b'9,30,18,05,184,2' |
064: 302c 312a 3632 0d0a                      | b'0,1*62\r\n' |
<NMEA(GPGSV, numMsg=3, msgNum=2, numSV=12, svid_01=21, elv_01=20.0, az_01=312, cno_01=33, svid_02=23, elv_02=53.0, az_02=140, cno_02=49, svid_03=24, elv_03=34.0, az_03=53, cno_03=38, svid_04=25, elv_04=21.0, az_04=143, cno_04=36, signalID=1)>000: 2447 5047 5356 2c33 2c32 2c31 322c 3231  | b'$GPGSV,3,2,12,21' |
016: 2c32 302c 3331 322c 3333 2c32 332c 3533  | b',20,312,33,23,53' |
032: 2c31 3430 2c34 392c 3234 2c33 342c 3035  | b',140,49,24,34,05' |
048: 332c 3338 2c32 352c 3231 2c31 3433 2c33  | b'3,38,25,21,143,3' |
064: 362c 312a 3633 0d0a                      | b'6,1*63\r\n' |
<NMEA(GPGSV, numMsg=3, msgNum=3, numSV=12, svid_01=28, elv_01=23.0, az_01=218, cno_01=35, svid_02=32, elv_02=50.0, az_02=285, cno_02=50, svid_03=44, elv_03=23.0, az_03=235, cno_03=39, svid_04=46, elv_04=15.0, az_04=246, cno_04=32, signalID=1)>000: 2447 5047 5356 2c33 2c33 2c31 322c 3238  | b'$GPGSV,3,3,12,28' |
016: 2c32 332c 3231 382c 3335 2c33 322c 3530  | b',23,218,35,32,50' |
032: 2c32 3835 2c35 302c 3434 2c32 332c 3233  | b',285,50,44,23,23' |
048: 352c 3339 2c34 362c 3135 2c32 3436 2c33  | b'5,39,46,15,246,3' |
064: 322c 312a 3637 0d0a                      | b'2,1*67\r\n' |
<NMEA(GPGSV, numMsg=2, msgNum=1, numSV=8, svid_01=10, elv_01=84.0, az_01=280, cno_01=38, svid_02=12, elv_02=28.0, az_02=99, cno_02=21, svid_03=18, elv_03=5.0, az_03=184, cno_03=10, svid_04=23, elv_04=53.0, az_04=140, cno_04=33, signalID=6)>000: 2447 5047 5356 2c32 2c31 2c30 382c 3130  | b'$GPGSV,2,1,08,10' |
016: 2c38 342c 3238 302c 3338 2c31 322c 3238  | b',84,280,38,12,28' |
032: 2c30 3939 2c32 312c 3138 2c30 352c 3138  | b',099,21,18,05,18' |
048: 342c 3130 2c32 332c 3533 2c31 3430 2c33  | b'4,10,23,53,140,3' |
064: 332c 362a 3643 0d0a                      | b'3,6*6C\r\n' |
<NMEA(GPGSV, numMsg=2, msgNum=2, numSV=8, svid_01=24, elv_01=34.0, az_01=53, cno_01=29, svid_02=25, elv_02=21.0, az_02=143, cno_02=30, svid_03=28, elv_03=23.0, az_03=218, cno_03=29, svid_04=32, elv_04=50.0, az_04=285, cno_04=35, signalID=6)>000: 2447 5047 5356 2c32 2c32 2c30 382c 3234  | b'$GPGSV,2,2,08,24' |
016: 2c33 342c 3035 332c 3239 2c32 352c 3231  | b',34,053,29,25,21' |
032: 2c31 3433 2c33 302c 3238 2c32 332c 3231  | b',143,30,28,23,21' |
048: 382c 3239 2c33 322c 3530 2c32 3835 2c33  | b'8,29,32,50,285,3' |
064: 352c 362a 3630 0d0a                      | b'5,6*60\r\n' |
<NMEA(GPGSV, numMsg=1, msgNum=1, numSV=1, svid_01=15, elv_01=6.0, az_01=89, cno_01=, signalID=0)>000: 2447 5047 5356 2c31 2c31 2c30 312c 3135  | b'$GPGSV,1,1,01,15' |
016: 2c30 362c 3038 392c 2c30 2a35 370d 0a    | b',06,089,,0*57\r\n' |
<NMEA(GLGSV, numMsg=3, msgNum=1, numSV=9, svid_01=70, elv_01=51.0, az_01=73, cno_01=35, svid_02=71, elv_02=56.0, az_02=331, cno_02=48, svid_03=72, elv_03=14.0, az_03=298, cno_03=31, svid_04=73, elv_04=45.0, az_04=151, cno_04=45, signalID=1)>000: 2447 4c47 5356 2c33 2c31 2c30 392c 3730  | b'$GLGSV,3,1,09,70' |
016: 2c35 312c 3037 332c 3335 2c37 312c 3536  | b',51,073,35,71,56' |
032: 2c33 3331 2c34 382c 3732 2c31 342c 3239  | b',331,48,72,14,29' |
048: 382c 3331 2c37 332c 3435 2c31 3531 2c34  | b'8,31,73,45,151,4' |
064: 352c 312a 3741 0d0a                      | b'5,1*7A\r\n' |
<NMEA(GLGSV, numMsg=3, msgNum=2, numSV=9, svid_01=74, elv_01=9.0, az_01=181, cno_01=24, svid_02=79, elv_02=7.0, az_02=23, cno_02=29, svid_03=80, elv_03=48.0, az_03=59, cno_03=48, svid_04=86, elv_04=24.0, az_04=254, cno_04=36, signalID=1)>000: 2447 4c47 5356 2c33 2c32 2c30 392c 3734  | b'$GLGSV,3,2,09,74' |
016: 2c30 392c 3138 312c 3234 2c37 392c 3037  | b',09,181,24,79,07' |
032: 2c30 3233 2c32 392c 3830 2c34 382c 3035  | b',023,29,80,48,05' |
048: 392c 3438 2c38 362c 3234 2c32 3534 2c33  | b'9,48,86,24,254,3' |
064: 362c 312a 3744 0d0a                      | b'6,1*7D\r\n' |
<NMEA(GLGSV, numMsg=3, msgNum=3, numSV=9, svid_01=87, elv_01=23.0, az_01=313, cno_01=31, signalID=1)>000: 2447 4c47 5356 2c33 2c33 2c30 392c 3837  | b'$GLGSV,3,3,09,87' |
016: 2c32 332c 3331 332c 3331 2c31 2a34 430d  | b',23,313,31,1*4C\r' |
032: 0a                                       | b'\n' |
<NMEA(GLGSV, numMsg=1, msgNum=1, numSV=3, svid_01=71, elv_01=56.0, az_01=331, cno_01=31, svid_02=73, elv_02=45.0, az_02=151, cno_02=31, svid_03=85, elv_03=1.0, az_03=214, cno_03=12, signalID=3)>000: 2447 4c47 5356 2c31 2c31 2c30 332c 3731  | b'$GLGSV,1,1,03,71' |
016: 2c35 362c 3333 312c 3331 2c37 332c 3435  | b',56,331,31,73,45' |
032: 2c31 3531 2c33 312c 3835 2c30 312c 3231  | b',151,31,85,01,21' |
048: 342c 3132 2c33 2a34 350d 0a              | b'4,12,3*45\r\n' |
<NMEA(GLGSV, numMsg=1, msgNum=1, numSV=1, svid_01=88, elv_01=0.0, az_01=356, cno_01=, signalID=0)>000: 2447 4c47 5356 2c31 2c31 2c30 312c 3838  | b'$GLGSV,1,1,01,88' |
016: 2c30 302c 3335 362c 2c30 2a34 380d 0a    | b',00,356,,0*48\r\n' |
<NMEA(GAGSV, numMsg=3, msgNum=1, numSV=9, svid_01=3, elv_01=8.0, az_01=271, cno_01=24, svid_02=4, elv_02=11.0, az_02=82, cno_02=27, svid_03=5, elv_03=57.0, az_03=290, cno_03=39, svid_04=9, elv_04=59.0, az_04=61, cno_04=38, signalID=2)>000: 2447 4147 5356 2c33 2c31 2c30 392c 3033  | b'$GAGSV,3,1,09,03' |
016: 2c30 382c 3237 312c 3234 2c30 342c 3131  | b',08,271,24,04,11' |
032: 2c30 3832 2c32 372c 3035 2c35 372c 3239  | b',082,27,05,57,29' |
048: 302c 3339 2c30 392c 3539 2c30 3631 2c33  | b'0,39,09,59,061,3' |
064: 382c 322a 3730 0d0a                      | b'8,2*70\r\n' |
<NMEA(GAGSV, numMsg=3, msgNum=2, numSV=9, svid_01=15, elv_01=16.0, az_01=323, cno_01=24, svid_02=24, elv_02=21.0, az_02=146, cno_02=32, svid_03=31, elv_03=33.0, az_03=92, cno_03=34, svid_04=34, elv_04=40.0, az_04=271, cno_04=40, signalID=2)>000: 2447 4147 5356 2c33 2c32 2c30 392c 3135  | b'$GAGSV,3,2,09,15' |
016: 2c31 362c 3332 332c 3234 2c32 342c 3231  | b',16,323,24,24,21' |
032: 2c31 3436 2c33 322c 3331 2c33 332c 3039  | b',146,32,31,33,09' |
048: 322c 3334 2c33 342c 3430 2c32 3731 2c34  | b'2,34,34,40,271,4' |
064: 302c 322a 3733 0d0a                      | b'0,2*73\r\n' |
<NMEA(GAGSV, numMsg=3, msgNum=3, numSV=9, svid_01=36, elv_01=26.0, az_01=210, cno_01=29, signalID=2)>000: 2447 4147 5356 2c33 2c33 2c30 392c 3336  | b'$GAGSV,3,3,09,36' |
016: 2c32 362c 3231 302c 3239 2c32 2a34 360d  | b',26,210,29,2*46\r' |
032: 0a                                       | b'\n' |
<NMEA(GAGSV, numMsg=2, msgNum=1, numSV=8, svid_01=3, elv_01=8.0, az_01=271, cno_01=26, svid_02=5, elv_02=57.0, az_02=290, cno_02=41, svid_03=9, elv_03=59.0, az_03=61, cno_03=44, svid_04=15, elv_04=16.0, az_04=323, cno_04=34, signalID=7)>000: 2447 4147 5356 2c32 2c31 2c30 382c 3033  | b'$GAGSV,2,1,08,03' |
016: 2c30 382c 3237 312c 3236 2c30 352c 3537  | b',08,271,26,05,57' |
032: 2c32 3930 2c34 312c 3039 2c35 392c 3036  | b',290,41,09,59,06' |
048: 312c 3434 2c31 352c 3136 2c33 3233 2c33  | b'1,44,15,16,323,3' |
064: 342c 372a 3745 0d0a                      | b'4,7*7E\r\n' |
<NMEA(GAGSV, numMsg=2, msgNum=2, numSV=8, svid_01=24, elv_01=21.0, az_01=146, cno_01=37, svid_02=31, elv_02=33.0, az_02=92, cno_02=34, svid_03=34, elv_03=40.0, az_03=271, cno_03=39, svid_04=36, elv_04=26.0, az_04=210, cno_04=40, signalID=7)>000: 2447 4147 5356 2c32 2c32 2c30 382c 3234  | b'$GAGSV,2,2,08,24' |
016: 2c32 312c 3134 362c 3337 2c33 312c 3333  | b',21,146,37,31,33' |
032: 2c30 3932 2c33 342c 3334 2c34 302c 3237  | b',092,34,34,40,27' |
048: 312c 3339 2c33 362c 3236 2c32 3130 2c34  | b'1,39,36,26,210,4' |
064: 302c 372a 3743 0d0a                      | b'0,7*7C\r\n' |
<NMEA(GBGSV, numMsg=2, msgNum=1, numSV=7, svid_01=19, elv_01=27.0, az_01=300, cno_01=43, svid_02=20, elv_02=75.0, az_02=334, cno_02=50, svid_03=23, elv_03=32.0, az_03=52, cno_03=35, svid_04=29, elv_04=8.0, az_04=250, cno_04=25, signalID=1)>000: 2447 4247 5356 2c32 2c31 2c30 372c 3139  | b'$GBGSV,2,1,07,19' |
016: 2c32 372c 3330 302c 3433 2c32 302c 3735  | b',27,300,43,20,75' |
032: 2c33 3334 2c35 302c 3233 2c33 322c 3035  | b',334,50,23,32,05' |
048: 322c 3335 2c32 392c 3038 2c32 3530 2c32  | b'2,35,29,08,250,2' |
064: 352c 312a 3738 0d0a                      | b'5,1*78\r\n' |
<NMEA(GBGSV, numMsg=2, msgNum=2, numSV=7, svid_01=32, elv_01=42.0, az_01=104, cno_01=48, svid_02=35, elv_02=10.0, az_02=303, cno_02=32, svid_03=37, elv_03=58.0, az_03=127, cno_03=51, signalID=1)>000: 2447 4247 5356 2c32 2c32 2c30 372c 3332  | b'$GBGSV,2,2,07,32' |
016: 2c34 322c 3130 342c 3438 2c33 352c 3130  | b',42,104,48,35,10' |
032: 2c33 3033 2c33 322c 3337 2c35 382c 3132  | b',303,32,37,58,12' |
048: 372c 3531 2c31 2a34 300d 0a              | b'7,51,1*40\r\n' |
<NMEA(GBGSV, numMsg=1, msgNum=1, numSV=2, svid_01=20, elv_01=75.0, az_01=334, cno_01=8, svid_02=23, elv_02=32.0, az_02=52, cno_02=7, signalID=3)>000: 2447 4247 5356 2c31 2c31 2c30 322c 3230  | b'$GBGSV,1,1,02,20' |
016: 2c37 352c 3333 342c 3038 2c32 332c 3332  | b',75,334,08,23,32' |
032: 2c30 3532 2c30 372c 332a 3741 0d0a       | b',052,07,3*7A\r\n' |
<NMEA(GNGLL, lat=43.8825926433, NS=N, lon=-72.1576781417, EW=W, time=20:13:11.750000, status=A, posMode=D)>000: 2447 4e47 4c4c 2c34 3335 322e 3935 3535  | b'$GNGLL,4352.9555' |
016: 3538 362c 4e2c 3037 3230 392e 3436 3036  | b'586,N,07209.4606' |
032: 3838 352c 572c 3230 3133 3131 2e37 352c  | b'885,W,201311.75,' |
048: 412c 442a 3638 0d0a                      | b'A,D*68\r\n' |
<NMEA(GNRMC, time=20:13:12, status=A, lat=43.8825930367, NS=N, lon=-72.1576789783, EW=W, spd=0.547, cog=298.38, date=2023-09-05, mv=, mvEW=, posMode=R, navStatus=V)>000: 2447 4e52 4d43 2c32 3031 3331 322e 3030  | b'$GNRMC,201312.00' |
016: 2c41 2c34 3335 322e 3935 3535 3832 322c  | b',A,4352.9555822,' |
032: 4e2c 3037 3230 392e 3436 3037 3338 372c  | b'N,07209.4607387,' |
048: 572c 302e 3534 372c 3239 382e 3338 2c30  | b'W,0.547,298.38,0' |
064: 3530 3932 332c 2c2c 522c 562a 3041 0d0a  | b'50923,,,R,V*0A\r\n' |
<NMEA(GNVTG, cogt=298.38, cogtUnit=T, cogm=, cogmUnit=M, sogn=0.547, sognUnit=N, sogk=1.012, sogkUnit=K, posMode=D)>000: 2447 4e56 5447 2c32 3938 2e33 382c 542c  | b'$GNVTG,298.38,T,' |
016: 2c4d 2c30 2e35 3437 2c4e 2c31 2e30 3132  | b',M,0.547,N,1.012' |
032: 2c4b 2c44 2a32 410d 0a                   | b',K,D*2A\r\n' |
<NMEA(GNGGA, time=20:13:12, lat=43.8825930367, NS=N, lon=-72.1576789783, EW=W, quality=4, numSV=12, HDOP=0.62, alt=141.43, altUnit=M, sep=-32.547, sepUnit=M, diffAge=, diffStation=0)>000: 2447 4e47 4741 2c32 3031 3331 322e 3030  | b'$GNGGA,201312.00' |
016: 2c34 3335 322e 3935 3535 3832 322c 4e2c  | b',4352.9555822,N,' |
032: 3037 3230 392e 3436 3037 3338 372c 572c  | b'07209.4607387,W,' |
048: 342c 3132 2c30 2e36 322c 3134 312e 3433  | b'4,12,0.62,141.43' |
064: 302c 4d2c 2d33 322e 3534 372c 4d2c 2c30  | b'0,M,-32.547,M,,0' |
080: 3030 302a 3739 0d0a                      | b'000*79\r\n' |
<NMEA(GNGSA, opMode=A, navMode=3, svid_01=44, svid_02=25, svid_03=28, svid_04=21, svid_05=24, svid_06=46, svid_07=10, svid_08=2, svid_09=12, svid_10=23, svid_11=32, svid_12=, PDOP=1.22, HDOP=0.62, VDOP=1.05, systemId=1)>000: 2447 4e47 5341 2c41 2c33 2c34 342c 3235  | b'$GNGSA,A,3,44,25' |
016: 2c32 382c 3231 2c32 342c 3436 2c31 302c  | b',28,21,24,46,10,' |
032: 3032 2c31 322c 3233 2c33 322c 2c31 2e32  | b'02,12,23,32,,1.2' |
048: 322c 302e 3632 2c31 2e30 352c 312a 3041  | b'2,0.62,1.05,1*0A' |
064: 0d0a                                     | b'\r\n' |
<NMEA(GNTXT, numMsg=1, msgNum=1, msgType=0, text=txbuf alloc)>000: 2447 4e54 5854 2c30 312c 3031 2c30 302c  | b'$GNTXT,01,01,00,' |
016: 7478 6275 6620 616c 6c6f 632a 3631 0d0a  | b'txbuf alloc*61\r\n' |
<NMEA(GNRMC, time=20:13:12.250000, status=A, lat=43.88259333, NS=N, lon=-72.157680295, EW=W, spd=0.828, cog=292.98, date=2023-09-05, mv=, mvEW=, posMode=R, navStatus=V)>000: 2447 4e52 4d43 2c32 3031 3331 322e 3235  | b'$GNRMC,201312.25' |
016: 2c41 2c34 3335 322e 3935 3535 3939 382c  | b',A,4352.9555998,' |
032: 4e2c 3037 3230 392e 3436 3038 3137 372c  | b'N,07209.4608177,' |
048: 572c 302e 3832 382c 3239 322e 3938 2c30  | b'W,0.828,292.98,0' |
064: 3530 3932 332c 2c2c 522c 562a 3042 0d0a  | b'50923,,,R,V*0B\r\n' |
<NMEA(GNVTG, cogt=292.98, cogtUnit=T, cogm=, cogmUnit=M, sogn=0.828, sognUnit=N, sogk=1.534, sogkUnit=K, posMode=D)>000: 2447 4e56 5447 2c32 3932 2e39 382c 542c  | b'$GNVTG,292.98,T,' |
016: 2c4d 2c30 2e38 3238 2c4e 2c31 2e35 3334  | b',M,0.828,N,1.534' |
032: 2c4b 2c44 2a32 460d 0a                   | b',K,D*2F\r\n' |
<NMEA(GNGGA, time=20:13:12.250000, lat=43.88259333, NS=N, lon=-72.157680295, EW=W, quality=4, numSV=12, HDOP=0.62, alt=141.43, altUnit=M, sep=-32.547, sepUnit=M, diffAge=, diffStation=0)>000: 2447 4e47 4741 2c32 3031 3331 322e 3235  | b'$GNGGA,201312.25' |
016: 2c34 3335 322e 3935 3535 3939 382c 4e2c  | b',4352.9555998,N,' |
032: 3037 3230 392e 3436 3038 3137 372c 572c  | b'07209.4608177,W,' |
048: 342c 3132 2c30 2e36 322c 3134 312e 3433  | b'4,12,0.62,141.43' |
064: 302c 4d2c 2d33 322e 3534 372c 4d2c 2c30  | b'0,M,-32.547,M,,0' |
080: 3030 302a 3743 0d0a                      | b'000*7C\r\n' |
<NMEA(GNGSA, opMode=A, navMode=3, svid_01=44, svid_02=25, svid_03=28, svid_04=21, svid_05=24, svid_06=46, svid_07=10, svid_08=2, svid_09=12, svid_10=23, svid_11=32, svid_12=, PDOP=1.22, HDOP=0.62, VDOP=1.05, systemId=1)>000: 2447 4e47 5341 2c41 2c33 2c34 342c 3235  | b'$GNGSA,A,3,44,25' |
016: 2c32 382c 3231 2c32 342c 3436 2c31 302c  | b',28,21,24,46,10,' |
032: 3032 2c31 322c 3233 2c33 322c 2c31 2e32  | b'02,12,23,32,,1.2' |
048: 322c 302e 3632 2c31 2e30 352c 312a 3041  | b'2,0.62,1.05,1*0A' |
064: 0d0a                                     | b'\r\n' |
<NMEA(GNGSA, opMode=A, navMode=3, svid_01=87, svid_02=80, svid_03=70, svid_04=71, svid_05=72, svid_06=73, svid_07=, svid_08=, svid_09=, svid_10=, svid_11=, svid_12=, PDOP=1.22, HDOP=0.62, VDOP=1.05, systemId=2)>000: 2447 4e47 5341 2c41 2c33 2c38 372c 3830  | b'$GNGSA,A,3,87,80' |
016: 2c37 302c 3731 2c37 322c 3733 2c2c 2c2c  | b',70,71,72,73,,,,' |
032: 2c2c 2c31 2e32 322c 302e 3632 2c31 2e30  | b',,,1.22,0.62,1.0' |
048: 352c 322a 3034 0d0a                      | b'5,2*04\r\n' |
<NMEA(GNGSA, opMode=A, navMode=3, svid_01=36, svid_02=15, svid_03=5, svid_04=31, svid_05=34, svid_06=4, svid_07=9, svid_08=24, svid_09=, svid_10=, svid_11=, svid_12=, PDOP=1.22, HDOP=0.62, VDOP=1.05, systemId=3)>000: 2447 4e47 5341 2c41 2c33 2c33 362c 3135  | b'$GNGSA,A,3,36,15' |
016: 2c30 352c 3331 2c33 342c 3034 2c30 392c  | b',05,31,34,04,09,' |
032: 3234 2c2c 2c2c 2c31 2e32 322c 302e 3632  | b'24,,,,,1.22,0.62' |
048: 2c31 2e30 352c 332a 3038 0d0a            | b',1.05,3*08\r\n' |
<NMEA(GNGSA, opMode=A, navMode=3, svid_01=37, svid_02=19, svid_03=32, svid_04=20, svid_05=23, svid_06=, svid_07=, svid_08=, svid_09=, svid_10=, svid_11=, svid_12=, PDOP=1.22, HDOP=0.62, VDOP=1.05, systemId=4)>000: 2447 4e47 5341 2c41 2c33 2c33 372c 3139  | b'$GNGSA,A,3,37,19' |
016: 2c33 322c 3230 2c32 332c 2c2c 2c2c 2c2c  | b',32,20,23,,,,,,,' |
032: 2c31 2e32 322c 302e 3632 2c31 2e30 352c  | b',1.22,0.62,1.05,' |
048: 342a 3042 0d0a                           | b'4*0B\r\n' |
<NMEA(GPGSV, numMsg=3, msgNum=1, numSV=12, svid_01=2, elv_01=15.0, az_01=319, cno_01=30, svid_02=10, elv_02=84.0, az_02=280, cno_02=49, svid_03=12, elv_03=28.0, az_03=99, cno_03=42, svid_04=18, elv_04=5.0, az_04=184, cno_04=20, signalID=1)>000: 2447 5047 5356 2c33 2c31 2c31 322c 3032  | b'$GPGSV,3,1,12,02' |
016: 2c31 352c 3331 392c 3330 2c31 302c 3834  | b',15,319,30,10,84' |
032: 2c32 3830 2c34 392c 3132 2c32 382c 3039  | b',280,49,12,28,09' |
048: 392c 3432 2c31 382c 3035 2c31 3834 2c32  | b'9,42,18,05,184,2' |
064: 302c 312a 3644 0d0a                      | b'0,1*6D\r\n' |
<NMEA(GPGSV, numMsg=3, msgNum=2, numSV=12, svid_01=21, elv_01=20.0, az_01=312, cno_01=29, svid_02=23, elv_02=53.0, az_02=140, cno_02=45, svid_03=24, elv_03=34.0, az_03=53, cno_03=40, svid_04=25, elv_04=21.0, az_04=143, cno_04=34, signalID=1)>000: 2447 5047 5356 2c33 2c32 2c31 322c 3231  | b'$GPGSV,3,2,12,21' |
016: 2c32 302c 3331 322c 3239 2c32 332c 3533  | b',20,312,29,23,53' |
032: 2c31 3430 2c34 352c 3234 2c33 342c 3035  | b',140,45,24,34,05' |
048: 332c 3430 2c32 352c 3231 2c31 3433 2c33  | b'3,40,25,21,143,3' |
064: 342c 312a 3639 0d0a                      | b'4,1*69\r\n' |
<NMEA(GPGSV, numMsg=3, msgNum=3, numSV=12, svid_01=28, elv_01=23.0, az_01=218, cno_01=35, svid_02=32, elv_02=50.0, az_02=285, cno_02=50, svid_03=44, elv_03=23.0, az_03=235, cno_03=38, svid_04=46, elv_04=15.0, az_04=246, cno_04=31, signalID=1)>000: 2447 5047 5356 2c33 2c33 2c31 322c 3238  | b'$GPGSV,3,3,12,28' |
016: 2c32 332c 3231 382c 3335 2c33 322c 3530  | b',23,218,35,32,50' |
032: 2c32 3835 2c35 302c 3434 2c32 332c 3233  | b',285,50,44,23,23' |
048: 352c 3338 2c34 362c 3135 2c32 3436 2c33  | b'5,38,46,15,246,3' |
064: 312c 312a 3635 0d0a                      | b'1,1*65\r\n' |
<NMEA(GPGSV, numMsg=2, msgNum=1, numSV=8, svid_01=10, elv_01=84.0, az_01=280, cno_01=38, svid_02=12, elv_02=28.0, az_02=99, cno_02=23, svid_03=18, elv_03=5.0, az_03=184, cno_03=9, svid_04=23, elv_04=53.0, az_04=140, cno_04=33, signalID=6)>000: 2447 5047 5356 2c32 2c31 2c30 382c 3130  | b'$GPGSV,2,1,08,10' |
016: 2c38 342c 3238 302c 3338 2c31 322c 3238  | b',84,280,38,12,28' |
032: 2c30 3939 2c32 332c 3138 2c30 352c 3138  | b',099,23,18,05,18' |
048: 342c 3039 2c32 332c 3533 2c31 3430 2c33  | b'4,09,23,53,140,3' |
064: 332c 362a 3636 0d0a                      | b'3,6*66\r\n' |
<NMEA(GPGSV, numMsg=2, msgNum=2, numSV=8, svid_01=24, elv_01=34.0, az_01=53, cno_01=29, svid_02=25, elv_02=21.0, az_02=143, cno_02=24, svid_03=28, elv_03=23.0, az_03=218, cno_03=29, svid_04=32, elv_04=50.0, az_04=285, cno_04=36, signalID=6)>000: 2447 5047 5356 2c32 2c32 2c30 382c 3234  | b'$GPGSV,2,2,08,24' |
016: 2c33 342c 3035 332c 3239 2c32 352c 3231  | b',34,053,29,25,21' |
032: 2c31 3433 2c32 342c 3238 2c32 332c 3231  | b',143,24,28,23,21' |
048: 382c 3239 2c33 322c 3530 2c32 3835 2c33  | b'8,29,32,50,285,3' |
064: 362c 362a 3636 0d0a                      | b'6,6*66\r\n' |
<NMEA(GPGSV, numMsg=1, msgNum=1, numSV=1, svid_01=15, elv_01=6.0, az_01=89, cno_01=, signalID=0)>000: 2447 5047 5356 2c31 2c31 2c30 312c 3135  | b'$GPGSV,1,1,01,15' |
016: 2c30 362c 3038 392c 2c30 2a35 370d 0a    | b',06,089,,0*57\r\n' |
<NMEA(GLGSV, numMsg=3, msgNum=1, numSV=9, svid_01=70, elv_01=51.0, az_01=73, cno_01=32, svid_02=71, elv_02=56.0, az_02=331, cno_02=45, svid_03=72, elv_03=14.0, az_03=298, cno_03=31, svid_04=73, elv_04=45.0, az_04=151, cno_04=48, signalID=1)>000: 2447 4c47 5356 2c33 2c31 2c30 392c 3730  | b'$GLGSV,3,1,09,70' |
016: 2c35 312c 3037 332c 3332 2c37 312c 3536  | b',51,073,32,71,56' |
