<NMEA(GNRMC, time=19:56:15.750000, status=A, lat=43.882574, NS=N, lon=-72.1576252817, EW=W, spd=0.005, cog=, date=2023-09-05, mv=, mvEW=, posMode=R, navStatus=V)>000: 2447 4e52 4d43 2c31 3935 3631 352e 3735  | b'$GNRMC,195615.75' |
016: 2c41 2c34 3335 322e 3935 3434 3430 302c  | b',A,4352.9544400,' |
032: 4e2c 3037 3230 392e 3435 3735 3136 392c  | b'N,07209.4575169,' |
048: 572c 302e 3030 352c 2c30 3530 3932 332c  | b'W,0.005,,050923,' |
064: 2c2c 522c 562a 3139 0d0a                 | b',,R,V*19\r\n' |
<NMEA(GNVTG, cogt=, cogtUnit=T, cogm=, cogmUnit=M, sogn=0.005, sognUnit=N, sogk=0.009, sogkUnit=K, posMode=D)>000: 2447 4e56 5447 2c2c 542c 2c4d 2c30 2e30  | b'$GNVTG,,T,,M,0.0' |
016: 3035 2c4e 2c30 2e30 3039 2c4b 2c44 2a33  | b'05,N,0.009,K,D*3' |
032: 340d 0a                                  | b'4\r\n' |
<NMEA(GNGGA, time=19:56:15.750000, lat=43.882574, NS=N, lon=-72.1576252817, EW=W, quality=4, numSV=12, HDOP=0.55, alt=142.448, altUnit=M, sep=-32.546, sepUnit=M, diffAge=, diffStation=0)>000: 2447 4e47 4741 2c31 3935 3631 352e 3735  | b'$GNGGA,195615.75' |
016: 2c34 3335 322e 3935 3434 3430 302c 4e2c  | b',4352.9544400,N,' |
032: 3037 3230 392e 3435 3735 3136 392c 572c  | b'07209.4575169,W,' |
048: 342c 3132 2c30 2e35 352c 3134 322e 3434  | b'4,12,0.55,142.44' |
064: 382c 4d2c 2d33 322e 3534 362c 4d2c 2c30  | b'8,M,-32.546,M,,0' |
080: 3030 302a 3736 0d0a                      | b'000*76\r\n' |
<NMEA(GNGSA, opMode=A, navMode=3, svid_01=46, svid_02=21, svid_03=44, svid_04=24, svid_05=25, svid_06=18, svid_07=10, svid_08=12, svid_09=23, svid_10=15, svid_11=32, svid_12=, PDOP=0.99, HDOP=0.55, VDOP=0.82, systemId=1)>000: 2447 4e47 5341 2c41 2c33 2c34 362c 3231  | b'$GNGSA,A,3,46,21' |
016: 2c34 342c 3234 2c32 352c 3138 2c31 302c  | b',44,24,25,18,10,' |
032: 3132 2c32 332c 3135 2c33 322c 2c30 2e39  | b'12,23,15,32,,0.9' |
048: 392c 302e 3535 2c30 2e38 322c 312a 3034  | b'9,0.55,0.82,1*04' |
064: 0d0a                                     | b'\r\n' |
<NMEA(GNGSA, opMode=A, navMode=3, svid_01=87, svid_02=80, svid_03=71, svid_04=73, svid_05=70, svid_06=79, svid_07=, svid_08=, svid_09=, svid_10=, svid_11=, svid_12=, PDOP=0.99, HDOP=0.55, VDOP=0.82, systemId=2)>000: 2447 4e47 5341 2c41 2c33 2c38 372c 3830  | b'$GNGSA,A,3,87,80' |
016: 2c37 312c 3733 2c37 302c 3739 2c2c 2c2c  | b',71,73,70,79,,,,' |
032: 2c2c 2c30 2e39 392c 302e 3535 2c30 2e38  | b',,,0.99,0.55,0.8' |
048: 322c 322a 3034 0d0a                      | b'2,2*04\r\n' |
<NMEA(GNGSA, opMode=A, navMode=3, svid_01=36, svid_02=5, svid_03=31, svid_04=34, svid_05=4, svid_06=24, svid_07=9, svid_08=, svid_09=, svid_10=, svid_11=, svid_12=, PDOP=0.99, HDOP=0.55, VDOP=0.82, systemId=3)>000: 2447 4e47 5341 2c41 2c33 2c33 362c 3035  | b'$GNGSA,A,3,36,05' |
016: 2c33 312c 3334 2c30 342c 3234 2c30 392c  | b',31,34,04,24,09,' |
032: 2c2c 2c2c 2c30 2e39 392c 302e 3535 2c30  | b',,,,,0.99,0.55,0' |
048: 2e38 322c 332a 3037 0d0a                 | b'.82,3*07\r\n' |
<NMEA(GNGSA, opMode=A, navMode=3, svid_01=37, svid_02=19, svid_03=32, svid_04=29, svid_05=20, svid_06=23, svid_07=35, svid_08=, svid_09=, svid_10=, svid_11=, svid_12=, PDOP=0.99, HDOP=0.55, VDOP=0.82, systemId=4)>000: 2447 4e47 5341 2c41 2c33 2c33 372c 3139  | b'$GNGSA,A,3,37,19' |
016: 2c33 322c 3239 2c32 302c 3233 2c33 352c  | b',32,29,20,23,35,' |
032: 2c2c 2c2c 2c30 2e39 392c 302e 3535 2c30  | b',,,,,0.99,0.55,0' |
048: 2e38 322c 342a 3044 0d0a                 | b'.82,4*0D\r\n' |
<NMEA(GPGSV, numMsg=4, msgNum=1, numSV=13, svid_01=2, elv_01=12.0, az_01=324, cno_01=35, svid_02=10, elv_02=77.0, az_02=307, cno_02=52, svid_03=12, elv_03=24.0, az_03=106, cno_03=44, svid_04=15, elv_04=12.0, az_04=85, cno_04=33, signalID=1)>000: 2447 5047 5356 2c34 2c31 2c31 332c 3032  | b'$GPGSV,4,1,13,02' |
016: 2c31 322c 3332 342c 3335 2c31 302c 3737  | b',12,324,35,10,77' |
032: 2c33 3037 2c35 322c 3132 2c32 342c 3130  | b',307,52,12,24,10' |
048: 362c 3434 2c31 352c 3132 2c30 3835 2c33  | b'6,44,15,12,085,3' |
064: 332c 312a 3642 0d0a                      | b'3,1*6B\r\n' |
<NMEA(GPGSV, numMsg=4, msgNum=2, numSV=13, svid_01=18, elv_01=12.0, az_01=186, cno_01=31, svid_02=21, elv_02=17.0, az_02=318, cno_02=39, svid_03=23, elv_03=60.0, az_03=135, cno_03=47, svid_04=24, elv_04=41.0, az_04=54, cno_04=45, signalID=1)>000: 2447 5047 5356 2c34 2c32 2c31 332c 3138  | b'$GPGSV,4,2,13,18' |
016: 2c31 322c 3138 362c 3331 2c32 312c 3137  | b',12,186,31,21,17' |
032: 2c33 3138 2c33 392c 3233 2c36 302c 3133  | b',318,39,23,60,13' |
048: 352c 3437 2c32 342c 3431 2c30 3534 2c34  | b'5,47,24,41,054,4' |
064: 352c 312a 3632 0d0a                      | b'5,1*62\r\n' |
<NMEA(GPGSV, numMsg=4, msgNum=3, numSV=13, svid_01=25, elv_01=14.0, az_01=147, cno_01=31, svid_02=28, elv_02=16.0, az_02=215, cno_02=42, svid_03=32, elv_03=44.0, az_03=278, cno_03=50, svid_04=44, elv_04=23.0, az_04=235, cno_04=42, signalID=1)>000: 2447 5047 5356 2c34 2c33 2c31 332c 3235  | b'$GPGSV,4,3,13,25' |
016: 2c31 342c 3134 372c 3331 2c32 382c 3136  | b',14,147,31,28,16' |
032: 2c32 3135 2c34 322c 3332 2c34 342c 3237  | b',215,42,32,44,27' |
048: 382c 3530 2c34 342c 3233 2c32 3335 2c34  | b'8,50,44,23,235,4' |
064: 322c 312a 3634 0d0a                      | b'2,1*64\r\n' |
<NMEA(GPGSV, numMsg=4, msgNum=4, numSV=13, svid_01=46, elv_01=15.0, az_01=246, cno_01=39, signalID=1)>000: 2447 5047 5356 2c34 2c34 2c31 332c 3436  | b'$GPGSV,4,4,13,46' |
016: 2c31 352c 3234 362c 3339 2c31 2a35 410d  | b',15,246,39,1*5A\r' |
032: 0a                                       | b'\n' |
<NMEA(GPGSV, numMsg=3, msgNum=1, numSV=9, svid_01=10, elv_01=77.0, az_01=307, cno_01=40, svid_02=12, elv_02=24.0, az_02=106, cno_02=34, svid_03=15, elv_03=12.0, az_03=85, cno_03=33, svid_04=18, elv_04=12.0, az_04=186, cno_04=26, signalID=6)>000: 2447 5047 5356 2c33 2c31 2c30 392c 3130  | b'$GPGSV,3,1,09,10' |
016: 2c37 372c 3330 372c 3430 2c31 322c 3234  | b',77,307,40,12,24' |
032: 2c31 3036 2c33 342c 3135 2c31 322c 3038  | b',106,34,15,12,08' |
048: 352c 3333 2c31 382c 3132 2c31 3836 2c32  | b'5,33,18,12,186,2' |
064: 362c 362a 3637 0d0a                      | b'6,6*67\r\n' |
<NMEA(GPGSV, numMsg=3, msgNum=3, numSV=9, svid_01=32, elv_01=44.0, az_01=278, cno_01=38, signalID=6)>000: 2447 5047 5356 2c33 2c33 2c30 392c 3332  | b'$GPGSV,3,3,09,32' |
016: 2c34 342c 3237 382c 3338 2c36 2a35 440d  | b',44,278,38,6*5D\r' |
032: 0a                                       | b'\n' |
<NMEA(GLGSV, numMsg=3, msgNum=1, numSV=9, svid_01=70, elv_01=56.0, az_01=60, cno_01=39, svid_02=71, elv_02=50.0, az_02=320, cno_02=51, svid_03=72, elv_03=9.0, az_03=292, cno_03=34, svid_04=73, elv_04=36.0, az_04=155, cno_04=47, signalID=1)>000: 2447 4c47 5356 2c33 2c31 2c30 392c 3730  | b'$GLGSV,3,1,09,70' |
016: 2c35 362c 3036 302c 3339 2c37 312c 3530  | b',56,060,39,71,50' |
032: 2c33 3230 2c35 312c 3732 2c30 392c 3239  | b',320,51,72,09,29' |
048: 322c 3334 2c37 332c 3336 2c31 3535 2c34  | b'2,34,73,36,155,4' |
064: 372c 312a 3743 0d0a                      | b'7,1*7C\r\n' |
<NMEA(GLGSV, numMsg=3, msgNum=2, numSV=9, svid_01=79, elv_01=14.0, az_01=26, cno_01=42, svid_02=80, elv_02=50.0, az_02=73, cno_02=51, svid_03=85, elv_03=8.0, az_03=218, cno_03=35, svid_04=86, elv_04=30.0, az_04=261, cno_04=47, signalID=1)>000: 2447 4c47 5356 2c33 2c32 2c30 392c 3739  | b'$GLGSV,3,2,09,79' |
016: 2c31 342c 3032 362c 3432 2c38 302c 3530  | b',14,026,42,80,50' |
032: 2c30 3733 2c35 312c 3835 2c30 382c 3231  | b',073,51,85,08,21' |
048: 382c 3335 2c38 362c 3330 2c32 3631 2c34  | b'8,35,86,30,261,4' |
064: 372c 312a 3737 0d0a                      | b'7,1*77\r\n' |
<NMEA(GLGSV, numMsg=3, msgNum=3, numSV=9, svid_01=87, elv_01=22.0, az_01=322, cno_01=43, signalID=1)>000: 2447 4c47 5356 2c33 2c33 2c30 392c 3837  | b'$GLGSV,3,3,09,87' |
016: 2c32 322c 3332 322c 3433 2c31 2a34 410d  | b',22,322,43,1*4A\r' |
032: 0a                                       | b'\n' |
<NMEA(GLGSV, numMsg=2, msgNum=1, numSV=7, svid_01=71, elv_01=50.0, az_01=320, cno_01=34, svid_02=72, elv_02=9.0, az_02=292, cno_02=23, svid_03=73, elv_03=36.0, az_03=155, cno_03=31, svid_04=79, elv_04=14.0, az_04=26, cno_04=32, signalID=3)>000: 2447 4c47 5356 2c32 2c31 2c30 372c 3731  | b'$GLGSV,2,1,07,71' |
016: 2c35 302c 3332 302c 3334 2c37 322c 3039  | b',50,320,34,72,09' |
032: 2c32 3932 2c32 332c 3733 2c33 362c 3135  | b',292,23,73,36,15' |
048: 352c 3331 2c37 392c 3134 2c30 3236 2c33  | b'5,31,79,14,026,3' |
064: 322c 332a 3733 0d0a                      | b'2,3*73\r\n' |
<NMEA(GLGSV, numMsg=2, msgNum=2, numSV=7, svid_01=80, elv_01=50.0, az_01=73, cno_01=38, svid_02=85, elv_02=8.0, az_02=218, cno_02=26, svid_03=86, elv_03=30.0, az_03=261, cno_03=33, signalID=3)>000: 2447 4c47 5356 2c32 2c32 2c30 372c 3830  | b'$GLGSV,2,2,07,80' |
016: 2c35 302c 3037 332c 3338 2c38 352c 3038  | b',50,073,38,85,08' |
032: 2c32 3138 2c32 362c 3836 2c33 302c 3236  | b',218,26,86,30,26' |
048: 312c 3333 2c33 2a34 440d 0a              | b'1,33,3*4D\r\n' |
<NMEA(GLGSV, numMsg=1, msgNum=1, numSV=2, svid_01=69, elv_01=2.0, az_01=97, cno_01=, svid_02=74, elv_02=1.0, az_02=181, cno_02=, signalID=0)>000: 2447 4c47 5356 2c31 2c31 2c30 322c 3639  | b'$GLGSV,1,1,02,69' |
016: 2c30 322c 3039 372c 2c37 342c 3031 2c31  | b',02,097,,74,01,1' |
032: 3831 2c2c 302a 3732 0d0a                 | b'81,,0*72\r\n' |
<NMEA(GAGSV, numMsg=2, msgNum=1, numSV=8, svid_01=4, elv_01=15.0, az_01=78, cno_01=34, svid_02=5, elv_02=53.0, az_02=283, cno_02=40, svid_03=9, elv_03=64.0, az_03=52, cno_03=42, svid_04=15, elv_04=12.0, az_04=328, cno_04=30, signalID=2)>000: 2447 4147 5356 2c32 2c31 2c30 382c 3034  | b'$GAGSV,2,1,08,04' |
016: 2c31 352c 3037 382c 3334 2c30 352c 3533  | b',15,078,34,05,53' |
032: 2c32 3833 2c34 302c 3039 2c36 342c 3035  | b',283,40,09,64,05' |
048: 322c 3432 2c31 352c 3132 2c33 3238 2c33  | b'2,42,15,12,328,3' |
064: 302c 322a 3743 0d0a                      | b'0,2*7C\r\n' |
<NMEA(GAGSV, numMsg=2, msgNum=2, numSV=8, svid_01=24, elv_01=15.0, az_01=149, cno_01=33, svid_02=31, elv_02=30.0, az_02=99, cno_02=38, svid_03=34, elv_03=41.0, az_03=280, cno_03=39, svid_04=36, elv_04=33.0, az_04=213, cno_04=35, signalID=2)>000: 2447 4147 5356 2c32 2c32 2c30 382c 3234  | b'$GAGSV,2,2,08,24' |
016: 2c31 352c 3134 392c 3333 2c33 312c 3330  | b',15,149,33,31,30' |
032: 2c30 3939 2c33 382c 3334 2c34 312c 3238  | b',099,38,34,41,28' |
048: 302c 3339 2c33 362c 3333 2c32 3133 2c33  | b'0,39,36,33,213,3' |
064: 352c 322a 3742 0d0a                      | b'5,2*7B\r\n' |
<NMEA(GAGSV, numMsg=2, msgNum=1, numSV=8, svid_01=4, elv_01=15.0, az_01=78, cno_01=37, svid_02=5, elv_02=53.0, az_02=283, cno_02=48, svid_03=9, elv_03=64.0, az_03=52, cno_03=47, svid_04=15, elv_04=12.0, az_04=328, cno_04=29, signalID=7)>000: 2447 4147 5356 2c32 2c31 2c30 382c 3034  | b'$GAGSV,2,1,08,04' |
016: 2c31 352c 3037 382c 3337 2c30 352c 3533  | b',15,078,37,05,53' |
032: 2c32 3833 2c34 382c 3039 2c36 342c 3035  | b',283,48,09,64,05' |
048: 322c 3437 2c31 352c 3132 2c33 3238 2c32  | b'2,47,15,12,328,2' |
064: 392c 372a 3746 0d0a                      | b'9,7*7F\r\n' |
<NMEA(GAGSV, numMsg=2, msgNum=2, numSV=8, svid_01=24, elv_01=15.0, az_01=149, cno_01=33, svid_02=31, elv_02=30.0, az_02=99, cno_02=39, svid_03=34, elv_03=41.0, az_03=280, cno_03=46, svid_04=36, elv_04=33.0, az_04=213, cno_04=44, signalID=7)>000: 2447 4147 5356 2c32 2c32 2c30 382c 3234  | b'$GAGSV,2,2,08,24' |
016: 2c31 352c 3134 392c 3333 2c33 312c 3330  | b',15,149,33,31,30' |
032: 2c30 3939 2c33 392c 3334 2c34 312c 3238  | b',099,39,34,41,28' |
048: 302c 3436 2c33 362c 3333 2c32 3133 2c34  | b'0,46,36,33,213,4' |
064: 342c 372a 3731 0d0a                      | b'4,7*71\r\n' |
<NMEA(GAGSV, numMsg=1, msgNum=1, numSV=2, svid_01=3, elv_01=4.0, az_01=267, cno_01=, svid_02=11, elv_02=0.0, az_02=177, cno_02=, signalID=0)>000: 2447 4147 5356 2c31 2c31 2c30 322c 3033  | b'$GAGSV,1,1,02,03' |
016: 2c30 342c 3236 372c 2c31 312c 3030 2c31  | b',04,267,,11,00,1' |
032: 3737 2c2c 302a 3733 0d0a                 | b'77,,0*73\r\n' |
<NMEA(GBGSV, numMsg=2, msgNum=1, numSV=7, svid_01=19, elv_01=20.0, az_01=296, cno_01=45, svid_02=20, elv_02=68.0, az_02=322, cno_02=51, svid_03=23, elv_03=36.0, az_03=58, cno_03=48, svid_04=29, elv_04=13.0, az_04=254, cno_04=38, signalID=1)>000: 2447 4247 5356 2c32 2c31 2c30 372c 3139  | b'$GBGSV,2,1,07,19' |
016: 2c32 302c 3239 362c 3435 2c32 302c 3638  | b',20,296,45,20,68' |
032: 2c33 3232 2c35 312c 3233 2c33 362c 3035  | b',322,51,23,36,05' |
048: 382c 3438 2c32 392c 3133 2c32 3534 2c33  | b'8,48,29,13,254,3' |
064: 382c 312a 3742 0d0a                      | b'8,1*7B\r\n' |
<NMEA(GBGSV, numMsg=2, msgNum=2, numSV=7, svid_01=32, elv_01=47.0, az_01=97, cno_01=49, svid_02=35, elv_02=11.0, az_02=309, cno_02=41, svid_03=37, elv_03=53.0, az_03=137, cno_03=50, signalID=1)>000: 2447 4247 5356 2c32 2c32 2c30 372c 3332  | b'$GBGSV,2,2,07,32' |
016: 2c34 372c 3039 372c 3439 2c33 352c 3131  | b',47,097,49,35,11' |
032: 2c33 3039 2c34 312c 3337 2c35 332c 3133  | b',309,41,37,53,13' |
048: 372c 3530 2c31 2a34 420d 0a              | b'7,50,1*4B\r\n' |
<NMEA(GBGSV, numMsg=1, msgNum=1, numSV=1, svid_01=32, elv_01=47.0, az_01=97, cno_01=8, signalID=3)>000: 2447 4247 5356 2c31 2c31 2c30 312c 3332  | b'$GBGSV,1,1,01,32' |
016: 2c34 372c 3039 372c 3038 2c33 2a34 310d  | b',47,097,08,3*41\r' |
032: 0a                                       | b'\n' |
<NMEA(GNGLL, lat=43.882574, NS=N, lon=-72.1576252817, EW=W, time=19:56:15.750000, status=A, posMode=D)>000: 2447 4e47 4c4c 2c34 3335 322e 3935 3434  | b'$GNGLL,4352.9544' |
016: 3430 302c 4e2c 3037 3230 392e 3435 3735  | b'400,N,07209.4575' |
032: 3136 392c 572c 3139 3536 3135 2e37 352c  | b'169,W,195615.75,' |
048: 412c 442a 3634 0d0a                      | b'A,D*64\r\n' |
<NMEA(GNRMC, time=19:56:16, status=A, lat=43.882574015, NS=N, lon=-72.1576252817, EW=W, spd=0.015, cog=, date=2023-09-05, mv=, mvEW=, posMode=R, navStatus=V)>000: 2447 4e52 4d43 2c31 3935 3631 362e 3030  | b'$GNRMC,195616.00' |
016: 2c41 2c34 3335 322e 3935 3434 3430 392c  | b',A,4352.9544409,' |
032: 4e2c 3037 3230 392e 3435 3735 3136 392c  | b'N,07209.4575169,' |
048: 572c 302e 3031 352c 2c30 3530 3932 332c  | b'W,0.015,,050923,' |
064: 2c2c 522c 562a 3130 0d0a                 | b',,R,V*10\r\n' |
<NMEA(GNGSA, opMode=A, navMode=3, svid_01=46, svid_02=21, svid_03=44, svid_04=24, svid_05=25, svid_06=18, svid_07=10, svid_08=12, svid_09=23, svid_10=15, svid_11=32, svid_12=, PDOP=0.99, HDOP=0.55, VDOP=0.82, systemId=1)>000: 2447 4e47 5341 2c41 2c33 2c34 362c 3231  | b'$GNGSA,A,3,46,21' |
016: 2c34 342c 3234 2c32 352c 3138 2c31 302c  | b',44,24,25,18,10,' |
032: 3132 2c32 332c 3135 2c33 322c 2c30 2e39  | b'12,23,15,32,,0.9' |
048: 392c 302e 3535 2c30 2e38 322c 312a 3034  | b'9,0.55,0.82,1*04' |
064: 0d0a                                     | b'\r\n' |
<NMEA(GNGSA, opMode=A, navMode=3, svid_01=87, svid_02=80, svid_03=71, svid_04=73, svid_05=70, svid_06=79, svid_07=, svid_08=, svid_09=, svid_10=, svid_11=, svid_12=, PDOP=0.99, HDOP=0.55, VDOP=0.82, systemId=2)>000: 2447 4e47 5341 2c41 2c33 2c38 372c 3830  | b'$GNGSA,A,3,87,80' |
016: 2c37 312c 3733 2c37 302c 3739 2c2c 2c2c  | b',71,73,70,79,,,,' |
032: 2c2c 2c30 2e39 392c 302e 3535 2c30 2e38  | b',,,0.99,0.55,0.8' |
048: 322c 322a 3034 0d0a                      | b'2,2*04\r\n' |
<NMEA(GNGSA, opMode=A, navMode=3, svid_01=36, svid_02=5, svid_03=31, svid_04=34, svid_05=4, svid_06=24, svid_07=9, svid_08=, svid_09=, svid_10=, svid_11=, svid_12=, PDOP=0.99, HDOP=0.55, VDOP=0.82, systemId=3)>000: 2447 4e47 5341 2c41 2c33 2c33 362c 3035  | b'$GNGSA,A,3,36,05' |
016: 2c33 312c 3334 2c30 342c 3234 2c30 392c  | b',31,34,04,24,09,' |
032: 2c2c 2c2c 2c30 2e39 392c 302e 3535 2c30  | b',,,,,0.99,0.55,0' |
048: 2e38 322c 332a 3037 0d0a                 | b'.82,3*07\r\n' |
<NMEA(GNGSA, opMode=A, navMode=3, svid_01=37, svid_02=19, svid_03=32, svid_04=29, svid_05=20, svid_06=23, svid_07=35, svid_08=, svid_09=, svid_10=, svid_11=, svid_12=, PDOP=0.99, HDOP=0.55, VDOP=0.82, systemId=4)>000: 2447 4e47 5341 2c41 2c33 2c33 372c 3139  | b'$GNGSA,A,3,37,19' |
016: 2c33 322c 3239 2c32 302c 3233 2c33 352c  | b',32,29,20,23,35,' |
032: 2c2c 2c2c 2c30 2e39 392c 302e 3535 2c30  | b',,,,,0.99,0.55,0' |
048: 2e38 322c 342a 3044 0d0a                 | b'.82,4*0D\r\n' |
<NMEA(GPGSV, numMsg=4, msgNum=1, numSV=13, svid_01=2, elv_01=12.0, az_01=324, cno_01=35, svid_02=10, elv_02=77.0, az_02=307, cno_02=52, svid_03=12, elv_03=24.0, az_03=106, cno_03=44, svid_04=15, elv_04=12.0, az_04=85, cno_04=33, signalID=1)>000: 2447 5047 5356 2c34 2c31 2c31 332c 3032  | b'$GPGSV,4,1,13,02' |
016: 2c31 322c 3332 342c 3335 2c31 302c 3737  | b',12,324,35,10,77' |
032: 2c33 3037 2c35 322c 3132 2c32 342c 3130  | b',307,52,12,24,10' |
048: 362c 3434 2c31 352c 3132 2c30 3835 2c33  | b'6,44,15,12,085,3' |
064: 332c 312a 3642 0d0a                      | b'3,1*6B\r\n' |
<NMEA(GPGSV, numMsg=4, msgNum=2, numSV=13, svid_01=18, elv_01=12.0, az_01=186, cno_01=31, svid_02=21, elv_02=17.0, az_02=318, cno_02=39, svid_03=23, elv_03=60.0, az_03=135, cno_03=47, svid_04=24, elv_04=41.0, az_04=54, cno_04=45, signalID=1)>000: 2447 5047 5356 2c34 2c32 2c31 332c 3138  | b'$GPGSV,4,2,13,18' |
016: 2c31 322c 3138 362c 3331 2c32 312c 3137  | b',12,186,31,21,17' |
032: 2c33 3138 2c33 392c 3233 2c36 302c 3133  | b',318,39,23,60,13' |
048: 352c 3437 2c32 342c 3431 2c30 3534 2c34  | b'5,47,24,41,054,4' |
064: 352c 312a 3632 0d0a                      | b'5,1*62\r\n' |
<NMEA(GPGSV, numMsg=4, msgNum=3, numSV=13, svid_01=25, elv_01=14.0, az_01=147, cno_01=31, svid_02=28, elv_02=16.0, az_02=215, cno_02=42, svid_03=32, elv_03=44.0, az_03=278, cno_03=50, svid_04=44, elv_04=23.0, az_04=235, cno_04=42, signalID=1)>000: 2447 5047 5356 2c34 2c33 2c31 332c 3235  | b'$GPGSV,4,3,13,25' |
016: 2c31 342c 3134 372c 3331 2c32 382c 3136  | b',14,147,31,28,16' |
032: 2c32 3135 2c34 322c 3332 2c34 342c 3237  | b',215,42,32,44,27' |
048: 382c 3530 2c34 342c 3233 2c32 3335 2c34  | b'8,50,44,23,235,4' |
064: 322c 312a 3634 0d0a                      | b'2,1*64\r\n' |
<NMEA(GPGSV, numMsg=4, msgNum=4, numSV=13, svid_01=46, elv_01=15.0, az_01=246, cno_01=39, signalID=1)>000: 2447 5047 5356 2c34 2c34 2c31 332c 3436  | b'$GPGSV,4,4,13,46' |
016: 2c31 352c 3234 362c 3339 2c31 2a35 410d  | b',15,246,39,1*5A\r' |
032: 0a                                       | b'\n' |
<NMEA(GPGSV, numMsg=3, msgNum=1, numSV=9, svid_01=10, elv_01=77.0, az_01=307, cno_01=40, svid_02=12, elv_02=24.0, az_02=106, cno_02=34, svid_03=15, elv_03=12.0, az_03=85, cno_03=33, svid_04=18, elv_04=12.0, az_04=186, cno_04=26, signalID=6)>000: 2447 5047 5356 2c33 2c31 2c30 392c 3130  | b'$GPGSV,3,1,09,10' |
016: 2c37 372c 3330 372c 3430 2c31 322c 3234  | b',77,307,40,12,24' |
032: 2c31 3036 2c33 342c 3135 2c31 322c 3038  | b',106,34,15,12,08' |
048: 352c 3333 2c31 382c 3132 2c31 3836 2c32  | b'5,33,18,12,186,2' |
064: 362c 362a 3637 0d0a                      | b'6,6*67\r\n' |
<NMEA(GPGSV, numMsg=3, msgNum=2, numSV=9, svid_01=23, elv_01=60.0, az_01=135, cno_01=40, svid_02=24, elv_02=41.0, az_02=54, cno_02=39, svid_03=25, elv_03=14.0, az_03=147, cno_03=33, svid_04=28, elv_04=16.0, az_04=215, cno_04=35, signalID=6)>000: 2447 5047 5356 2c33 2c32 2c30 392c 3233  | b'$GPGSV,3,2,09,23' |
016: 2c36 302c 3133 352c 3430 2c32 342c 3431  | b',60,135,40,24,41' |
032: 2c30 3534 2c33 392c 3235 2c31 342c 3134  | b',054,39,25,14,14' |
048: 372c 3333 2c32 382c 3136 2c32 3135 2c33  | b'7,33,28,16,215,3' |
064: 352c 362a 3641 0d0a                      | b'5,6*6A\r\n' |
<NMEA(GPGSV, numMsg=3, msgNum=3, numSV=9, svid_01=32, elv_01=44.0, az_01=278, cno_01=38, signalID=6)>000: 2447 5047 5356 2c33 2c33 2c30 392c 3332  | b'$GPGSV,3,3,09,32' |
016: 2c34 342c 3237 382c 3338 2c36 2a35 440d  | b',44,278,38,6*5D\r' |
032: 0a                                       | b'\n' |
<NMEA(GLGSV, numMsg=3, msgNum=1, numSV=9, svid_01=70, elv_01=56.0, az_01=60, cno_01=39, svid_02=71, elv_02=50.0, az_02=320, cno_02=51, svid_03=72, elv_03=9.0, az_03=292, cno_03=34, svid_04=73, elv_04=36.0, az_04=155, cno_04=47, signalID=1)>000: 2447 4c47 5356 2c33 2c31 2c30 392c 3730  | b'$GLGSV,3,1,09,70' |
016: 2c35 362c 3036 302c 3339 2c37 312c 3530  | b',56,060,39,71,50' |
032: 2c33 3230 2c35 312c 3732 2c30 392c 3239  | b',320,51,72,09,29' |
048: 322c 3334 2c37 332c 3336 2c31 3535 2c34  | b'2,34,73,36,155,4' |
064: 372c 312a 3743 0d0a                      | b'7,1*7C\r\n' |
<NMEA(GLGSV, numMsg=3, msgNum=3, numSV=9, svid_01=87, elv_01=22.0, az_01=322, cno_01=43, signalID=1)>000: 2447 4c47 5356 2c33 2c33 2c30 392c 3837  | b'$GLGSV,3,3,09,87' |
016: 2c32 322c 3332 322c 3433 2c31 2a34 410d  | b',22,322,43,1*4A\r' |
032: 0a                                       | b'\n' |
<NMEA(GLGSV, numMsg=2, msgNum=1, numSV=7, svid_01=71, elv_01=50.0, az_01=320, cno_01=34, svid_02=72, elv_02=9.0, az_02=292, cno_02=23, svid_03=73, elv_03=36.0, az_03=155, cno_03=31, svid_04=79, elv_04=14.0, az_04=26, cno_04=33, signalID=3)>000: 2447 4c47 5356 2c32 2c31 2c30 372c 3731  | b'$GLGSV,2,1,07,71' |
016: 2c35 302c 3332 302c 3334 2c37 322c 3039  | b',50,320,34,72,09' |
032: 2c32 3932 2c32 332c 3733 2c33 362c 3135  | b',292,23,73,36,15' |
048: 352c 3331 2c37 392c 3134 2c30 3236 2c33  | b'5,31,79,14,026,3' |
064: 332c 332a 3732 0d0a                      | b'3,3*72\r\n' |
<NMEA(GLGSV, numMsg=2, msgNum=2, numSV=7, svid_01=80, elv_01=50.0, az_01=73, cno_01=38, svid_02=85, elv_02=8.0, az_02=218, cno_02=26, svid_03=86, elv_03=30.0, az_03=261, cno_03=33, signalID=3)>000: 2447 4c47 5356 2c32 2c32 2c30 372c 3830  | b'$GLGSV,2,2,07,80' |
016: 2c35 302c 3037 332c 3338 2c38 352c 3038  | b',50,073,38,85,08' |
032: 2c32 3138 2c32 362c 3836 2c33 302c 3236  | b',218,26,86,30,26' |
048: 312c 3333 2c33 2a34 440d 0a              | b'1,33,3*4D\r\n' |
<NMEA(GLGSV, numMsg=1, msgNum=1, numSV=2, svid_01=69, elv_01=2.0, az_01=97, cno_01=, svid_02=74, elv_02=1.0, az_02=181, cno_02=, signalID=0)>000: 2447 4c47 5356 2c31 2c31 2c30 322c 3639  | b'$GLGSV,1,1,02,69' |
016: 2c30 322c 3039 372c 2c37 342c 3031 2c31  | b',02,097,,74,01,1' |
032: 3831 2c2c 302a 3732 0d0a                 | b'81,,0*72\r\n' |
<NMEA(GAGSV, numMsg=2, msgNum=1, numSV=8, svid_01=4, elv_01=15.0, az_01=78, cno_01=34, svid_02=5, elv_02=53.0, az_02=283, cno_02=40, svid_03=9, elv_03=64.0, az_03=52, cno_03=42, svid_04=15, elv_04=12.0, az_04=328, cno_04=30, signalID=2)>000: 2447 4147 5356 2c32 2c31 2c30 382c 3034  | b'$GAGSV,2,1,08,04' |
016: 2c31 352c 3037 382c 3334 2c30 352c 3533  | b',15,078,34,05,53' |
032: 2c32 3833 2c34 302c 3039 2c36 342c 3035  | b',283,40,09,64,05' |
048: 322c 3432 2c31 352c 3132 2c33 3238 2c33  | b'2,42,15,12,328,3' |
064: 302c 322a 3743 0d0a                      | b'0,2*7C\r\n' |
<NMEA(GAGSV, numMsg=2, msgNum=2, numSV=8, svid_01=24, elv_01=15.0, az_01=149, cno_01=33, svid_02=31, elv_02=30.0, az_02=99, cno_02=38, svid_03=34, elv_03=41.0, az_03=280, cno_03=39, svid_04=36, elv_04=33.0, az_04=213, cno_04=35, signalID=2)>000: 2447 4147 5356 2c32 2c32 2c30 382c 3234  | b'$GAGSV,2,2,08,24' |
016: 2c31 352c 3134 392c 3333 2c33 312c 3330  | b',15,149,33,31,30' |
032: 2c30 3939 2c33 382c 3334 2c34 312c 3238  | b',099,38,34,41,28' |
048: 302c 3339 2c33 362c 3333 2c32 3133 2c33  | b'0,39,36,33,213,3' |
064: 352c 322a 3742 0d0a                      | b'5,2*7B\r\n' |
<NMEA(GAGSV, numMsg=2, msgNum=1, numSV=8, svid_01=4, elv_01=15.0, az_01=78, cno_01=37, svid_02=5, elv_02=53.0, az_02=283, cno_02=48, svid_03=9, elv_03=64.0, az_03=52, cno_03=47, svid_04=15, elv_04=12.0, az_04=328, cno_04=29, signalID=7)>000: 2447 4147 5356 2c32 2c31 2c30 382c 3034  | b'$GAGSV,2,1,08,04' |
016: 2c31 352c 3037 382c 3337 2c30 352c 3533  | b',15,078,37,05,53' |
032: 2c32 3833 2c34 382c 3039 2c36 342c 3035  | b',283,48,09,64,05' |
048: 322c 3437 2c31 352c 3132 2c33 3238 2c32  | b'2,47,15,12,328,2' |
064: 392c 372a 3746 0d0a                      | b'9,7*7F\r\n' |
<NMEA(GAGSV, numMsg=2, msgNum=2, numSV=8, svid_01=24, elv_01=15.0, az_01=149, cno_01=33, svid_02=31, elv_02=30.0, az_02=99, cno_02=39, svid_03=34, elv_03=41.0, az_03=280, cno_03=46, svid_04=36, elv_04=33.0, az_04=213, cno_04=44, signalID=7)>000: 2447 4147 5356 2c32 2c32 2c30 382c 3234  | b'$GAGSV,2,2,08,24' |
016: 2c31 352c 3134 392c 3333 2c33 312c 3330  | b',15,149,33,31,30' |
032: 2c30 3939 2c33 392c 3334 2c34 312c 3238  | b',099,39,34,41,28' |
048: 302c 3436 2c33 362c 3333 2c32 3133 2c34  | b'0,46,36,33,213,4' |
064: 342c 372a 3731 0d0a                      | b'4,7*71\r\n' |
<NMEA(GAGSV, numMsg=1, msgNum=1, numSV=2, svid_01=3, elv_01=4.0, az_01=267, cno_01=, svid_02=11, elv_02=0.0, az_02=177, cno_02=, signalID=0)>000: 2447 4147 5356 2c31 2c31 2c30 322c 3033  | b'$GAGSV,1,1,02,03' |
016: 2c30 342c 3236 372c 2c31 312c 3030 2c31  | b',04,267,,11,00,1' |
032: 3737 2c2c 302a 3733 0d0a                 | b'77,,0*73\r\n' |
<NMEA(GBGSV, numMsg=2, msgNum=2, numSV=7, svid_01=32, elv_01=47.0, az_01=97, cno_01=49, svid_02=35, elv_02=11.0, az_02=309, cno_02=41, svid_03=37, elv_03=53.0, az_03=137, cno_03=50, signalID=1)>000: 2447 4247 5356 2c32 2c32 2c30 372c 3332  | b'$GBGSV,2,2,07,32' |
016: 2c34 372c 3039 372c 3439 2c33 352c 3131  | b',47,097,49,35,11' |
032: 2c33 3039 2c34 312c 3337 2c35 332c 3133  | b',309,41,37,53,13' |
048: 372c 3530 2c31 2a34 420d 0a              | b'7,50,1*4B\r\n' |
<NMEA(GBGSV, numMsg=1, msgNum=1, numSV=1, svid_01=32, elv_01=47.0, az_01=97, cno_01=8, signalID=3)>000: 2447 4247 5356 2c31 2c31 2c30 312c 3332  | b'$GBGSV,1,1,01,32' |
016: 2c34 372c 3039 372c 3038 2c33 2a34 310d  | b',47,097,08,3*41\r' |
032: 0a                                       | b'\n' |
<NMEA(GNGLL, lat=43.882574015, NS=N, lon=-72.1576252817, EW=W, time=19:56:16, status=A, posMode=D)>000: 2447 4e47 4c4c 2c34 3335 322e 3935 3434  | b'$GNGLL,4352.9544' |
016: 3430 392c 4e2c 3037 3230 392e 3435 3735  | b'409,N,07209.4575' |
032: 3136 392c 572c 3139 3536 3136 2e30 302c  | b'169,W,195616.00,' |
048: 412c 442a 3643 0d0a                      | b'A,D*6C\r\n' |
<UBX(ACK-ACK, clsID=CFG, msgID=CFG-MSG)>000: b562 0501 0200 0601 0f38                 | b'\xb5b\x05\x01\x02\x00\x06\x01\x0f8' |
<NMEA(GNRMC, time=19:56:16.250000, status=A, lat=43.882574015, NS=N, lon=-72.157625275, EW=W, spd=0.007, cog=, date=2023-09-05, mv=, mvEW=, posMode=R, navStatus=V)>000: 2447 4e52 4d43 2c31 3935 3631 362e 3235  | b'$GNRMC,195616.25' |
016: 2c41 2c34 3335 322e 3935 3434 3430 392c  | b',A,4352.9544409,' |
032: 4e2c 3037 3230 392e 3435 3735 3136 352c  | b'N,07209.4575165,' |
048: 572c 302e 3030 372c 2c30 3530 3932 332c  | b'W,0.007,,050923,' |
064: 2c2c 522c 562a 3138 0d0a                 | b',,R,V*18\r\n' |
<NMEA(GNVTG, cogt=, cogtUnit=T, cogm=, cogmUnit=M, sogn=0.007, sognUnit=N, sogk=0.013, sogkUnit=K, posMode=D)>000: 2447 4e56 5447 2c2c 542c 2c4d 2c30 2e30  | b'$GNVTG,,T,,M,0.0' |
016: 3037 2c4e 2c30 2e30 3133 2c4b 2c44 2a33  | b'07,N,0.013,K,D*3' |
032: 440d 0a                                  | b'D\r\n' |
<NMEA(GNGGA, time=19:56:16.250000, lat=43.882574015, NS=N, lon=-72.157625275, EW=W, quality=4, numSV=12, HDOP=0.55, alt=142.449, altUnit=M, sep=-32.546, sepUnit=M, diffAge=, diffStation=0)>000: 2447 4e47 4741 2c31 3935 3631 362e 3235  | b'$GNGGA,195616.25' |
016: 2c34 3335 322e 3935 3434 3430 392c 4e2c  | b',4352.9544409,N,' |
032: 3037 3230 392e 3435 3735 3136 352c 572c  | b'07209.4575165,W,' |
048: 342c 3132 2c30 2e35 352c 3134 322e 3434  | b'4,12,0.55,142.44' |
064: 392c 4d2c 2d33 322e 3534 362c 4d2c 2c30  | b'9,M,-32.546,M,,0' |
080: 3030 302a 3734 0d0a                      | b'000*74\r\n' |
<NMEA(GNGSA, opMode=A, navMode=3, svid_01=46, svid_02=21, svid_03=44, svid_04=24, svid_05=25, svid_06=18, svid_07=10, svid_08=12, svid_09=23, svid_10=15, svid_11=32, svid_12=, PDOP=0.99, HDOP=0.55, VDOP=0.82, systemId=1)>000: 2447 4e47 5341 2c41 2c33 2c34 362c 3231  | b'$GNGSA,A,3,46,21' |
016: 2c34 342c 3234 2c32 352c 3138 2c31 302c  | b',44,24,25,18,10,' |
032: 3132 2c32 332c 3135 2c33 322c 2c30 2e39  | b'12,23,15,32,,0.9' |
048: 392c 302e 3535 2c30 2e38 322c 312a 3034  | b'9,0.55,0.82,1*04' |
064: 0d0a                                     | b'\r\n' |
<NMEA(GNGSA, opMode=A, navMode=3, svid_01=87, svid_02=80, svid_03=71, svid_04=73, svid_05=70, svid_06=79, svid_07=, svid_08=, svid_09=, svid_10=, svid_11=, svid_12=, PDOP=0.99, HDOP=0.55, VDOP=0.82, systemId=2)>000: 2447 4e47 5341 2c41 2c33 2c38 372c 3830  | b'$GNGSA,A,3,87,80' |
016: 2c37 312c 3733 2c37 302c 3739 2c2c 2c2c  | b',71,73,70,79,,,,' |
032: 2c2c 2c30 2e39 392c 302e 3535 2c30 2e38  | b',,,0.99,0.55,0.8' |
048: 322c 322a 3034 0d0a                      | b'2,2*04\r\n' |
<NMEA(GNGSA, opMode=A, navMode=3, svid_01=36, svid_02=5, svid_03=31, svid_04=34, svid_05=4, svid_06=24, svid_07=9, svid_08=, svid_09=, svid_10=, svid_11=, svid_12=, PDOP=0.99, HDOP=0.55, VDOP=0.82, systemId=3)>000: 2447 4e47 5341 2c41 2c33 2c33 362c 3035  | b'$GNGSA,A,3,36,05' |
016: 2c33 312c 3334 2c30 342c 3234 2c30 392c  | b',31,34,04,24,09,' |
032: 2c2c 2c2c 2c30 2e39 392c 302e 3535 2c30  | b',,,,,0.99,0.55,0' |
048: 2e38 322c 332a 3037 0d0a                 | b'.82,3*07\r\n' |
<NMEA(GNGSA, opMode=A, navMode=3, svid_01=37, svid_02=19, svid_03=32, svid_04=29, svid_05=20, svid_06=23, svid_07=35, svid_08=, svid_09=, svid_10=, svid_11=, svid_12=, PDOP=0.99, HDOP=0.55, VDOP=0.82, systemId=4)>000: 2447 4e47 5341 2c41 2c33 2c33 372c 3139  | b'$GNGSA,A,3,37,19' |
016: 2c33 322c 3239 2c32 302c 3233 2c33 352c  | b',32,29,20,23,35,' |
032: 2c2c 2c2c 2c30 2e39 392c 302e 3535 2c30  | b',,,,,0.99,0.55,0' |
048: 2e38 322c 342a 3044 0d0a                 | b'.82,4*0D\r\n' |
<NMEA(GPGSV, numMsg=4, msgNum=1, numSV=13, svid_01=2, elv_01=12.0, az_01=324, cno_01=36, svid_02=10, elv_02=77.0, az_02=307, cno_02=52, svid_03=12, elv_03=24.0, az_03=106, cno_03=44, svid_04=15, elv_04=12.0, az_04=85, cno_04=33, signalID=1)>000: 2447 5047 5356 2c34 2c31 2c31 332c 3032  | b'$GPGSV,4,1,13,02' |
016: 2c31 322c 3332 342c 3336 2c31 302c 3737  | b',12,324,36,10,77' |
032: 2c33 3037 2c35 322c 3132 2c32 342c 3130  | b',307,52,12,24,10' |
048: 362c 3434 2c31 352c 3132 2c30 3835 2c33  | b'6,44,15,12,085,3' |
064: 332c 312a 3638 0d0a                      | b'3,1*68\r\n' |
<NMEA(GPGSV, numMsg=4, msgNum=2, numSV=13, svid_01=18, elv_01=12.0, az_01=186, cno_01=31, svid_02=21, elv_02=17.0, az_02=318, cno_02=39, svid_03=23, elv_03=60.0, az_03=135, cno_03=47, svid_04=24, elv_04=41.0, az_04=54, cno_04=45, signalID=1)>000: 2447 5047 5356 2c34 2c32 2c31 332c 3138  | b'$GPGSV,4,2,13,18' |
016: 2c31 322c 3138 362c 3331 2c32 312c 3137  | b',12,186,31,21,17' |
032: 2c33 3138 2c33 392c 3233 2c36 302c 3133  | b',318,39,23,60,13' |
048: 352c 3437 2c32 342c 3431 2c30 3534 2c34  | b'5,47,24,41,054,4' |
064: 352c 312a 3632 0d0a                      | b'5,1*62\r\n' |
<NMEA(GPGSV, numMsg=4, msgNum=3, numSV=13, svid_01=25, elv_01=14.0, az_01=147, cno_01=31, svid_02=28, elv_02=16.0, az_02=215, cno_02=42, svid_03=32, elv_03=44.0, az_03=278, cno_03=50, svid_04=44, elv_04=23.0, az_04=235, cno_04=42, signalID=1)>000: 2447 5047 5356 2c34 2c33 2c31 332c 3235  | b'$GPGSV,4,3,13,25' |
016: 2c31 342c 3134 372c 3331 2c32 382c 3136  | b',14,147,31,28,16' |
032: 2c32 3135 2c34 322c 3332 2c34 342c 3237  | b',215,42,32,44,27' |
048: 382c 3530 2c34 342c 3233 2c32 3335 2c34  | b'8,50,44,23,235,4' |
064: 322c 312a 3634 0d0a                      | b'2,1*64\r\n' |
<NMEA(GPGSV, numMsg=4, msgNum=4, numSV=13, svid_01=46, elv_01=15.0, az_01=246, cno_01=39, signalID=1)>000: 2447 5047 5356 2c34 2c34 2c31 332c 3436  | b'$GPGSV,4,4,13,46' |
016: 2c31 352c 3234 362c 3339 2c31 2a35 410d  | b',15,246,39,1*5A\r' |
032: 0a                                       | b'\n' |
<NMEA(GPGSV, numMsg=3, msgNum=1, numSV=9, svid_01=10, elv_01=77.0, az_01=307, cno_01=40, svid_02=12, elv_02=24.0, az_02=106, cno_02=34, svid_03=15, elv_03=12.0, az_03=85, cno_03=33, svid_04=18, elv_04=12.0, az_04=186, cno_04=26, signalID=6)>000: 2447 5047 5356 2c33 2c31 2c30 392c 3130  | b'$GPGSV,3,1,09,10' |
016: 2c37 372c 3330 372c 3430 2c31 322c 3234  | b',77,307,40,12,24' |
032: 2c31 3036 2c33 342c 3135 2c31 322c 3038  | b',106,34,15,12,08' |
048: 352c 3333 2c31 382c 3132 2c31 3836 2c32  | b'5,33,18,12,186,2' |
064: 362c 362a 3637 0d0a                      | b'6,6*67\r\n' |
<NMEA(GPGSV, numMsg=3, msgNum=2, numSV=9, svid_01=23, elv_01=60.0, az_01=135, cno_01=40, svid_02=24, elv_02=41.0, az_02=54, cno_02=39, svid_03=25, elv_03=14.0, az_03=147, cno_03=33, svid_04=28, elv_04=16.0, az_04=215, cno_04=35, signalID=6)>000: 2447 5047 5356 2c33 2c32 2c30 392c 3233  | b'$GPGSV,3,2,09,23' |
016: 2c36 302c 3133 352c 3430 2c32 342c 3431  | b',60,135,40,24,41' |
032: 2c30 3534 2c33 392c 3235 2c31 342c 3134  | b',054,39,25,14,14' |
048: 372c 3333 2c32 382c 3136 2c32 3135 2c33  | b'7,33,28,16,215,3' |
064: 352c 362a 3641 0d0a                      | b'5,6*6A\r\n' |
<NMEA(GPGSV, numMsg=3, msgNum=3, numSV=9, svid_01=32, elv_01=44.0, az_01=278, cno_01=38, signalID=6)>000: 2447 5047 5356 2c33 2c33 2c30 392c 3332  | b'$GPGSV,3,3,09,32' |
016: 2c34 342c 3237 382c 3338 2c36 2a35 440d  | b',44,278,38,6*5D\r' |
032: 0a                                       | b'\n' |
<NMEA(GLGSV, numMsg=3, msgNum=1, numSV=9, svid_01=70, elv_01=56.0, az_01=60, cno_01=39, svid_02=71, elv_02=50.0, az_02=320, cno_02=51, svid_03=72, elv_03=9.0, az_03=292, cno_03=34, svid_04=73, elv_04=36.0, az_04=155, cno_04=47, signalID=1)>000: 2447 4c47 5356 2c33 2c31 2c30 392c 3730  | b'$GLGSV,3,1,09,70' |
016: 2c35 362c 3036 302c 3339 2c37 312c 3530  | b',56,060,39,71,50' |
032: 2c33 3230 2c35 312c 3732 2c30 392c 3239  | b',320,51,72,09,29' |
048: 322c 3334 2c37 332c 3336 2c31 3535 2c34  | b'2,34,73,36,155,4' |
064: 372c 312a 3743 0d0a                      | b'7,1*7C\r\n' |
<NMEA(GLGSV, numMsg=3, msgNum=2, numSV=9, svid_01=79, elv_01=14.0, az_01=26, cno_01=42, svid_02=80, elv_02=50.0, az_02=73, cno_02=51, svid_03=85, elv_03=8.0, az_03=218, cno_03=34, svid_04=86, elv_04=30.0, az_04=261, cno_04=47, signalID=1)>000: 2447 4c47 5356 2c33 2c32 2c30 392c 3739  | b'$GLGSV,3,2,09,79' |
016: 2c31 342c 3032 362c 3432 2c38 302c 3530  | b',14,026,42,80,50' |
032: 2c30 3733 2c35 312c 3835 2c30 382c 3231  | b',073,51,85,08,21' |
048: 382c 3334 2c38 362c 3330 2c32 3631 2c34  | b'8,34,86,30,261,4' |
064: 372c 312a 3736 0d0a                      | b'7,1*76\r\n' |
<NMEA(GLGSV, numMsg=3, msgNum=3, numSV=9, svid_01=87, elv_01=22.0, az_01=322, cno_01=43, signalID=1)>000: 2447 4c47 5356 2c33 2c33 2c30 392c 3837  | b'$GLGSV,3,3,09,87' |
016: 2c32 322c 3332 322c 3433 2c31 2a34 410d  | b',22,322,43,1*4A\r' |
032: 0a                                       | b'\n' |
<NMEA(GLGSV, numMsg=2, msgNum=1, numSV=7, svid_01=71, elv_01=50.0, az_01=320, cno_01=34, svid_02=72, elv_02=9.0, az_02=292, cno_02=23, svid_03=73, elv_03=36.0, az_03=155, cno_03=30, svid_04=79, elv_04=14.0, az_04=26, cno_04=32, signalID=3)>000: 2447 4c47 5356 2c32 2c31 2c30 372c 3731  | b'$GLGSV,2,1,07,71' |
016: 2c35 302c 3332 302c 3334 2c37 322c 3039  | b',50,320,34,72,09' |
032: 2c32 3932 2c32 332c 3733 2c33 362c 3135  | b',292,23,73,36,15' |
048: 352c 3330 2c37 392c 3134 2c30 3236 2c33  | b'5,30,79,14,026,3' |
064: 322c 332a 3732 0d0a                      | b'2,3*72\r\n' |
<NMEA(GLGSV, numMsg=2, msgNum=2, numSV=7, svid_01=80, elv_01=50.0, az_01=73, cno_01=37, svid_02=85, elv_02=8.0, az_02=218, cno_02=26, svid_03=86, elv_03=30.0, az_03=261, cno_03=34, signalID=3)>000: 2447 4c47 5356 2c32 2c32 2c30 372c 3830  | b'$GLGSV,2,2,07,80' |
016: 2c35 302c 3037 332c 3337 2c38 352c 3038  | b',50,073,37,85,08' |
032: 2c32 3138 2c32 362c 3836 2c33 302c 3236  | b',218,26,86,30,26' |
048: 312c 3334 2c33 2a34 350d 0a              | b'1,34,3*45\r\n' |
<NMEA(GLGSV, numMsg=1, msgNum=1, numSV=2, svid_01=69, elv_01=2.0, az_01=97, cno_01=, svid_02=74, elv_02=1.0, az_02=181, cno_02=, signalID=0)>000: 2447 4c47 5356 2c31 2c31 2c30 322c 3639  | b'$GLGSV,1,1,02,69' |
016: 2c30 322c 3039 372c 2c37 342c 3031 2c31  | b',02,097,,74,01,1' |
032: 3831 2c2c 302a 3732 0d0a                 | b'81,,0*72\r\n' |
<NMEA(GAGSV, numMsg=2, msgNum=1, numSV=8, svid_01=4, elv_01=15.0, az_01=78, cno_01=34, svid_02=5, elv_02=53.0, az_02=283, cno_02=40, svid_03=9, elv_03=64.0, az_03=52, cno_03=42, svid_04=15, elv_04=12.0, az_04=328, cno_04=30, signalID=2)>000: 2447 4147 5356 2c32 2c31 2c30 382c 3034  | b'$GAGSV,2,1,08,04' |
016: 2c31 352c 3037 382c 3334 2c30 352c 3533  | b',15,078,34,05,53' |
032: 2c32 3833 2c34 302c 3039 2c36 342c 3035  | b',283,40,09,64,05' |
048: 322c 3432 2c31 352c 3132 2c33 3238 2c33  | b'2,42,15,12,328,3' |
064: 302c 322a 3743 0d0a                      | b'0,2*7C\r\n' |
<NMEA(GAGSV, numMsg=2, msgNum=2, numSV=8, svid_01=24, elv_01=15.0, az_01=149, cno_01=32, svid_02=31, elv_02=30.0, az_02=99, cno_02=37, svid_03=34, elv_03=41.0, az_03=280, cno_03=39, svid_04=36, elv_04=33.0, az_04=213, cno_04=35, signalID=2)>000: 2447 4147 5356 2c32 2c32 2c30 382c 3234  | b'$GAGSV,2,2,08,24' |
016: 2c31 352c 3134 392c 3332 2c33 312c 3330  | b',15,149,32,31,30' |
032: 2c30 3939 2c33 372c 3334 2c34 312c 3238  | b',099,37,34,41,28' |
048: 302c 3339 2c33 362c 3333 2c32 3133 2c33  | b'0,39,36,33,213,3' |
064: 352c 322a 3735 0d0a                      | b'5,2*75\r\n' |
<NMEA(GAGSV, numMsg=2, msgNum=1, numSV=8, svid_01=4, elv_01=15.0, az_01=78, cno_01=38, svid_02=5, elv_02=53.0, az_02=283, cno_02=48, svid_03=9, elv_03=64.0, az_03=52, cno_03=47, svid_04=15, elv_04=12.0, az_04=328, cno_04=29, signalID=7)>000: 2447 4147 5356 2c32 2c31 2c30 382c 3034  | b'$GAGSV,2,1,08,04' |
016: 2c31 352c 3037 382c 3338 2c30 352c 3533  | b',15,078,38,05,53' |
032: 2c32 3833 2c34 382c 3039 2c36 342c 3035  | b',283,48,09,64,05' |
048: 322c 3437 2c31 352c 3132 2c33 3238 2c32  | b'2,47,15,12,328,2' |
064: 392c 372a 3730 0d0a                      | b'9,7*70\r\n' |
<NMEA(GAGSV, numMsg=2, msgNum=2, numSV=8, svid_01=24, elv_01=15.0, az_01=149, cno_01=33, svid_02=31, elv_02=30.0, az_02=99, cno_02=39, svid_03=34, elv_03=41.0, az_03=280, cno_03=46, svid_04=36, elv_04=33.0, az_04=213, cno_04=44, signalID=7)>000: 2447 4147 5356 2c32 2c32 2c30 382c 3234  | b'$GAGSV,2,2,08,24' |
016: 2c31 352c 3134 392c 3333 2c33 312c 3330  | b',15,149,33,31,30' |
032: 2c30 3939 2c33 392c 3334 2c34 312c 3238  | b',099,39,34,41,28' |
048: 302c 3436 2c33 362c 3333 2c32 3133 2c34  | b'0,46,36,33,213,4' |
064: 342c 372a 3731 0d0a                      | b'4,7*71\r\n' |
<NMEA(GAGSV, numMsg=1, msgNum=1, numSV=2, svid_01=3, elv_01=4.0, az_01=267, cno_01=, svid_02=11, elv_02=0.0, az_02=177, cno_02=, signalID=0)>000: 2447 4147 5356 2c31 2c31 2c30 322c 3033  | b'$GAGSV,1,1,02,03' |
016: 2c30 342c 3236 372c 2c31 312c 3030 2c31  | b',04,267,,11,00,1' |
032: 3737 2c2c 302a 3733 0d0a                 | b'77,,0*73\r\n' |
<NMEA(GBGSV, numMsg=2, msgNum=1, numSV=7, svid_01=19, elv_01=20.0, az_01=296, cno_01=45, svid_02=20, elv_02=68.0, az_02=322, cno_02=52, svid_03=23, elv_03=36.0, az_03=58, cno_03=48, svid_04=29, elv_04=13.0, az_04=254, cno_04=38, signalID=1)>000: 2447 4247 5356 2c32 2c31 2c30 372c 3139  | b'$GBGSV,2,1,07,19' |
016: 2c32 302c 3239 362c 3435 2c32 302c 3638  | b',20,296,45,20,68' |
032: 2c33 3232 2c35 322c 3233 2c33 362c 3035  | b',322,52,23,36,05' |
048: 382c 3438 2c32 392c 3133 2c32 3534 2c33  | b'8,48,29,13,254,3' |
064: 382c 312a 3738 0d0a                      | b'8,1*78\r\n' |
<NMEA(GBGSV, numMsg=2, msgNum=2, numSV=7, svid_01=32, elv_01=47.0, az_01=97, cno_01=49, svid_02=35, elv_02=11.0, az_02=309, cno_02=41, svid_03=37, elv_03=53.0, az_03=137, cno_03=50, signalID=1)>000: 2447 4247 5356 2c32 2c32 2c30 372c 3332  | b'$GBGSV,2,2,07,32' |
016: 2c34 372c 3039 372c 3439 2c33 352c 3131  | b',47,097,49,35,11' |
032: 2c33 3039 2c34 312c 3337 2c35 332c 3133  | b',309,41,37,53,13' |
048: 372c 3530 2c31 2a34 420d 0a              | b'7,50,1*4B\r\n' |
<NMEA(GBGSV, numMsg=1, msgNum=1, numSV=1, svid_01=32, elv_01=47.0, az_01=97, cno_01=8, signalID=3)>000: 2447 4247 5356 2c31 2c31 2c30 312c 3332  | b'$GBGSV,1,1,01,32' |
016: 2c34 372c 3039 372c 3038 2c33 2a34 310d  | b',47,097,08,3*41\r' |
032: 0a                                       | b'\n' |
<NMEA(GNGLL, lat=43.882574015, NS=N, lon=-72.157625275, EW=W, time=19:56:16.250000, status=A, posMode=D)>000: 2447 4e47 4c4c 2c34 3335 322e 3935 3434  | b'$GNGLL,4352.9544' |
016: 3430 392c 4e2c 3037 3230 392e 3435 3735  | b'409,N,07209.4575' |
032: 3136 352c 572c 3139 3536 3136 2e32 352c  | b'165,W,195616.25,' |
048: 412c 442a 3637 0d0a                      | b'A,D*67\r\n' |
<UBX(ACK-ACK, clsID=CFG, msgID=CFG-MSG)>000: b562 0501 0200 0601 0f38                 | b'\xb5b\x05\x01\x02\x00\x06\x01\x0f8' |
<UBX(ACK-ACK, clsID=CFG, msgID=CFG-MSG)>000: b562 0501 0200 0601 0f38                 | b'\xb5b\x05\x01\x02\x00\x06\x01\x0f8' |
<NMEA(GNVTG, cogt=, cogtUnit=T, cogm=, cogmUnit=M, sogn=0.002, sognUnit=N, sogk=0.004, sogkUnit=K, posMode=D)>000: 2447 4e56 5447 2c2c 542c 2c4d 2c30 2e30  | b'$GNVTG,,T,,M,0.0' |
016: 3032 2c4e 2c30 2e30 3034 2c4b 2c44 2a33  | b'02,N,0.004,K,D*3' |
032: 450d 0a                                  | b'E\r\n' |
<NMEA(GNGGA, time=19:56:16.500000, lat=43.882574015, NS=N, lon=-72.1576252767, EW=W, quality=4, numSV=12, HDOP=0.55, alt=142.448, altUnit=M, sep=-32.546, sepUnit=M, diffAge=, diffStation=0)>000: 2447 4e47 4741 2c31 3935 3631 362e 3530  | b'$GNGGA,195616.50' |
016: 2c34 3335 322e 3935 3434 3430 392c 4e2c  | b',4352.9544409,N,' |
032: 3037 3230 392e 3435 3735 3136 362c 572c  | b'07209.4575166,W,' |
048: 342c 3132 2c30 2e35 352c 3134 322e 3434  | b'4,12,0.55,142.44' |
064: 382c 4d2c 2d33 322e 3534 362c 4d2c 2c30  | b'8,M,-32.546,M,,0' |
080: 3030 302a 3734 0d0a                      | b'000*74\r\n' |
<NMEA(GNGSA, opMode=A, navMode=3, svid_01=46, svid_02=21, svid_03=44, svid_04=24, svid_05=25, svid_06=18, svid_07=10, svid_08=12, svid_09=23, svid_10=15, svid_11=32, svid_12=, PDOP=0.99, HDOP=0.55, VDOP=0.82, systemId=1)>000: 2447 4e47 5341 2c41 2c33 2c34 362c 3231  | b'$GNGSA,A,3,46,21' |
016: 2c34 342c 3234 2c32 352c 3138 2c31 302c  | b',44,24,25,18,10,' |
032: 3132 2c32 332c 3135 2c33 322c 2c30 2e39  | b'12,23,15,32,,0.9' |
048: 392c 302e 3535 2c30 2e38 322c 312a 3034  | b'9,0.55,0.82,1*04' |
064: 0d0a                                     | b'\r\n' |
<NMEA(GNGSA, opMode=A, navMode=3, svid_01=87, svid_02=80, svid_03=71, svid_04=73, svid_05=70, svid_06=79, svid_07=, svid_08=, svid_09=, svid_10=, svid_11=, svid_12=, PDOP=0.99, HDOP=0.55, VDOP=0.82, systemId=2)>000: 2447 4e47 5341 2c41 2c33 2c38 372c 3830  | b'$GNGSA,A,3,87,80' |
016: 2c37 312c 3733 2c37 302c 3739 2c2c 2c2c  | b',71,73,70,79,,,,' |
032: 2c2c 2c30 2e39 392c 302e 3535 2c30 2e38  | b',,,0.99,0.55,0.8' |
048: 322c 322a 3034 0d0a                      | b'2,2*04\r\n' |
<NMEA(GNGSA, opMode=A, navMode=3, svid_01=36, svid_02=5, svid_03=31, svid_04=34, svid_05=4, svid_06=24, svid_07=9, svid_08=, svid_09=, svid_10=, svid_11=, svid_12=, PDOP=0.99, HDOP=0.55, VDOP=0.82, systemId=3)>000: 2447 4e47 5341 2c41 2c33 2c33 362c 3035  | b'$GNGSA,A,3,36,05' |
016: 2c33 312c 3334 2c30 342c 3234 2c30 392c  | b',31,34,04,24,09,' |
032: 2c2c 2c2c 2c30 2e39 392c 302e 3535 2c30  | b',,,,,0.99,0.55,0' |
048: 2e38 322c 332a 3037 0d0a                 | b'.82,3*07\r\n' |
<NMEA(GNGSA, opMode=A, navMode=3, svid_01=37, svid_02=19, svid_03=32, svid_04=29, svid_05=20, svid_06=23, svid_07=35, svid_08=, svid_09=, svid_10=, svid_11=, svid_12=, PDOP=0.99, HDOP=0.55, VDOP=0.82, systemId=4)>000: 2447 4e47 5341 2c41 2c33 2c33 372c 3139  | b'$GNGSA,A,3,37,19' |
016: 2c33 322c 3239 2c32 302c 3233 2c33 352c  | b',32,29,20,23,35,' |
032: 2c2c 2c2c 2c30 2e39 392c 302e 3535 2c30  | b',,,,,0.99,0.55,0' |
048: 2e38 322c 342a 3044 0d0a                 | b'.82,4*0D\r\n' |
<NMEA(GPGSV, numMsg=4, msgNum=1, numSV=13, svid_01=2, elv_01=12.0, az_01=324, cno_01=36, svid_02=10, elv_02=77.0, az_02=307, cno_02=52, svid_03=12, elv_03=24.0, az_03=106, cno_03=44, svid_04=15, elv_04=12.0, az_04=85, cno_04=33, signalID=1)>000: 2447 5047 5356 2c34 2c31 2c31 332c 3032  | b'$GPGSV,4,1,13,02' |
016: 2c31 322c 3332 342c 3336 2c31 302c 3737  | b',12,324,36,10,77' |
032: 2c33 3037 2c35 322c 3132 2c32 342c 3130  | b',307,52,12,24,10' |
048: 362c 3434 2c31 352c 3132 2c30 3835 2c33  | b'6,44,15,12,085,3' |
064: 332c 312a 3638 0d0a                      | b'3,1*68\r\n' |
<NMEA(GPGSV, numMsg=4, msgNum=2, numSV=13, svid_01=18, elv_01=12.0, az_01=186, cno_01=31, svid_02=21, elv_02=17.0, az_02=318, cno_02=39, svid_03=23, elv_03=60.0, az_03=135, cno_03=47, svid_04=24, elv_04=41.0, az_04=54, cno_04=45, signalID=1)>000: 2447 5047 5356 2c34 2c32 2c31 332c 3138  | b'$GPGSV,4,2,13,18' |
016: 2c31 322c 3138 362c 3331 2c32 312c 3137  | b',12,186,31,21,17' |
032: 2c33 3138 2c33 392c 3233 2c36 302c 3133  | b',318,39,23,60,13' |
048: 352c 3437 2c32 342c 3431 2c30 3534 2c34  | b'5,47,24,41,054,4' |
064: 352c 312a 3632 0d0a                      | b'5,1*62\r\n' |
<NMEA(GPGSV, numMsg=4, msgNum=3, numSV=13, svid_01=25, elv_01=14.0, az_01=147, cno_01=31, svid_02=28, elv_02=16.0, az_02=215, cno_02=42, svid_03=32, elv_03=44.0, az_03=278, cno_03=50, svid_04=44, elv_04=23.0, az_04=235, cno_04=42, signalID=1)>000: 2447 5047 5356 2c34 2c33 2c31 332c 3235  | b'$GPGSV,4,3,13,25' |
016: 2c31 342c 3134 372c 3331 2c32 382c 3136  | b',14,147,31,28,16' |
032: 2c32 3135 2c34 322c 3332 2c34 342c 3237  | b',215,42,32,44,27' |
048: 382c 3530 2c34 342c 3233 2c32 3335 2c34  | b'8,50,44,23,235,4' |
064: 322c 312a 3634 0d0a                      | b'2,1*64\r\n' |
<NMEA(GPGSV, numMsg=4, msgNum=4, numSV=13, svid_01=46, elv_01=15.0, az_01=246, cno_01=39, signalID=1)>000: 2447 5047 5356 2c34 2c34 2c31 332c 3436  | b'$GPGSV,4,4,13,46' |
016: 2c31 352c 3234 362c 3339 2c31 2a35 410d  | b',15,246,39,1*5A\r' |
032: 0a                                       | b'\n' |
<NMEA(GPGSV, numMsg=3, msgNum=1, numSV=9, svid_01=10, elv_01=77.0, az_01=307, cno_01=40, svid_02=12, elv_02=24.0, az_02=106, cno_02=34, svid_03=15, elv_03=12.0, az_03=85, cno_03=33, svid_04=18, elv_04=12.0, az_04=186, cno_04=26, signalID=6)>000: 2447 5047 5356 2c33 2c31 2c30 392c 3130  | b'$GPGSV,3,1,09,10' |
016: 2c37 372c 3330 372c 3430 2c31 322c 3234  | b',77,307,40,12,24' |
032: 2c31 3036 2c33 342c 3135 2c31 322c 3038  | b',106,34,15,12,08' |
048: 352c 3333 2c31 382c 3132 2c31 3836 2c32  | b'5,33,18,12,186,2' |
064: 362c 362a 3637 0d0a                      | b'6,6*67\r\n' |
<NMEA(GPGSV, numMsg=3, msgNum=2, numSV=9, svid_01=23, elv_01=60.0, az_01=135, cno_01=40, svid_02=24, elv_02=41.0, az_02=54, cno_02=39, svid_03=25, elv_03=14.0, az_03=147, cno_03=33, svid_04=28, elv_04=16.0, az_04=215, cno_04=35, signalID=6)>000: 2447 5047 5356 2c33 2c32 2c30 392c 3233  | b'$GPGSV,3,2,09,23' |
016: 2c36 302c 3133 352c 3430 2c32 342c 3431  | b',60,135,40,24,41' |
032: 2c30 3534 2c33 392c 3235 2c31 342c 3134  | b',054,39,25,14,14' |
048: 372c 3333 2c32 382c 3136 2c32 3135 2c33  | b'7,33,28,16,215,3' |
064: 352c 362a 3641 0d0a                      | b'5,6*6A\r\n' |
<NMEA(GPGSV, numMsg=3, msgNum=3, numSV=9, svid_01=32, elv_01=44.0, az_01=278, cno_01=38, signalID=6)>000: 2447 5047 5356 2c33 2c33 2c30 392c 3332  | b'$GPGSV,3,3,09,32' |
016: 2c34 342c 3237 382c 3338 2c36 2a35 440d  | b',44,278,38,6*5D\r' |
032: 0a                                       | b'\n' |
<NMEA(GLGSV, numMsg=3, msgNum=1, numSV=9, svid_01=70, elv_01=56.0, az_01=60, cno_01=39, svid_02=71, elv_02=50.0, az_02=320, cno_02=51, svid_03=72, elv_03=9.0, az_03=292, cno_03=34, svid_04=73, elv_04=36.0, az_04=155, cno_04=47, signalID=1)>000: 2447 4c47 5356 2c33 2c31 2c30 392c 3730  | b'$GLGSV,3,1,09,70' |
016: 2c35 362c 3036 302c 3339 2c37 312c 3530  | b',56,060,39,71,50' |
032: 2c33 3230 2c35 312c 3732 2c30 392c 3239  | b',320,51,72,09,29' |
048: 322c 3334 2c37 332c 3336 2c31 3535 2c34  | b'2,34,73,36,155,4' |
064: 372c 312a 3743 0d0a                      | b'7,1*7C\r\n' |
<NMEA(GLGSV, numMsg=3, msgNum=2, numSV=9, svid_01=79, elv_01=14.0, az_01=26, cno_01=42, svid_02=80, elv_02=50.0, az_02=73, cno_02=51, svid_03=85, elv_03=8.0, az_03=218, cno_03=34, svid_04=86, elv_04=30.0, az_04=261, cno_04=47, signalID=1)>000: 2447 4c47 5356 2c33 2c32 2c30 392c 3739  | b'$GLGSV,3,2,09,79' |
016: 2c31 342c 3032 362c 3432 2c38 302c 3530  | b',14,026,42,80,50' |
032: 2c30 3733 2c35 312c 3835 2c30 382c 3231  | b',073,51,85,08,21' |
048: 382c 3334 2c38 362c 3330 2c32 3631 2c34  | b'8,34,86,30,261,4' |
064: 372c 312a 3736 0d0a                      | b'7,1*76\r\n' |
<NMEA(GLGSV, numMsg=3, msgNum=3, numSV=9, svid_01=87, elv_01=22.0, az_01=322, cno_01=43, signalID=1)>000: 2447 4c47 5356 2c33 2c33 2c30 392c 3837  | b'$GLGSV,3,3,09,87' |
016: 2c32 322c 3332 322c 3433 2c31 2a34 410d  | b',22,322,43,1*4A\r' |
032: 0a                                       | b'\n' |
<NMEA(GLGSV, numMsg=2, msgNum=1, numSV=7, svid_01=71, elv_01=50.0, az_01=320, cno_01=34, svid_02=72, elv_02=9.0, az_02=292, cno_02=23, svid_03=73, elv_03=36.0, az_03=155, cno_03=30, svid_04=79, elv_04=14.0, az_04=26, cno_04=33, signalID=3)>000: 2447 4c47 5356 2c32 2c31 2c30 372c 3731  | b'$GLGSV,2,1,07,71' |
016: 2c35 302c 3332 302c 3334 2c37 322c 3039  | b',50,320,34,72,09' |
032: 2c32 3932 2c32 332c 3733 2c33 362c 3135  | b',292,23,73,36,15' |
048: 352c 3330 2c37 392c 3134 2c30 3236 2c33  | b'5,30,79,14,026,3' |
064: 332c 332a 3733 0d0a                      | b'3,3*73\r\n' |
<NMEA(GLGSV, numMsg=2, msgNum=2, numSV=7, svid_01=80, elv_01=50.0, az_01=73, cno_01=37, svid_02=85, elv_02=8.0, az_02=218, cno_02=26, svid_03=86, elv_03=30.0, az_03=261, cno_03=33, signalID=3)>000: 2447 4c47 5356 2c32 2c32 2c30 372c 3830  | b'$GLGSV,2,2,07,80' |
016: 2c35 302c 3037 332c 3337 2c38 352c 3038  | b',50,073,37,85,08' |
032: 2c32 3138 2c32 362c 3836 2c33 302c 3236  | b',218,26,86,30,26' |
048: 312c 3333 2c33 2a34 320d 0a              | b'1,33,3*42\r\n' |
<NMEA(GLGSV, numMsg=1, msgNum=1, numSV=2, svid_01=69, elv_01=2.0, az_01=97, cno_01=, svid_02=74, elv_02=1.0, az_02=181, cno_02=, signalID=0)>000: 2447 4c47 5356 2c31 2c31 2c30 322c 3639  | b'$GLGSV,1,1,02,69' |
016: 2c30 322c 3039 372c 2c37 342c 3031 2c31  | b',02,097,,74,01,1' |
032: 3831 2c2c 302a 3732 0d0a                 | b'81,,0*72\r\n' |
<NMEA(GAGSV, numMsg=2, msgNum=1, numSV=8, svid_01=4, elv_01=15.0, az_01=78, cno_01=33, svid_02=5, elv_02=53.0, az_02=283, cno_02=39, svid_03=9, elv_03=64.0, az_03=52, cno_03=41, svid_04=15, elv_04=12.0, az_04=328, cno_04=30, signalID=2)>000: 2447 4147 5356 2c32 2c31 2c30 382c 3034  | b'$GAGSV,2,1,08,04' |
016: 2c31 352c 3037 382c 3333 2c30 352c 3533  | b',15,078,33,05,53' |
032: 2c32 3833 2c33 392c 3039 2c36 342c 3035  | b',283,39,09,64,05' |
048: 322c 3431 2c31 352c 3132 2c33 3238 2c33  | b'2,41,15,12,328,3' |
064: 302c 322a 3736 0d0a                      | b'0,2*76\r\n' |
<NMEA(GAGSV, numMsg=2, msgNum=2, numSV=8, svid_01=24, elv_01=15.0, az_01=149, cno_01=32, svid_02=31, elv_02=30.0, az_02=99, cno_02=37, svid_03=34, elv_03=41.0, az_03=280, cno_03=39, svid_04=36, elv_04=33.0, az_04=213, cno_04=34, signalID=2)>000: 2447 4147 5356 2c32 2c32 2c30 382c 3234  | b'$GAGSV,2,2,08,24' |
016: 2c31 352c 3134 392c 3332 2c33 312c 3330  | b',15,149,32,31,30' |
032: 2c30 3939 2c33 372c 3334 2c34 312c 3238  | b',099,37,34,41,28' |
048: 302c 3339 2c33 362c 3333 2c32 3133 2c33  | b'0,39,36,33,213,3' |
064: 342c 322a 3734 0d0a                      | b'4,2*74\r\n' |
<NMEA(GAGSV, numMsg=2, msgNum=1, numSV=8, svid_01=4, elv_01=15.0, az_01=78, cno_01=37, svid_02=5, elv_02=53.0, az_02=283, cno_02=48, svid_03=9, elv_03=64.0, az_03=52, cno_03=47, svid_04=15, elv_04=12.0, az_04=328, cno_04=29, signalID=7)>000: 2447 4147 5356 2c32 2c31 2c30 382c 3034  | b'$GAGSV,2,1,08,04' |
016: 2c31 352c 3037 382c 3337 2c30 352c 3533  | b',15,078,37,05,53' |
032: 2c32 3833 2c34 382c 3039 2c36 342c 3035  | b',283,48,09,64,05' |
048: 322c 3437 2c31 352c 3132 2c33 3238 2c32  | b'2,47,15,12,328,2' |
064: 392c 372a 3746 0d0a                      | b'9,7*7F\r\n' |
<NMEA(GAGSV, numMsg=2, msgNum=2, numSV=8, svid_01=24, elv_01=15.0, az_01=149, cno_01=33, svid_02=31, elv_02=30.0, az_02=99, cno_02=39, svid_03=34, elv_03=41.0, az_03=280, cno_03=46, svid_04=36, elv_04=33.0, az_04=213, cno_04=44, signalID=7)>000: 2447 4147 5356 2c32 2c32 2c30 382c 3234  | b'$GAGSV,2,2,08,24' |
016: 2c31 352c 3134 392c 3333 2c33 312c 3330  | b',15,149,33,31,30' |
032: 2c30 3939 2c33 392c 3334 2c34 312c 3238  | b',099,39,34,41,28' |
048: 302c 3436 2c33 362c 3333 2c32 3133 2c34  | b'0,46,36,33,213,4' |
064: 342c 372a 3731 0d0a                      | b'4,7*71\r\n' |
<NMEA(GAGSV, numMsg=1, msgNum=1, numSV=2, svid_01=3, elv_01=4.0, az_01=267, cno_01=, svid_02=11, elv_02=0.0, az_02=177, cno_02=, signalID=0)>000: 2447 4147 5356 2c31 2c31 2c30 322c 3033  | b'$GAGSV,1,1,02,03' |
016: 2c30 342c 3236 372c 2c31 312c 3030 2c31  | b',04,267,,11,00,1' |
032: 3737 2c2c 302a 3733 0d0a                 | b'77,,0*73\r\n' |
<NMEA(GBGSV, numMsg=2, msgNum=1, numSV=7, svid_01=19, elv_01=20.0, az_01=296, cno_01=45, svid_02=20, elv_02=68.0, az_02=322, cno_02=51, svid_03=23, elv_03=36.0, az_03=58, cno_03=48, svid_04=29, elv_04=13.0, az_04=254, cno_04=38, signalID=1)>000: 2447 4247 5356 2c32 2c31 2c30 372c 3139  | b'$GBGSV,2,1,07,19' |
016: 2c32 302c 3239 362c 3435 2c32 302c 3638  | b',20,296,45,20,68' |
032: 2c33 3232 2c35 312c 3233 2c33 362c 3035  | b',322,51,23,36,05' |
048: 382c 3438 2c32 392c 3133 2c32 3534 2c33  | b'8,48,29,13,254,3' |
064: 382c 312a 3742 0d0a                      | b'8,1*7B\r\n' |
<NMEA(GBGSV, numMsg=2, msgNum=2, numSV=7, svid_01=32, elv_01=47.0, az_01=97, cno_01=49, svid_02=35, elv_02=11.0, az_02=309, cno_02=41, svid_03=37, elv_03=53.0, az_03=137, cno_03=50, signalID=1)>000: 2447 4247 5356 2c32 2c32 2c30 372c 3332  | b'$GBGSV,2,2,07,32' |
016: 2c34 372c 3039 372c 3439 2c33 352c 3131  | b',47,097,49,35,11' |
032: 2c33 3039 2c34 312c 3337 2c35 332c 3133  | b',309,41,37,53,13' |
048: 372c 3530 2c31 2a34 420d 0a              | b'7,50,1*4B\r\n' |
<NMEA(GBGSV, numMsg=1, msgNum=1, numSV=1, svid_01=32, elv_01=47.0, az_01=97, cno_01=8, signalID=3)>000: 2447 4247 5356 2c31 2c31 2c30 312c 3332  | b'$GBGSV,1,1,01,32' |
016: 2c34 372c 3039 372c 3038 2c33 2a34 310d  | b',47,097,08,3*41\r' |
032: 0a                                       | b'\n' |
<NMEA(GNGLL, lat=43.882574015, NS=N, lon=-72.1576252767, EW=W, time=19:56:16.500000, status=A, posMode=D)>000: 2447 4e47 4c4c 2c34 3335 322e 3935 3434  | b'$GNGLL,4352.9544' |
016: 3430 392c 4e2c 3037 3230 392e 3435 3735  | b'409,N,07209.4575' |
032: 3136 362c 572c 3139 3536 3136 2e35 302c  | b'166,W,195616.50,' |
048: 412c 442a 3636 0d0a                      | b'A,D*66\r\n' |
<NMEA(GNRMC, time=19:56:16.750000, status=A, lat=43.8825740217, NS=N, lon=-72.1576252617, EW=W, spd=0.013, cog=, date=2023-09-05, mv=, mvEW=, posMode=R, navStatus=V)>000: 2447 4e52 4d43 2c31 3935 3631 362e 3735  | b'$GNRMC,195616.75' |
016: 2c41 2c34 3335 322e 3935 3434 3431 332c  | b',A,4352.9544413,' |
032: 4e2c 3037 3230 392e 3435 3735 3135 372c  | b'N,07209.4575157,' |
048: 572c 302e 3031 332c 2c30 3530 3932 332c  | b'W,0.013,,050923,' |
064: 2c2c 522c 562a 3132 0d0a                 | b',,R,V*12\r\n' |
<NMEA(GNGSA, opMode=A, navMode=3, svid_01=46, svid_02=21, svid_03=44, svid_04=24, svid_05=25, svid_06=18, svid_07=10, svid_08=12, svid_09=23, svid_10=15, svid_11=32, svid_12=, PDOP=0.99, HDOP=0.55, VDOP=0.82, systemId=1)>000: 2447 4e47 5341 2c41 2c33 2c34 362c 3231  | b'$GNGSA,A,3,46,21' |
016: 2c34 342c 3234 2c32 352c 3138 2c31 302c  | b',44,24,25,18,10,' |
032: 3132 2c32 332c 3135 2c33 322c 2c30 2e39  | b'12,23,15,32,,0.9' |
048: 392c 302e 3535 2c30 2e38 322c 312a 3034  | b'9,0.55,0.82,1*04' |
064: 0d0a                                     | b'\r\n' |
<NMEA(GNGSA, opMode=A, navMode=3, svid_01=87, svid_02=80, svid_03=71, svid_04=73, svid_05=70, svid_06=79, svid_07=, svid_08=, svid_09=, svid_10=, svid_11=, svid_12=, PDOP=0.99, HDOP=0.55, VDOP=0.82, systemId=2)>000: 2447 4e47 5341 2c41 2c33 2c38 372c 3830  | b'$GNGSA,A,3,87,80' |
016: 2c37 312c 3733 2c37 302c 3739 2c2c 2c2c  | b',71,73,70,79,,,,' |
032: 2c2c 2c30 2e39 392c 302e 3535 2c30 2e38  | b',,,0.99,0.55,0.8' |
048: 322c 322a 3034 0d0a                      | b'2,2*04\r\n' |
<NMEA(GNGSA, opMode=A, navMode=3, svid_01=36, svid_02=5, svid_03=31, svid_04=34, svid_05=4, svid_06=24, svid_07=9, svid_08=, svid_09=, svid_10=, svid_11=, svid_12=, PDOP=0.99, HDOP=0.55, VDOP=0.82, systemId=3)>000: 2447 4e47 5341 2c41 2c33 2c33 362c 3035  | b'$GNGSA,A,3,36,05' |
016: 2c33 312c 3334 2c30 342c 3234 2c30 392c  | b',31,34,04,24,09,' |
032: 2c2c 2c2c 2c30 2e39 392c 302e 3535 2c30  | b',,,,,0.99,0.55,0' |
048: 2e38 322c 332a 3037 0d0a                 | b'.82,3*07\r\n' |
<NMEA(GPGSV, numMsg=4, msgNum=2, numSV=13, svid_01=18, elv_01=12.0, az_01=186, cno_01=31, svid_02=21, elv_02=17.0, az_02=318, cno_02=39, svid_03=23, elv_03=60.0, az_03=135, cno_03=47, svid_04=24, elv_04=41.0, az_04=54, cno_04=45, signalID=1)>000: 2447 5047 5356 2c34 2c32 2c31 332c 3138  | b'$GPGSV,4,2,13,18' |
016: 2c31 322c 3138 362c 3331 2c32 312c 3137  | b',12,186,31,21,17' |
032: 2c33 3138 2c33 392c 3233 2c36 302c 3133  | b',318,39,23,60,13' |
048: 352c 3437 2c32 342c 3431 2c30 3534 2c34  | b'5,47,24,41,054,4' |
064: 352c 312a 3632 0d0a                      | b'5,1*62\r\n' |
<NMEA(GPGSV, numMsg=4, msgNum=3, numSV=13, svid_01=25, elv_01=14.0, az_01=147, cno_01=31, svid_02=28, elv_02=16.0, az_02=215, cno_02=42, svid_03=32, elv_03=44.0, az_03=278, cno_03=50, svid_04=44, elv_04=23.0, az_04=235, cno_04=42, signalID=1)>000: 2447 5047 5356 2c34 2c33 2c31 332c 3235  | b'$GPGSV,4,3,13,25' |
016: 2c31 342c 3134 372c 3331 2c32 382c 3136  | b',14,147,31,28,16' |
032: 2c32 3135 2c34 322c 3332 2c34 342c 3237  | b',215,42,32,44,27' |
048: 382c 3530 2c34 342c 3233 2c32 3335 2c34  | b'8,50,44,23,235,4' |
064: 322c 312a 3634 0d0a                      | b'2,1*64\r\n' |
<NMEA(GPGSV, numMsg=4, msgNum=4, numSV=13, svid_01=46, elv_01=15.0, az_01=246, cno_01=39, signalID=1)>000: 2447 5047 5356 2c34 2c34 2c31 332c 3436  | b'$GPGSV,4,4,13,46' |
016: 2c31 352c 3234 362c 3339 2c31 2a35 410d  | b',15,246,39,1*5A\r' |
032: 0a                                       | b'\n' |
<NMEA(GPGSV, numMsg=3, msgNum=1, numSV=9, svid_01=10, elv_01=77.0, az_01=307, cno_01=40, svid_02=12, elv_02=24.0, az_02=106, cno_02=34, svid_03=15, elv_03=12.0, az_03=85, cno_03=33, svid_04=18, elv_04=12.0, az_04=186, cno_04=26, signalID=6)>000: 2447 5047 5356 2c33 2c31 2c30 392c 3130  | b'$GPGSV,3,1,09,10' |
016: 2c37 372c 3330 372c 3430 2c31 322c 3234  | b',77,307,40,12,24' |
032: 2c31 3036 2c33 342c 3135 2c31 322c 3038  | b',106,34,15,12,08' |
048: 352c 3333 2c31 382c 3132 2c31 3836 2c32  | b'5,33,18,12,186,2' |
064: 362c 362a 3637 0d0a                      | b'6,6*67\r\n' |
<NMEA(GPGSV, numMsg=3, msgNum=2, numSV=9, svid_01=23, elv_01=60.0, az_01=135, cno_01=40, svid_02=24, elv_02=41.0, az_02=54, cno_02=39, svid_03=25, elv_03=14.0, az_03=147, cno_03=33, svid_04=28, elv_04=16.0, az_04=215, cno_04=35, signalID=6)>000: 2447 5047 5356 2c33 2c32 2c30 392c 3233  | b'$GPGSV,3,2,09,23' |
016: 2c36 302c 3133 352c 3430 2c32 342c 3431  | b',60,135,40,24,41' |
032: 2c30 3534 2c33 392c 3235 2c31 342c 3134  | b',054,39,25,14,14' |
048: 372c 3333 2c32 382c 3136 2c32 3135 2c33  | b'7,33,28,16,215,3' |
064: 352c 362a 3641 0d0a                      | b'5,6*6A\r\n' |
<NMEA(GPGSV, numMsg=3, msgNum=3, numSV=9, svid_01=32, elv_01=44.0, az_01=278, cno_01=38, signalID=6)>000: 2447 5047 5356 2c33 2c33 2c30 392c 3332  | b'$GPGSV,3,3,09,32' |
016: 2c34 342c 3237 382c 3338 2c36 2a35 440d  | b',44,278,38,6*5D\r' |
032: 0a                                       | b'\n' |
<NMEA(GLGSV, numMsg=3, msgNum=1, numSV=9, svid_01=70, elv_01=56.0, az_01=60, cno_01=39, svid_02=71, elv_02=50.0, az_02=320, cno_02=51, svid_03=72, elv_03=9.0, az_03=292, cno_03=34, svid_04=73, elv_04=36.0, az_04=155, cno_04=47, signalID=1)>000: 2447 4c47 5356 2c33 2c31 2c30 392c 3730  | b'$GLGSV,3,1,09,70' |
016: 2c35 362c 3036 302c 3339 2c37 312c 3530  | b',56,060,39,71,50' |
032: 2c33 3230 2c35 312c 3732 2c30 392c 3239  | b',320,51,72,09,29' |
048: 322c 3334 2c37 332c 3336 2c31 3535 2c34  | b'2,34,73,36,155,4' |
064: 372c 312a 3743 0d0a                      | b'7,1*7C\r\n' |
