<NMEA(GLGSV, numMsg=1, msgNum=1, numSV=1, svid_01=72, elv_01=2.0, az_01=285, cno_01=, signalID=0)>000: 2447 4c47 5356 2c31 2c31 2c30 312c 3732  | b'$GLGSV,1,1,01,72' |
016: 2c30 322c 3238 352c 2c30 2a34 300d 0a    | b',02,285,,0*40\r\n' |
<NMEA(GAGSV, numMsg=2, msgNum=1, numSV=8, svid_01=4, elv_01=21.0, az_01=72, cno_01=36, svid_02=5, elv_02=47.0, az_02=274, cno_02=41, svid_03=9, elv_03=69.0, az_03=40, cno_03=43, svid_04=15, elv_04=7.0, az_04=331, cno_04=31, signalID=2)>000: 2447 4147 5356 2c32 2c31 2c30 382c 3034  | b'$GAGSV,2,1,08,04' |
016: 2c32 312c 3037 322c 3336 2c30 352c 3437  | b',21,072,36,05,47' |
032: 2c32 3734 2c34 312c 3039 2c36 392c 3034  | b',274,41,09,69,04' |
048: 302c 3433 2c31 352c 3037 2c33 3331 2c33  | b'0,43,15,07,331,3' |
064: 312c 322a 3744 0d0a                      | b'1,2*7D\r\n' |
<NMEA(GAGSV, numMsg=2, msgNum=2, numSV=8, svid_01=24, elv_01=8.0, az_01=152, cno_01=26, svid_02=31, elv_02=25.0, az_02=105, cno_02=36, svid_03=34, elv_03=42.0, az_03=290, cno_03=39, svid_04=36, elv_04=40.0, az_04=216, cno_04=38, signalID=2)>000: 2447 4147 5356 2c32 2c32 2c30 382c 3234  | b'$GAGSV,2,2,08,24' |
016: 2c30 382c 3135 322c 3236 2c33 312c 3235  | b',08,152,26,31,25' |
032: 2c31 3035 2c33 362c 3334 2c34 322c 3239  | b',105,36,34,42,29' |
048: 302c 3339 2c33 362c 3430 2c32 3136 2c33  | b'0,39,36,40,216,3' |
064: 382c 322a 3739 0d0a                      | b'8,2*79\r\n' |
<NMEA(GAGSV, numMsg=3, msgNum=1, numSV=9, svid_01=4, elv_01=21.0, az_01=72, cno_01=36, svid_02=5, elv_02=47.0, az_02=274, cno_02=48, svid_03=9, elv_03=69.0, az_03=40, cno_03=48, svid_04=11, elv_04=7.0, az_04=178, cno_04=28, signalID=7)>000: 2447 4147 5356 2c33 2c31 2c30 392c 3034  | b'$GAGSV,3,1,09,04' |
016: 2c32 312c 3037 322c 3336 2c30 352c 3437  | b',21,072,36,05,47' |
032: 2c32 3734 2c34 382c 3039 2c36 392c 3034  | b',274,48,09,69,04' |
048: 302c 3438 2c31 312c 3037 2c31 3738 2c32  | b'0,48,11,07,178,2' |
064: 382c 372a 3739 0d0a                      | b'8,7*79\r\n' |
<NMEA(GAGSV, numMsg=3, msgNum=2, numSV=9, svid_01=15, elv_01=7.0, az_01=331, cno_01=35, svid_02=24, elv_02=8.0, az_02=152, cno_02=34, svid_03=31, elv_03=25.0, az_03=105, cno_03=41, svid_04=34, elv_04=42.0, az_04=290, cno_04=45, signalID=7)>000: 2447 4147 5356 2c33 2c32 2c30 392c 3135  | b'$GAGSV,3,2,09,15' |
016: 2c30 372c 3333 312c 3335 2c32 342c 3038  | b',07,331,35,24,08' |
032: 2c31 3532 2c33 342c 3331 2c32 352c 3130  | b',152,34,31,25,10' |
048: 352c 3431 2c33 342c 3432 2c32 3930 2c34  | b'5,41,34,42,290,4' |
064: 352c 372a 3746 0d0a                      | b'5,7*7F\r\n' |
<NMEA(GAGSV, numMsg=3, msgNum=3, numSV=9, svid_01=36, elv_01=40.0, az_01=216, cno_01=46, signalID=7)>000: 2447 4147 5356 2c33 2c33 2c30 392c 3336  | b'$GAGSV,3,3,09,36' |
016: 2c34 302c 3231 362c 3436 2c37 2a34 430d  | b',40,216,46,7*4C\r' |
032: 0a                                       | b'\n' |
<NMEA(GBGSV, numMsg=2, msgNum=1, numSV=8, svid_01=19, elv_01=14.0, az_01=292, cno_01=43, svid_02=20, elv_02=61.0, az_02=311, cno_02=53, svid_03=23, elv_03=40.0, az_03=67, cno_03=46, svid_04=29, elv_04=18.0, az_04=261, cno_04=42, signalID=1)>000: 2447 4247 5356 2c32 2c31 2c30 382c 3139  | b'$GBGSV,2,1,08,19' |
016: 2c31 342c 3239 322c 3433 2c32 302c 3631  | b',14,292,43,20,61' |
032: 2c33 3131 2c35 332c 3233 2c34 302c 3036  | b',311,53,23,40,06' |
048: 372c 3436 2c32 392c 3138 2c32 3631 2c34  | b'7,46,29,18,261,4' |
064: 322c 312a 3739 0d0a                      | b'2,1*79\r\n' |
<NMEA(GBGSV, numMsg=2, msgNum=2, numSV=8, svid_01=30, elv_01=3.0, az_01=212, cno_01=30, svid_02=32, elv_02=53.0, az_02=88, cno_02=50, svid_03=35, elv_03=11.0, az_03=316, cno_03=38, svid_04=37, elv_04=45.0, az_04=145, cno_04=48, signalID=1)>000: 2447 4247 5356 2c32 2c32 2c30 382c 3330  | b'$GBGSV,2,2,08,30' |
016: 2c30 332c 3231 322c 3330 2c33 322c 3533  | b',03,212,30,32,53' |
032: 2c30 3838 2c35 302c 3335 2c31 312c 3331  | b',088,50,35,11,31' |
048: 362c 3338 2c33 372c 3435 2c31 3435 2c34  | b'6,38,37,45,145,4' |
064: 382c 312a 3745 0d0a                      | b'8,1*7E\r\n' |
<NMEA(GBGSV, numMsg=1, msgNum=1, numSV=3, svid_01=20, elv_01=61.0, az_01=311, cno_01=10, svid_02=25, elv_02=5.0, az_02=33, cno_02=8, svid_03=32, elv_03=53.0, az_03=88, cno_03=8, signalID=3)>000: 2447 4247 5356 2c31 2c31 2c30 332c 3230  | b'$GBGSV,1,1,03,20' |
016: 2c36 312c 3331 312c 3130 2c32 352c 3035  | b',61,311,10,25,05' |
032: 2c30 3333 2c30 382c 3332 2c35 332c 3038  | b',033,08,32,53,08' |
048: 382c 3038 2c33 2a34 350d 0a              | b'8,08,3*45\r\n' |
<NMEA(GNGLL, lat=43.8827367583, NS=N, lon=-72.15806297, EW=W, time=19:35:31.750000, status=A, posMode=D)>000: 2447 4e47 4c4c 2c34 3335 322e 3936 3432  | b'$GNGLL,4352.9642' |
016: 3035 352c 4e2c 3037 3230 392e 3438 3337  | b'055,N,07209.4837' |
032: 3738 322c 572c 3139 3335 3331 2e37 352c  | b'782,W,193531.75,' |
048: 412c 442a 3645 0d0a                      | b'A,D*6E\r\n' |
<NMEA(GNRMC, time=19:35:32, status=A, lat=43.8827369817, NS=N, lon=-72.1580628183, EW=W, spd=0.207, cog=20.67, date=2023-09-05, mv=, mvEW=, posMode=R, navStatus=V)>000: 2447 4e52 4d43 2c31 3933 3533 322e 3030  | b'$GNRMC,193532.00' |
016: 2c41 2c34 3335 322e 3936 3432 3138 392c  | b',A,4352.9642189,' |
032: 4e2c 3037 3230 392e 3438 3337 3639 312c  | b'N,07209.4837691,' |
048: 572c 302e 3230 372c 3230 2e36 372c 3035  | b'W,0.207,20.67,05' |
064: 3039 3233 2c2c 2c52 2c56 2a33 430d 0a    | b'0923,,,R,V*3C\r\n' |
<NMEA(GNTXT, numMsg=1, msgNum=1, msgType=0, text=txbuf alloc)>000: 2447 4e54 5854 2c30 312c 3031 2c30 302c  | b'$GNTXT,01,01,00,' |
016: 7478 6275 6620 616c 6c6f 632a 3631 0d0a  | b'txbuf alloc*61\r\n' |
<NMEA(GNRMC, time=19:35:32.250000, status=A, lat=43.8827366517, NS=N, lon=-72.1580622967, EW=W, spd=0.441, cog=132.96, date=2023-09-05, mv=, mvEW=, posMode=R, navStatus=V)>000: 2447 4e52 4d43 2c31 3933 3533 322e 3235  | b'$GNRMC,193532.25' |
016: 2c41 2c34 3335 322e 3936 3431 3939 312c  | b',A,4352.9641991,' |
032: 4e2c 3037 3230 392e 3438 3337 3337 382c  | b'N,07209.4837378,' |
048: 572c 302e 3434 312c 3133 322e 3936 2c30  | b'W,0.441,132.96,0' |
064: 3530 3932 332c 2c2c 522c 562a 3033 0d0a  | b'50923,,,R,V*03\r\n' |
<NMEA(GNVTG, cogt=132.96, cogtUnit=T, cogm=, cogmUnit=M, sogn=0.441, sognUnit=N, sogk=0.816, sogkUnit=K, posMode=D)>000: 2447 4e56 5447 2c31 3332 2e39 362c 542c  | b'$GNVTG,132.96,T,' |
016: 2c4d 2c30 2e34 3431 2c4e 2c30 2e38 3136  | b',M,0.441,N,0.816' |
032: 2c4b 2c44 2a32 370d 0a                   | b',K,D*27\r\n' |
<NMEA(GNGGA, time=19:35:32.250000, lat=43.8827366517, NS=N, lon=-72.1580622967, EW=W, quality=4, numSV=12, HDOP=0.53, alt=142.354, altUnit=M, sep=-32.547, sepUnit=M, diffAge=, diffStation=0)>000: 2447 4e47 4741 2c31 3933 3533 322e 3235  | b'$GNGGA,193532.25' |
016: 2c34 3335 322e 3936 3431 3939 312c 4e2c  | b',4352.9641991,N,' |
032: 3037 3230 392e 3438 3337 3337 382c 572c  | b'07209.4837378,W,' |
048: 342c 3132 2c30 2e35 332c 3134 322e 3335  | b'4,12,0.53,142.35' |
064: 342c 4d2c 2d33 322e 3534 372c 4d2c 2c30  | b'4,M,-32.547,M,,0' |
080: 3030 302a 3734 0d0a                      | b'000*74\r\n' |
<NMEA(GNGSA, opMode=A, navMode=3, svid_01=46, svid_02=21, svid_03=44, svid_04=24, svid_05=18, svid_06=10, svid_07=12, svid_08=23, svid_09=15, svid_10=32, svid_11=, svid_12=, PDOP=0.97, HDOP=0.53, VDOP=0.81, systemId=1)>000: 2447 4e47 5341 2c41 2c33 2c34 362c 3231  | b'$GNGSA,A,3,46,21' |
016: 2c34 342c 3234 2c31 382c 3130 2c31 322c  | b',44,24,18,10,12,' |
032: 3233 2c31 352c 3332 2c2c 2c30 2e39 372c  | b'23,15,32,,,0.97,' |
048: 302e 3533 2c30 2e38 312c 312a 3038 0d0a  | b'0.53,0.81,1*08\r\n' |
<NMEA(GNGSA, opMode=A, navMode=3, svid_01=87, svid_02=85, svid_03=80, svid_04=71, svid_05=73, svid_06=70, svid_07=79, svid_08=, svid_09=, svid_10=, svid_11=, svid_12=, PDOP=0.97, HDOP=0.53, VDOP=0.81, systemId=2)>000: 2447 4e47 5341 2c41 2c33 2c38 372c 3835  | b'$GNGSA,A,3,87,85' |
016: 2c38 302c 3731 2c37 332c 3730 2c37 392c  | b',80,71,73,70,79,' |
032: 2c2c 2c2c 2c30 2e39 372c 302e 3533 2c30  | b',,,,,0.97,0.53,0' |
048: 2e38 312c 322a 3032 0d0a                 | b'.81,2*02\r\n' |
<NMEA(GNGSA, opMode=A, navMode=3, svid_01=36, svid_02=5, svid_03=31, svid_04=34, svid_05=4, svid_06=9, svid_07=, svid_08=, svid_09=, svid_10=, svid_11=, svid_12=, PDOP=0.97, HDOP=0.53, VDOP=0.81, systemId=3)>000: 2447 4e47 5341 2c41 2c33 2c33 362c 3035  | b'$GNGSA,A,3,36,05' |
016: 2c33 312c 3334 2c30 342c 3039 2c2c 2c2c  | b',31,34,04,09,,,,' |
032: 2c2c 2c30 2e39 372c 302e 3533 2c30 2e38  | b',,,0.97,0.53,0.8' |
048: 312c 332a 3041 0d0a                      | b'1,3*0A\r\n' |
<NMEA(GNGSA, opMode=A, navMode=3, svid_01=37, svid_02=19, svid_03=32, svid_04=29, svid_05=20, svid_06=23, svid_07=35, svid_08=, svid_09=, svid_10=, svid_11=, svid_12=, PDOP=0.97, HDOP=0.53, VDOP=0.81, systemId=4)>000: 2447 4e47 5341 2c41 2c33 2c33 372c 3139  | b'$GNGSA,A,3,37,19' |
016: 2c33 322c 3239 2c32 302c 3233 2c33 352c  | b',32,29,20,23,35,' |
032: 2c2c 2c2c 2c30 2e39 372c 302e 3533 2c30  | b',,,,,0.97,0.53,0' |
048: 2e38 312c 342a 3036 0d0a                 | b'.81,4*06\r\n' |
<NMEA(GPGSV, numMsg=3, msgNum=1, numSV=12, svid_01=2, elv_01=6.0, az_01=329, cno_01=35, svid_02=10, elv_02=68.0, az_02=312, cno_02=52, svid_03=12, elv_03=18.0, az_03=114, cno_03=37, svid_04=15, elv_04=18.0, az_04=79, cno_04=36, signalID=1)>000: 2447 5047 5356 2c33 2c31 2c31 322c 3032  | b'$GPGSV,3,1,12,02' |
016: 2c30 362c 3332 392c 3335 2c31 302c 3638  | b',06,329,35,10,68' |
032: 2c33 3132 2c35 322c 3132 2c31 382c 3131  | b',312,52,12,18,11' |
048: 342c 3337 2c31 352c 3138 2c30 3739 2c33  | b'4,37,15,18,079,3' |
064: 362c 312a 3642 0d0a                      | b'6,1*6B\r\n' |
<NMEA(GPGSV, numMsg=3, msgNum=2, numSV=12, svid_01=18, elv_01=21.0, az_01=188, cno_01=41, svid_02=21, elv_02=12.0, az_02=324, cno_02=39, svid_03=23, elv_03=70.0, az_03=125, cno_03=48, svid_04=24, elv_04=49.0, az_04=59, cno_04=46, signalID=1)>000: 2447 5047 5356 2c33 2c32 2c31 322c 3138  | b'$GPGSV,3,2,12,18' |
016: 2c32 312c 3138 382c 3431 2c32 312c 3132  | b',21,188,41,21,12' |
032: 2c33 3234 2c33 392c 3233 2c37 302c 3132  | b',324,39,23,70,12' |
048: 352c 3438 2c32 342c 3439 2c30 3539 2c34  | b'5,48,24,49,059,4' |
064: 362c 312a 3645 0d0a                      | b'6,1*6E\r\n' |
<NMEA(GPGSV, numMsg=3, msgNum=3, numSV=12, svid_01=28, elv_01=7.0, az_01=212, cno_01=34, svid_02=32, elv_02=37.0, az_02=270, cno_02=48, svid_03=44, elv_03=23.0, az_03=235, cno_03=39, svid_04=46, elv_04=15.0, az_04=246, cno_04=38, signalID=1)>000: 2447 5047 5356 2c33 2c33 2c31 322c 3238  | b'$GPGSV,3,3,12,28' |
016: 2c30 372c 3231 322c 3334 2c33 322c 3337  | b',07,212,34,32,37' |
032: 2c32 3730 2c34 382c 3434 2c32 332c 3233  | b',270,48,44,23,23' |
048: 352c 3339 2c34 362c 3135 2c32 3436 2c33  | b'5,39,46,15,246,3' |
064: 382c 312a 3632 0d0a                      | b'8,1*62\r\n' |
<NMEA(GPGSV, numMsg=3, msgNum=1, numSV=9, svid_01=10, elv_01=68.0, az_01=312, cno_01=42, svid_02=12, elv_02=18.0, az_02=114, cno_02=33, svid_03=15, elv_03=18.0, az_03=79, cno_03=34, svid_04=18, elv_04=21.0, az_04=188, cno_04=31, signalID=6)>000: 2447 5047 5356 2c33 2c31 2c30 392c 3130  | b'$GPGSV,3,1,09,10' |
016: 2c36 382c 3331 322c 3432 2c31 322c 3138  | b',68,312,42,12,18' |
032: 2c31 3134 2c33 332c 3135 2c31 382c 3037  | b',114,33,15,18,07' |
048: 392c 3334 2c31 382c 3231 2c31 3838 2c33  | b'9,34,18,21,188,3' |
064: 312c 362a 3632 0d0a                      | b'1,6*62\r\n' |
<NMEA(GPGSV, numMsg=3, msgNum=2, numSV=9, svid_01=23, elv_01=70.0, az_01=125, cno_01=41, svid_02=24, elv_02=49.0, az_02=59, cno_02=41, svid_03=25, elv_03=7.0, az_03=152, cno_03=23, svid_04=28, elv_04=7.0, az_04=212, cno_04=26, signalID=6)>000: 2447 5047 5356 2c33 2c32 2c30 392c 3233  | b'$GPGSV,3,2,09,23' |
016: 2c37 302c 3132 352c 3431 2c32 342c 3439  | b',70,125,41,24,49' |
032: 2c30 3539 2c34 312c 3235 2c30 372c 3135  | b',059,41,25,07,15' |
048: 322c 3233 2c32 382c 3037 2c32 3132 2c32  | b'2,23,28,07,212,2' |
064: 362c 362a 3633 0d0a                      | b'6,6*63\r\n' |
<NMEA(GPGSV, numMsg=3, msgNum=3, numSV=9, svid_01=32, elv_01=37.0, az_01=270, cno_01=38, signalID=6)>000: 2447 5047 5356 2c33 2c33 2c30 392c 3332  | b'$GPGSV,3,3,09,32' |
016: 2c33 372c 3237 302c 3338 2c36 2a35 310d  | b',37,270,38,6*51\r' |
032: 0a                                       | b'\n' |
<NMEA(GLGSV, numMsg=3, msgNum=1, numSV=10, svid_01=69, elv_01=9.0, az_01=89, cno_01=26, svid_02=70, elv_02=60.0, az_02=40, cno_02=38, svid_03=71, elv_03=43.0, az_03=308, cno_03=50, svid_04=73, elv_04=26.0, az_04=158, cno_04=45, signalID=1)>000: 2447 4c47 5356 2c33 2c31 2c31 302c 3639  | b'$GLGSV,3,1,10,69' |
016: 2c30 392c 3038 392c 3236 2c37 302c 3630  | b',09,089,26,70,60' |
032: 2c30 3430 2c33 382c 3731 2c34 332c 3330  | b',040,38,71,43,30' |
048: 382c 3530 2c37 332c 3236 2c31 3538 2c34  | b'8,50,73,26,158,4' |
064: 352c 312a 3734 0d0a                      | b'5,1*74\r\n' |
<NMEA(GLGSV, numMsg=3, msgNum=2, numSV=10, svid_01=79, elv_01=21.0, az_01=32, cno_01=45, svid_02=80, elv_02=49.0, az_02=91, cno_02=48, svid_03=85, elv_03=17.0, az_03=223, cno_03=45, svid_04=86, elv_04=35.0, az_04=273, cno_04=47, signalID=1)>000: 2447 4c47 5356 2c33 2c32 2c31 302c 3739  | b'$GLGSV,3,2,10,79' |
016: 2c32 312c 3033 322c 3435 2c38 302c 3439  | b',21,032,45,80,49' |
032: 2c30 3931 2c34 382c 3835 2c31 372c 3232  | b',091,48,85,17,22' |
048: 332c 3435 2c38 362c 3335 2c32 3733 2c34  | b'3,45,86,35,273,4' |
064: 372c 312a 3730 0d0a                      | b'7,1*70\r\n' |
<NMEA(GLGSV, numMsg=3, msgNum=3, numSV=10, svid_01=87, elv_01=18.0, az_01=332, cno_01=42, svid_02=, elv_02=, az_02=, cno_02=41, signalID=1)>000: 2447 4c47 5356 2c33 2c33 2c31 302c 3837  | b'$GLGSV,3,3,10,87' |
016: 2c31 382c 3333 322c 3432 2c2c 2c2c 3431  | b',18,332,42,,,,41' |
032: 2c31 2a34 450d 0a                        | b',1*4E\r\n' |
<NMEA(GLGSV, numMsg=2, msgNum=1, numSV=7, svid_01=69, elv_01=9.0, az_01=89, cno_01=23, svid_02=71, elv_02=43.0, az_02=308, cno_02=39, svid_03=73, elv_03=26.0, az_03=158, cno_03=33, svid_04=79, elv_04=21.0, az_04=32, cno_04=38, signalID=3)>000: 2447 4c47 5356 2c32 2c31 2c30 372c 3639  | b'$GLGSV,2,1,07,69' |
016: 2c30 392c 3038 392c 3233 2c37 312c 3433  | b',09,089,23,71,43' |
032: 2c33 3038 2c33 392c 3733 2c32 362c 3135  | b',308,39,73,26,15' |
048: 382c 3333 2c37 392c 3231 2c30 3332 2c33  | b'8,33,79,21,032,3' |
064: 382c 332a 3733 0d0a                      | b'8,3*73\r\n' |
<NMEA(GLGSV, numMsg=2, msgNum=2, numSV=7, svid_01=80, elv_01=49.0, az_01=91, cno_01=41, svid_02=85, elv_02=17.0, az_02=223, cno_02=37, svid_03=86, elv_03=35.0, az_03=273, cno_03=39, signalID=3)>000: 2447 4c47 5356 2c32 2c32 2c30 372c 3830  | b'$GLGSV,2,2,07,80' |
016: 2c34 392c 3039 312c 3431 2c38 352c 3137  | b',49,091,41,85,17' |
032: 2c32 3233 2c33 372c 3836 2c33 352c 3237  | b',223,37,86,35,27' |
048: 332c 3339 2c33 2a34 440d 0a              | b'3,39,3*4D\r\n' |
<NMEA(GLGSV, numMsg=1, msgNum=1, numSV=1, svid_01=72, elv_01=2.0, az_01=285, cno_01=, signalID=0)>000: 2447 4c47 5356 2c31 2c31 2c30 312c 3732  | b'$GLGSV,1,1,01,72' |
016: 2c30 322c 3238 352c 2c30 2a34 300d 0a    | b',02,285,,0*40\r\n' |
<NMEA(GAGSV, numMsg=2, msgNum=1, numSV=8, svid_01=4, elv_01=21.0, az_01=72, cno_01=36, svid_02=5, elv_02=47.0, az_02=274, cno_02=41, svid_03=9, elv_03=69.0, az_03=40, cno_03=43, svid_04=15, elv_04=7.0, az_04=331, cno_04=31, signalID=2)>000: 2447 4147 5356 2c32 2c31 2c30 382c 3034  | b'$GAGSV,2,1,08,04' |
016: 2c32 312c 3037 322c 3336 2c30 352c 3437  | b',21,072,36,05,47' |
032: 2c32 3734 2c34 312c 3039 2c36 392c 3034  | b',274,41,09,69,04' |
048: 302c 3433 2c31 352c 3037 2c33 3331 2c33  | b'0,43,15,07,331,3' |
064: 312c 322a 3744 0d0a                      | b'1,2*7D\r\n' |
<NMEA(GAGSV, numMsg=2, msgNum=2, numSV=8, svid_01=24, elv_01=8.0, az_01=152, cno_01=27, svid_02=31, elv_02=25.0, az_02=105, cno_02=36, svid_03=34, elv_03=42.0, az_03=290, cno_03=40, svid_04=36, elv_04=40.0, az_04=216, cno_04=39, signalID=2)>000: 2447 4147 5356 2c32 2c32 2c30 382c 3234  | b'$GAGSV,2,2,08,24' |
016: 2c30 382c 3135 322c 3237 2c33 312c 3235  | b',08,152,27,31,25' |
032: 2c31 3035 2c33 362c 3334 2c34 322c 3239  | b',105,36,34,42,29' |
048: 302c 3430 2c33 362c 3430 2c32 3136 2c33  | b'0,40,36,40,216,3' |
064: 392c 322a 3737 0d0a                      | b'9,2*77\r\n' |
<NMEA(GAGSV, numMsg=3, msgNum=1, numSV=9, svid_01=4, elv_01=21.0, az_01=72, cno_01=38, svid_02=5, elv_02=47.0, az_02=274, cno_02=48, svid_03=9, elv_03=69.0, az_03=40, cno_03=48, svid_04=11, elv_04=7.0, az_04=178, cno_04=28, signalID=7)>000: 2447 4147 5356 2c33 2c31 2c30 392c 3034  | b'$GAGSV,3,1,09,04' |
016: 2c32 312c 3037 322c 3338 2c30 352c 3437  | b',21,072,38,05,47' |
032: 2c32 3734 2c34 382c 3039 2c36 392c 3034  | b',274,48,09,69,04' |
048: 302c 3438 2c31 312c 3037 2c31 3738 2c32  | b'0,48,11,07,178,2' |
064: 382c 372a 3737 0d0a                      | b'8,7*77\r\n' |
<NMEA(GAGSV, numMsg=3, msgNum=3, numSV=9, svid_01=36, elv_01=40.0, az_01=216, cno_01=46, signalID=7)>000: 2447 4147 5356 2c33 2c33 2c30 392c 3336  | b'$GAGSV,3,3,09,36' |
016: 2c34 302c 3231 362c 3436 2c37 2a34 430d  | b',40,216,46,7*4C\r' |
032: 0a                                       | b'\n' |
<NMEA(GBGSV, numMsg=2, msgNum=1, numSV=8, svid_01=19, elv_01=14.0, az_01=292, cno_01=42, svid_02=20, elv_02=61.0, az_02=311, cno_02=52, svid_03=23, elv_03=40.0, az_03=67, cno_03=47, svid_04=29, elv_04=18.0, az_04=261, cno_04=43, signalID=1)>000: 2447 4247 5356 2c32 2c31 2c30 382c 3139  | b'$GBGSV,2,1,08,19' |
016: 2c31 342c 3239 322c 3432 2c32 302c 3631  | b',14,292,42,20,61' |
032: 2c33 3131 2c35 322c 3233 2c34 302c 3036  | b',311,52,23,40,06' |
048: 372c 3437 2c32 392c 3138 2c32 3631 2c34  | b'7,47,29,18,261,4' |
064: 332c 312a 3739 0d0a                      | b'3,1*79\r\n' |
<NMEA(GBGSV, numMsg=2, msgNum=2, numSV=8, svid_01=30, elv_01=3.0, az_01=212, cno_01=30, svid_02=32, elv_02=53.0, az_02=88, cno_02=49, svid_03=35, elv_03=11.0, az_03=316, cno_03=38, svid_04=37, elv_04=45.0, az_04=145, cno_04=48, signalID=1)>000: 2447 4247 5356 2c32 2c32 2c30 382c 3330  | b'$GBGSV,2,2,08,30' |
016: 2c30 332c 3231 322c 3330 2c33 322c 3533  | b',03,212,30,32,53' |
032: 2c30 3838 2c34 392c 3335 2c31 312c 3331  | b',088,49,35,11,31' |
048: 362c 3338 2c33 372c 3435 2c31 3435 2c34  | b'6,38,37,45,145,4' |
064: 382c 312a 3736 0d0a                      | b'8,1*76\r\n' |
<NMEA(GBGSV, numMsg=1, msgNum=1, numSV=3, svid_01=20, elv_01=61.0, az_01=311, cno_01=11, svid_02=25, elv_02=5.0, az_02=33, cno_02=8, svid_03=32, elv_03=53.0, az_03=88, cno_03=8, signalID=3)>000: 2447 4247 5356 2c31 2c31 2c30 332c 3230  | b'$GBGSV,1,1,03,20' |
016: 2c36 312c 3331 312c 3131 2c32 352c 3035  | b',61,311,11,25,05' |
032: 2c30 3333 2c30 382c 3332 2c35 332c 3038  | b',033,08,32,53,08' |
048: 382c 3038 2c33 2a34 340d 0a              | b'8,08,3*44\r\n' |
<NMEA(GNGLL, lat=43.8827366517, NS=N, lon=-72.1580622967, EW=W, time=19:35:32.250000, status=A, posMode=D)>000: 2447 4e47 4c4c 2c34 3335 322e 3936 3431  | b'$GNGLL,4352.9641' |
016: 3939 312c 4e2c 3037 3230 392e 3438 3337  | b'991,N,07209.4837' |
032: 3337 382c 572c 3139 3335 3332 2e32 352c  | b'378,W,193532.25,' |
048: 412c 442a 3642 0d0a                      | b'A,D*6B\r\n' |
<NMEA(GNVTG, cogt=93.5, cogtUnit=T, cogm=, cogmUnit=M, sogn=0.617, sognUnit=N, sogk=1.144, sogkUnit=K, posMode=D)>000: 2447 4e56 5447 2c39 332e 3530 2c54 2c2c  | b'$GNVTG,93.50,T,,' |
016: 4d2c 302e 3631 372c 4e2c 312e 3134 342c  | b'M,0.617,N,1.144,' |
032: 4b2c 442a 3139 0d0a                      | b'K,D*19\r\n' |
<NMEA(GNGGA, time=19:35:32.500000, lat=43.8827365883, NS=N, lon=-72.1580613367, EW=W, quality=4, numSV=12, HDOP=0.53, alt=142.36, altUnit=M, sep=-32.547, sepUnit=M, diffAge=, diffStation=0)>000: 2447 4e47 4741 2c31 3933 3533 322e 3530  | b'$GNGGA,193532.50' |
016: 2c34 3335 322e 3936 3431 3935 332c 4e2c  | b',4352.9641953,N,' |
032: 3037 3230 392e 3438 3336 3830 322c 572c  | b'07209.4836802,W,' |
048: 342c 3132 2c30 2e35 332c 3134 322e 3336  | b'4,12,0.53,142.36' |
064: 302c 4d2c 2d33 322e 3534 372c 4d2c 2c30  | b'0,M,-32.547,M,,0' |
080: 3030 302a 3738 0d0a                      | b'000*78\r\n' |
<NMEA(GNGSA, opMode=A, navMode=3, svid_01=46, svid_02=21, svid_03=44, svid_04=24, svid_05=18, svid_06=10, svid_07=12, svid_08=23, svid_09=15, svid_10=32, svid_11=, svid_12=, PDOP=0.97, HDOP=0.53, VDOP=0.81, systemId=1)>000: 2447 4e47 5341 2c41 2c33 2c34 362c 3231  | b'$GNGSA,A,3,46,21' |
016: 2c34 342c 3234 2c31 382c 3130 2c31 322c  | b',44,24,18,10,12,' |
032: 3233 2c31 352c 3332 2c2c 2c30 2e39 372c  | b'23,15,32,,,0.97,' |
048: 302e 3533 2c30 2e38 312c 312a 3038 0d0a  | b'0.53,0.81,1*08\r\n' |
<NMEA(GNGSA, opMode=A, navMode=3, svid_01=87, svid_02=85, svid_03=80, svid_04=71, svid_05=73, svid_06=70, svid_07=79, svid_08=, svid_09=, svid_10=, svid_11=, svid_12=, PDOP=0.97, HDOP=0.53, VDOP=0.81, systemId=2)>000: 2447 4e47 5341 2c41 2c33 2c38 372c 3835  | b'$GNGSA,A,3,87,85' |
016: 2c38 302c 3731 2c37 332c 3730 2c37 392c  | b',80,71,73,70,79,' |
032: 2c2c 2c2c 2c30 2e39 372c 302e 3533 2c30  | b',,,,,0.97,0.53,0' |
048: 2e38 312c 322a 3032 0d0a                 | b'.81,2*02\r\n' |
<NMEA(GNGSA, opMode=A, navMode=3, svid_01=36, svid_02=5, svid_03=31, svid_04=34, svid_05=4, svid_06=9, svid_07=, svid_08=, svid_09=, svid_10=, svid_11=, svid_12=, PDOP=0.97, HDOP=0.53, VDOP=0.81, systemId=3)>000: 2447 4e47 5341 2c41 2c33 2c33 362c 3035  | b'$GNGSA,A,3,36,05' |
016: 2c33 312c 3334 2c30 342c 3039 2c2c 2c2c  | b',31,34,04,09,,,,' |
032: 2c2c 2c30 2e39 372c 302e 3533 2c30 2e38  | b',,,0.97,0.53,0.8' |
048: 312c 332a 3041 0d0a                      | b'1,3*0A\r\n' |
<NMEA(GNGSA, opMode=A, navMode=3, svid_01=37, svid_02=19, svid_03=32, svid_04=29, svid_05=20, svid_06=23, svid_07=35, svid_08=, svid_09=, svid_10=, svid_11=, svid_12=, PDOP=0.97, HDOP=0.53, VDOP=0.81, systemId=4)>000: 2447 4e47 5341 2c41 2c33 2c33 372c 3139  | b'$GNGSA,A,3,37,19' |
016: 2c33 322c 3239 2c32 302c 3233 2c33 352c  | b',32,29,20,23,35,' |
032: 2c2c 2c2c 2c30 2e39 372c 302e 3533 2c30  | b',,,,,0.97,0.53,0' |
048: 2e38 312c 342a 3036 0d0a                 | b'.81,4*06\r\n' |
<NMEA(GPGSV, numMsg=3, msgNum=1, numSV=12, svid_01=2, elv_01=6.0, az_01=329, cno_01=38, svid_02=10, elv_02=68.0, az_02=312, cno_02=52, svid_03=12, elv_03=18.0, az_03=114, cno_03=40, svid_04=15, elv_04=18.0, az_04=79, cno_04=38, signalID=1)>000: 2447 5047 5356 2c33 2c31 2c31 322c 3032  | b'$GPGSV,3,1,12,02' |
016: 2c30 362c 3332 392c 3338 2c31 302c 3638  | b',06,329,38,10,68' |
032: 2c33 3132 2c35 322c 3132 2c31 382c 3131  | b',312,52,12,18,11' |
048: 342c 3430 2c31 352c 3138 2c30 3739 2c33  | b'4,40,15,18,079,3' |
064: 382c 312a 3638 0d0a                      | b'8,1*68\r\n' |
<NMEA(GPGSV, numMsg=3, msgNum=2, numSV=12, svid_01=18, elv_01=21.0, az_01=188, cno_01=41, svid_02=21, elv_02=12.0, az_02=324, cno_02=39, svid_03=23, elv_03=70.0, az_03=125, cno_03=48, svid_04=24, elv_04=49.0, az_04=59, cno_04=46, signalID=1)>000: 2447 5047 5356 2c33 2c32 2c31 322c 3138  | b'$GPGSV,3,2,12,18' |
016: 2c32 312c 3138 382c 3431 2c32 312c 3132  | b',21,188,41,21,12' |
032: 2c33 3234 2c33 392c 3233 2c37 302c 3132  | b',324,39,23,70,12' |
048: 352c 3438 2c32 342c 3439 2c30 3539 2c34  | b'5,48,24,49,059,4' |
064: 362c 312a 3645 0d0a                      | b'6,1*6E\r\n' |
<NMEA(GPGSV, numMsg=3, msgNum=3, numSV=12, svid_01=28, elv_01=7.0, az_01=212, cno_01=37, svid_02=32, elv_02=37.0, az_02=270, cno_02=48, svid_03=44, elv_03=23.0, az_03=235, cno_03=37, svid_04=46, elv_04=15.0, az_04=246, cno_04=38, signalID=1)>000: 2447 5047 5356 2c33 2c33 2c31 322c 3238  | b'$GPGSV,3,3,12,28' |
016: 2c30 372c 3231 322c 3337 2c33 322c 3337  | b',07,212,37,32,37' |
032: 2c32 3730 2c34 382c 3434 2c32 332c 3233  | b',270,48,44,23,23' |
048: 352c 3337 2c34 362c 3135 2c32 3436 2c33  | b'5,37,46,15,246,3' |
064: 382c 312a 3646 0d0a                      | b'8,1*6F\r\n' |
<NMEA(GPGSV, numMsg=3, msgNum=1, numSV=9, svid_01=10, elv_01=68.0, az_01=312, cno_01=42, svid_02=12, elv_02=18.0, az_02=114, cno_02=33, svid_03=15, elv_03=18.0, az_03=79, cno_03=33, svid_04=18, elv_04=21.0, az_04=188, cno_04=32, signalID=6)>000: 2447 5047 5356 2c33 2c31 2c30 392c 3130  | b'$GPGSV,3,1,09,10' |
016: 2c36 382c 3331 322c 3432 2c31 322c 3138  | b',68,312,42,12,18' |
032: 2c31 3134 2c33 332c 3135 2c31 382c 3037  | b',114,33,15,18,07' |
048: 392c 3333 2c31 382c 3231 2c31 3838 2c33  | b'9,33,18,21,188,3' |
064: 322c 362a 3636 0d0a                      | b'2,6*66\r\n' |
<NMEA(GPGSV, numMsg=3, msgNum=2, numSV=9, svid_01=23, elv_01=70.0, az_01=125, cno_01=42, svid_02=24, elv_02=49.0, az_02=59, cno_02=41, svid_03=25, elv_03=7.0, az_03=152, cno_03=23, svid_04=28, elv_04=7.0, az_04=212, cno_04=26, signalID=6)>000: 2447 5047 5356 2c33 2c32 2c30 392c 3233  | b'$GPGSV,3,2,09,23' |
016: 2c37 302c 3132 352c 3432 2c32 342c 3439  | b',70,125,42,24,49' |
032: 2c30 3539 2c34 312c 3235 2c30 372c 3135  | b',059,41,25,07,15' |
048: 322c 3233 2c32 382c 3037 2c32 3132 2c32  | b'2,23,28,07,212,2' |
064: 362c 362a 3630 0d0a                      | b'6,6*60\r\n' |
<NMEA(GPGSV, numMsg=3, msgNum=3, numSV=9, svid_01=32, elv_01=37.0, az_01=270, cno_01=39, signalID=6)>000: 2447 5047 5356 2c33 2c33 2c30 392c 3332  | b'$GPGSV,3,3,09,32' |
016: 2c33 372c 3237 302c 3339 2c36 2a35 300d  | b',37,270,39,6*50\r' |
032: 0a                                       | b'\n' |
<NMEA(GLGSV, numMsg=3, msgNum=2, numSV=10, svid_01=79, elv_01=21.0, az_01=32, cno_01=44, svid_02=80, elv_02=49.0, az_02=91, cno_02=48, svid_03=85, elv_03=17.0, az_03=223, cno_03=41, svid_04=86, elv_04=35.0, az_04=273, cno_04=49, signalID=1)>000: 2447 4c47 5356 2c33 2c32 2c31 302c 3739  | b'$GLGSV,3,2,10,79' |
016: 2c32 312c 3033 322c 3434 2c38 302c 3439  | b',21,032,44,80,49' |
032: 2c30 3931 2c34 382c 3835 2c31 372c 3232  | b',091,48,85,17,22' |
048: 332c 3431 2c38 362c 3335 2c32 3733 2c34  | b'3,41,86,35,273,4' |
064: 392c 312a 3742 0d0a                      | b'9,1*7B\r\n' |
<NMEA(GLGSV, numMsg=3, msgNum=3, numSV=10, svid_01=87, elv_01=18.0, az_01=332, cno_01=41, svid_02=, elv_02=, az_02=, cno_02=40, signalID=1)>000: 2447 4c47 5356 2c33 2c33 2c31 302c 3837  | b'$GLGSV,3,3,10,87' |
016: 2c31 382c 3333 322c 3431 2c2c 2c2c 3430  | b',18,332,41,,,,40' |
032: 2c31 2a34 430d 0a                        | b',1*4C\r\n' |
<NMEA(GLGSV, numMsg=2, msgNum=1, numSV=7, svid_01=69, elv_01=9.0, az_01=89, cno_01=23, svid_02=71, elv_02=43.0, az_02=308, cno_02=39, svid_03=73, elv_03=26.0, az_03=158, cno_03=33, svid_04=79, elv_04=21.0, az_04=32, cno_04=38, signalID=3)>000: 2447 4c47 5356 2c32 2c31 2c30 372c 3639  | b'$GLGSV,2,1,07,69' |
016: 2c30 392c 3038 392c 3233 2c37 312c 3433  | b',09,089,23,71,43' |
032: 2c33 3038 2c33 392c 3733 2c32 362c 3135  | b',308,39,73,26,15' |
048: 382c 3333 2c37 392c 3231 2c30 3332 2c33  | b'8,33,79,21,032,3' |
064: 382c 332a 3733 0d0a                      | b'8,3*73\r\n' |
<NMEA(GLGSV, numMsg=2, msgNum=2, numSV=7, svid_01=80, elv_01=49.0, az_01=91, cno_01=39, svid_02=85, elv_02=17.0, az_02=223, cno_02=34, svid_03=86, elv_03=35.0, az_03=273, cno_03=40, signalID=3)>000: 2447 4c47 5356 2c32 2c32 2c30 372c 3830  | b'$GLGSV,2,2,07,80' |
016: 2c34 392c 3039 312c 3339 2c38 352c 3137  | b',49,091,39,85,17' |
032: 2c32 3233 2c33 342c 3836 2c33 352c 3237  | b',223,34,86,35,27' |
048: 332c 3430 2c33 2a34 460d 0a              | b'3,40,3*4F\r\n' |
<NMEA(GLGSV, numMsg=1, msgNum=1, numSV=1, svid_01=72, elv_01=2.0, az_01=285, cno_01=, signalID=0)>000: 2447 4c47 5356 2c31 2c31 2c30 312c 3732  | b'$GLGSV,1,1,01,72' |
016: 2c30 322c 3238 352c 2c30 2a34 300d 0a    | b',02,285,,0*40\r\n' |
<NMEA(GAGSV, numMsg=2, msgNum=1, numSV=8, svid_01=4, elv_01=21.0, az_01=72, cno_01=36, svid_02=5, elv_02=47.0, az_02=274, cno_02=41, svid_03=9, elv_03=69.0, az_03=40, cno_03=43, svid_04=15, elv_04=7.0, az_04=331, cno_04=31, signalID=2)>000: 2447 4147 5356 2c32 2c31 2c30 382c 3034  | b'$GAGSV,2,1,08,04' |
016: 2c32 312c 3037 322c 3336 2c30 352c 3437  | b',21,072,36,05,47' |
032: 2c32 3734 2c34 312c 3039 2c36 392c 3034  | b',274,41,09,69,04' |
048: 302c 3433 2c31 352c 3037 2c33 3331 2c33  | b'0,43,15,07,331,3' |
064: 312c 322a 3744 0d0a                      | b'1,2*7D\r\n' |
<NMEA(GAGSV, numMsg=2, msgNum=2, numSV=8, svid_01=24, elv_01=8.0, az_01=152, cno_01=27, svid_02=31, elv_02=25.0, az_02=105, cno_02=36, svid_03=34, elv_03=42.0, az_03=290, cno_03=40, svid_04=36, elv_04=40.0, az_04=216, cno_04=39, signalID=2)>000: 2447 4147 5356 2c32 2c32 2c30 382c 3234  | b'$GAGSV,2,2,08,24' |
016: 2c30 382c 3135 322c 3237 2c33 312c 3235  | b',08,152,27,31,25' |
032: 2c31 3035 2c33 362c 3334 2c34 322c 3239  | b',105,36,34,42,29' |
048: 302c 3430 2c33 362c 3430 2c32 3136 2c33  | b'0,40,36,40,216,3' |
064: 392c 322a 3737 0d0a                      | b'9,2*77\r\n' |
<NMEA(GAGSV, numMsg=3, msgNum=1, numSV=9, svid_01=4, elv_01=21.0, az_01=72, cno_01=39, svid_02=5, elv_02=47.0, az_02=274, cno_02=47, svid_03=9, elv_03=69.0, az_03=40, cno_03=49, svid_04=11, elv_04=7.0, az_04=178, cno_04=28, signalID=7)>000: 2447 4147 5356 2c33 2c31 2c30 392c 3034  | b'$GAGSV,3,1,09,04' |
016: 2c32 312c 3037 322c 3339 2c30 352c 3437  | b',21,072,39,05,47' |
032: 2c32 3734 2c34 372c 3039 2c36 392c 3034  | b',274,47,09,69,04' |
048: 302c 3439 2c31 312c 3037 2c31 3738 2c32  | b'0,49,11,07,178,2' |
064: 382c 372a 3738 0d0a                      | b'8,7*78\r\n' |
<NMEA(GAGSV, numMsg=3, msgNum=2, numSV=9, svid_01=15, elv_01=7.0, az_01=331, cno_01=34, svid_02=24, elv_02=8.0, az_02=152, cno_02=35, svid_03=31, elv_03=25.0, az_03=105, cno_03=41, svid_04=34, elv_04=42.0, az_04=290, cno_04=45, signalID=7)>000: 2447 4147 5356 2c33 2c32 2c30 392c 3135  | b'$GAGSV,3,2,09,15' |
016: 2c30 372c 3333 312c 3334 2c32 342c 3038  | b',07,331,34,24,08' |
032: 2c31 3532 2c33 352c 3331 2c32 352c 3130  | b',152,35,31,25,10' |
048: 352c 3431 2c33 342c 3432 2c32 3930 2c34  | b'5,41,34,42,290,4' |
064: 352c 372a 3746 0d0a                      | b'5,7*7F\r\n' |
<NMEA(GAGSV, numMsg=3, msgNum=3, numSV=9, svid_01=36, elv_01=40.0, az_01=216, cno_01=46, signalID=7)>000: 2447 4147 5356 2c33 2c33 2c30 392c 3336  | b'$GAGSV,3,3,09,36' |
016: 2c34 302c 3231 362c 3436 2c37 2a34 430d  | b',40,216,46,7*4C\r' |
032: 0a                                       | b'\n' |
<NMEA(GBGSV, numMsg=2, msgNum=1, numSV=8, svid_01=19, elv_01=14.0, az_01=292, cno_01=43, svid_02=20, elv_02=61.0, az_02=311, cno_02=53, svid_03=23, elv_03=40.0, az_03=67, cno_03=48, svid_04=29, elv_04=18.0, az_04=261, cno_04=42, signalID=1)>000: 2447 4247 5356 2c32 2c31 2c30 382c 3139  | b'$GBGSV,2,1,08,19' |
016: 2c31 342c 3239 322c 3433 2c32 302c 3631  | b',14,292,43,20,61' |
032: 2c33 3131 2c35 332c 3233 2c34 302c 3036  | b',311,53,23,40,06' |
048: 372c 3438 2c32 392c 3138 2c32 3631 2c34  | b'7,48,29,18,261,4' |
064: 322c 312a 3737 0d0a                      | b'2,1*77\r\n' |
<NMEA(GBGSV, numMsg=2, msgNum=2, numSV=8, svid_01=30, elv_01=3.0, az_01=212, cno_01=34, svid_02=32, elv_02=53.0, az_02=88, cno_02=49, svid_03=35, elv_03=11.0, az_03=316, cno_03=37, svid_04=37, elv_04=45.0, az_04=145, cno_04=48, signalID=1)>000: 2447 4247 5356 2c32 2c32 2c30 382c 3330  | b'$GBGSV,2,2,08,30' |
016: 2c30 332c 3231 322c 3334 2c33 322c 3533  | b',03,212,34,32,53' |
032: 2c30 3838 2c34 392c 3335 2c31 312c 3331  | b',088,49,35,11,31' |
048: 362c 3337 2c33 372c 3435 2c31 3435 2c34  | b'6,37,37,45,145,4' |
064: 382c 312a 3744 0d0a                      | b'8,1*7D\r\n' |
<NMEA(GBGSV, numMsg=1, msgNum=1, numSV=3, svid_01=20, elv_01=61.0, az_01=311, cno_01=12, svid_02=25, elv_02=5.0, az_02=33, cno_02=9, svid_03=32, elv_03=53.0, az_03=88, cno_03=9, signalID=3)>000: 2447 4247 5356 2c31 2c31 2c30 332c 3230  | b'$GBGSV,1,1,03,20' |
016: 2c36 312c 3331 312c 3132 2c32 352c 3035  | b',61,311,12,25,05' |
032: 2c30 3333 2c30 392c 3332 2c35 332c 3038  | b',033,09,32,53,08' |
048: 382c 3039 2c33 2a34 370d 0a              | b'8,09,3*47\r\n' |
<NMEA(GNGLL, lat=43.8827365883, NS=N, lon=-72.1580613367, EW=W, time=19:35:32.500000, status=A, posMode=D)>000: 2447 4e47 4c4c 2c34 3335 322e 3936 3431  | b'$GNGLL,4352.9641' |
016: 3935 332c 4e2c 3037 3230 392e 3438 3336  | b'953,N,07209.4836' |
032: 3830 322c 572c 3139 3335 3332 2e35 302c  | b'802,W,193532.50,' |
048: 412c 442a 3630 0d0a                      | b'A,D*60\r\n' |
<NMEA(GNRMC, time=19:35:32.750000, status=A, lat=43.8827366483, NS=N, lon=-72.1580608533, EW=W, spd=0.272, cog=77.06, date=2023-09-05, mv=, mvEW=, posMode=R, navStatus=V)>000: 2447 4e52 4d43 2c31 3933 3533 322e 3735  | b'$GNRMC,193532.75' |
016: 2c41 2c34 3335 322e 3936 3431 3938 392c  | b',A,4352.9641989,' |
032: 4e2c 3037 3230 392e 3438 3336 3531 322c  | b'N,07209.4836512,' |
048: 572c 302e 3237 322c 3737 2e30 362c 3035  | b'W,0.272,77.06,05' |
064: 3039 3233 2c2c 2c52 2c56 2a33 420d 0a    | b'0923,,,R,V*3B\r\n' |
<NMEA(GNVTG, cogt=77.06, cogtUnit=T, cogm=, cogmUnit=M, sogn=0.272, sognUnit=N, sogk=0.504, sogkUnit=K, posMode=D)>000: 2447 4e56 5447 2c37 372e 3036 2c54 2c2c  | b'$GNVTG,77.06,T,,' |
016: 4d2c 302e 3237 322c 4e2c 302e 3530 342c  | b'M,0.272,N,0.504,' |
032: 4b2c 442a 3136 0d0a                      | b'K,D*16\r\n' |
<NMEA(GNGGA, time=19:35:32.750000, lat=43.8827366483, NS=N, lon=-72.1580608533, EW=W, quality=4, numSV=12, HDOP=0.53, alt=142.361, altUnit=M, sep=-32.547, sepUnit=M, diffAge=, diffStation=0)>000: 2447 4e47 4741 2c31 3933 3533 322e 3735  | b'$GNGGA,193532.75' |
016: 2c34 3335 322e 3936 3431 3938 392c 4e2c  | b',4352.9641989,N,' |
032: 3037 3230 392e 3438 3336 3531 322c 572c  | b'07209.4836512,W,' |
048: 342c 3132 2c30 2e35 332c 3134 322e 3336  | b'4,12,0.53,142.36' |
064: 312c 4d2c 2d33 322e 3534 372c 4d2c 2c30  | b'1,M,-32.547,M,,0' |
080: 3030 302a 3735 0d0a                      | b'000*75\r\n' |
<NMEA(GNGSA, opMode=A, navMode=3, svid_01=46, svid_02=21, svid_03=44, svid_04=24, svid_05=18, svid_06=10, svid_07=12, svid_08=23, svid_09=15, svid_10=32, svid_11=, svid_12=, PDOP=0.97, HDOP=0.53, VDOP=0.81, systemId=1)>000: 2447 4e47 5341 2c41 2c33 2c34 362c 3231  | b'$GNGSA,A,3,46,21' |
016: 2c34 342c 3234 2c31 382c 3130 2c31 322c  | b',44,24,18,10,12,' |
032: 3233 2c31 352c 3332 2c2c 2c30 2e39 372c  | b'23,15,32,,,0.97,' |
048: 302e 3533 2c30 2e38 312c 312a 3038 0d0a  | b'0.53,0.81,1*08\r\n' |
<NMEA(GNGSA, opMode=A, navMode=3, svid_01=87, svid_02=85, svid_03=80, svid_04=71, svid_05=73, svid_06=70, svid_07=79, svid_08=, svid_09=, svid_10=, svid_11=, svid_12=, PDOP=0.97, HDOP=0.53, VDOP=0.81, systemId=2)>000: 2447 4e47 5341 2c41 2c33 2c38 372c 3835  | b'$GNGSA,A,3,87,85' |
016: 2c38 302c 3731 2c37 332c 3730 2c37 392c  | b',80,71,73,70,79,' |
032: 2c2c 2c2c 2c30 2e39 372c 302e 3533 2c30  | b',,,,,0.97,0.53,0' |
048: 2e38 312c 322a 3032 0d0a                 | b'.81,2*02\r\n' |
<NMEA(GNGSA, opMode=A, navMode=3, svid_01=36, svid_02=5, svid_03=31, svid_04=34, svid_05=4, svid_06=9, svid_07=, svid_08=, svid_09=, svid_10=, svid_11=, svid_12=, PDOP=0.97, HDOP=0.53, VDOP=0.81, systemId=3)>000: 2447 4e47 5341 2c41 2c33 2c33 362c 3035  | b'$GNGSA,A,3,36,05' |
016: 2c33 312c 3334 2c30 342c 3039 2c2c 2c2c  | b',31,34,04,09,,,,' |
032: 2c2c 2c30 2e39 372c 302e 3533 2c30 2e38  | b',,,0.97,0.53,0.8' |
048: 312c 332a 3041 0d0a                      | b'1,3*0A\r\n' |
<NMEA(GNGSA, opMode=A, navMode=3, svid_01=37, svid_02=19, svid_03=32, svid_04=29, svid_05=20, svid_06=23, svid_07=35, svid_08=, svid_09=, svid_10=, svid_11=, svid_12=, PDOP=0.97, HDOP=0.53, VDOP=0.81, systemId=4)>000: 2447 4e47 5341 2c41 2c33 2c33 372c 3139  | b'$GNGSA,A,3,37,19' |
016: 2c33 322c 3239 2c32 302c 3233 2c33 352c  | b',32,29,20,23,35,' |
032: 2c2c 2c2c 2c30 2e39 372c 302e 3533 2c30  | b',,,,,0.97,0.53,0' |
048: 2e38 312c 342a 3036 0d0a                 | b'.81,4*06\r\n' |
<NMEA(GPGSV, numMsg=3, msgNum=1, numSV=12, svid_01=2, elv_01=6.0, az_01=329, cno_01=35, svid_02=10, elv_02=68.0, az_02=312, cno_02=52, svid_03=12, elv_03=18.0, az_03=114, cno_03=40, svid_04=15, elv_04=18.0, az_04=79, cno_04=38, signalID=1)>000: 2447 5047 5356 2c33 2c31 2c31 322c 3032  | b'$GPGSV,3,1,12,02' |
016: 2c30 362c 3332 392c 3335 2c31 302c 3638  | b',06,329,35,10,68' |
032: 2c33 3132 2c35 322c 3132 2c31 382c 3131  | b',312,52,12,18,11' |
048: 342c 3430 2c31 352c 3138 2c30 3739 2c33  | b'4,40,15,18,079,3' |
064: 382c 312a 3635 0d0a                      | b'8,1*65\r\n' |
<NMEA(GPGSV, numMsg=3, msgNum=2, numSV=12, svid_01=18, elv_01=21.0, az_01=188, cno_01=41, svid_02=21, elv_02=12.0, az_02=324, cno_02=38, svid_03=23, elv_03=70.0, az_03=125, cno_03=48, svid_04=24, elv_04=49.0, az_04=59, cno_04=47, signalID=1)>000: 2447 5047 5356 2c33 2c32 2c31 322c 3138  | b'$GPGSV,3,2,12,18' |
016: 2c32 312c 3138 382c 3431 2c32 312c 3132  | b',21,188,41,21,12' |
032: 2c33 3234 2c33 382c 3233 2c37 302c 3132  | b',324,38,23,70,12' |
048: 352c 3438 2c32 342c 3439 2c30 3539 2c34  | b'5,48,24,49,059,4' |
064: 372c 312a 3645 0d0a                      | b'7,1*6E\r\n' |
<NMEA(GPGSV, numMsg=3, msgNum=3, numSV=12, svid_01=28, elv_01=7.0, az_01=212, cno_01=41, svid_02=32, elv_02=37.0, az_02=270, cno_02=48, svid_03=44, elv_03=23.0, az_03=235, cno_03=39, svid_04=46, elv_04=15.0, az_04=246, cno_04=38, signalID=1)>000: 2447 5047 5356 2c33 2c33 2c31 322c 3238  | b'$GPGSV,3,3,12,28' |
016: 2c30 372c 3231 322c 3431 2c33 322c 3337  | b',07,212,41,32,37' |
032: 2c32 3730 2c34 382c 3434 2c32 332c 3233  | b',270,48,44,23,23' |
048: 352c 3339 2c34 362c 3135 2c32 3436 2c33  | b'5,39,46,15,246,3' |
064: 382c 312a 3630 0d0a                      | b'8,1*60\r\n' |
<NMEA(GPGSV, numMsg=3, msgNum=1, numSV=9, svid_01=10, elv_01=68.0, az_01=312, cno_01=42, svid_02=12, elv_02=18.0, az_02=114, cno_02=36, svid_03=15, elv_03=18.0, az_03=79, cno_03=33, svid_04=18, elv_04=21.0, az_04=188, cno_04=32, signalID=6)>000: 2447 5047 5356 2c33 2c31 2c30 392c 3130  | b'$GPGSV,3,1,09,10' |
016: 2c36 382c 3331 322c 3432 2c31 322c 3138  | b',68,312,42,12,18' |
032: 2c31 3134 2c33 362c 3135 2c31 382c 3037  | b',114,36,15,18,07' |
048: 392c 3333 2c31 382c 3231 2c31 3838 2c33  | b'9,33,18,21,188,3' |
064: 322c 362a 3633 0d0a                      | b'2,6*63\r\n' |
<NMEA(GPGSV, numMsg=3, msgNum=2, numSV=9, svid_01=23, elv_01=70.0, az_01=125, cno_01=42, svid_02=24, elv_02=49.0, az_02=59, cno_02=42, svid_03=25, elv_03=7.0, az_03=152, cno_03=23, svid_04=28, elv_04=7.0, az_04=212, cno_04=26, signalID=6)>000: 2447 5047 5356 2c33 2c32 2c30 392c 3233  | b'$GPGSV,3,2,09,23' |
016: 2c37 302c 3132 352c 3432 2c32 342c 3439  | b',70,125,42,24,49' |
032: 2c30 3539 2c34 322c 3235 2c30 372c 3135  | b',059,42,25,07,15' |
048: 322c 3233 2c32 382c 3037 2c32 3132 2c32  | b'2,23,28,07,212,2' |
064: 362c 362a 3633 0d0a                      | b'6,6*63\r\n' |
<NMEA(GPGSV, numMsg=3, msgNum=3, numSV=9, svid_01=32, elv_01=37.0, az_01=270, cno_01=39, signalID=6)>000: 2447 5047 5356 2c33 2c33 2c30 392c 3332  | b'$GPGSV,3,3,09,32' |
016: 2c33 372c 3237 302c 3339 2c36 2a35 300d  | b',37,270,39,6*50\r' |
032: 0a                                       | b'\n' |
<NMEA(GLGSV, numMsg=3, msgNum=1, numSV=10, svid_01=69, elv_01=9.0, az_01=89, cno_01=28, svid_02=70, elv_02=60.0, az_02=40, cno_02=39, svid_03=71, elv_03=43.0, az_03=308, cno_03=50, svid_04=73, elv_04=26.0, az_04=158, cno_04=47, signalID=1)>000: 2447 4c47 5356 2c33 2c31 2c31 302c 3639  | b'$GLGSV,3,1,10,69' |
016: 2c30 392c 3038 392c 3238 2c37 302c 3630  | b',09,089,28,70,60' |
032: 2c30 3430 2c33 392c 3731 2c34 332c 3330  | b',040,39,71,43,30' |
048: 382c 3530 2c37 332c 3236 2c31 3538 2c34  | b'8,50,73,26,158,4' |
064: 372c 312a 3739 0d0a                      | b'7,1*79\r\n' |
<NMEA(GLGSV, numMsg=3, msgNum=2, numSV=10, svid_01=79, elv_01=21.0, az_01=32, cno_01=45, svid_02=80, elv_02=49.0, az_02=91, cno_02=50, svid_03=85, elv_03=17.0, az_03=223, cno_03=40, svid_04=86, elv_04=35.0, az_04=273, cno_04=48, signalID=1)>000: 2447 4c47 5356 2c33 2c32 2c31 302c 3739  | b'$GLGSV,3,2,10,79' |
016: 2c32 312c 3033 322c 3435 2c38 302c 3439  | b',21,032,45,80,49' |
032: 2c30 3931 2c35 302c 3835 2c31 372c 3232  | b',091,50,85,17,22' |
048: 332c 3430 2c38 362c 3335 2c32 3733 2c34  | b'3,40,86,35,273,4' |
064: 382c 312a 3733 0d0a                      | b'8,1*73\r\n' |
<NMEA(GLGSV, numMsg=3, msgNum=3, numSV=10, svid_01=87, elv_01=18.0, az_01=332, cno_01=42, svid_02=, elv_02=, az_02=, cno_02=41, signalID=1)>000: 2447 4c47 5356 2c33 2c33 2c31 302c 3837  | b'$GLGSV,3,3,10,87' |
016: 2c31 382c 3333 322c 3432 2c2c 2c2c 3431  | b',18,332,42,,,,41' |
032: 2c31 2a34 450d 0a                        | b',1*4E\r\n' |
<NMEA(GLGSV, numMsg=2, msgNum=1, numSV=7, svid_01=69, elv_01=9.0, az_01=89, cno_01=22, svid_02=71, elv_02=43.0, az_02=308, cno_02=39, svid_03=73, elv_03=26.0, az_03=158, cno_03=33, svid_04=79, elv_04=21.0, az_04=32, cno_04=36, signalID=3)>000: 2447 4c47 5356 2c32 2c31 2c30 372c 3639  | b'$GLGSV,2,1,07,69' |
016: 2c30 392c 3038 392c 3232 2c37 312c 3433  | b',09,089,22,71,43' |
032: 2c33 3038 2c33 392c 3733 2c32 362c 3135  | b',308,39,73,26,15' |
048: 382c 3333 2c37 392c 3231 2c30 3332 2c33  | b'8,33,79,21,032,3' |
064: 362c 332a 3743 0d0a                      | b'6,3*7C\r\n' |
<NMEA(GLGSV, numMsg=2, msgNum=2, numSV=7, svid_01=80, elv_01=49.0, az_01=91, cno_01=38, svid_02=85, elv_02=17.0, az_02=223, cno_02=34, svid_03=86, elv_03=35.0, az_03=273, cno_03=38, signalID=3)>000: 2447 4c47 5356 2c32 2c32 2c30 372c 3830  | b'$GLGSV,2,2,07,80' |
016: 2c34 392c 3039 312c 3338 2c38 352c 3137  | b',49,091,38,85,17' |
032: 2c32 3233 2c33 342c 3836 2c33 352c 3237  | b',223,34,86,35,27' |
048: 332c 3338 2c33 2a34 310d 0a              | b'3,38,3*41\r\n' |
<NMEA(GLGSV, numMsg=1, msgNum=1, numSV=1, svid_01=72, elv_01=2.0, az_01=285, cno_01=, signalID=0)>000: 2447 4c47 5356 2c31 2c31 2c30 312c 3732  | b'$GLGSV,1,1,01,72' |
016: 2c30 322c 3238 352c 2c30 2a34 300d 0a    | b',02,285,,0*40\r\n' |
<NMEA(GAGSV, numMsg=2, msgNum=1, numSV=8, svid_01=4, elv_01=21.0, az_01=72, cno_01=36, svid_02=5, elv_02=47.0, az_02=274, cno_02=40, svid_03=9, elv_03=69.0, az_03=40, cno_03=43, svid_04=15, elv_04=7.0, az_04=331, cno_04=31, signalID=2)>000: 2447 4147 5356 2c32 2c31 2c30 382c 3034  | b'$GAGSV,2,1,08,04' |
016: 2c32 312c 3037 322c 3336 2c30 352c 3437  | b',21,072,36,05,47' |
032: 2c32 3734 2c34 302c 3039 2c36 392c 3034  | b',274,40,09,69,04' |
048: 302c 3433 2c31 352c 3037 2c33 3331 2c33  | b'0,43,15,07,331,3' |
064: 312c 322a 3743 0d0a                      | b'1,2*7C\r\n' |
<NMEA(GAGSV, numMsg=2, msgNum=2, numSV=8, svid_01=24, elv_01=8.0, az_01=152, cno_01=27, svid_02=31, elv_02=25.0, az_02=105, cno_02=36, svid_03=34, elv_03=42.0, az_03=290, cno_03=40, svid_04=36, elv_04=40.0, az_04=216, cno_04=39, signalID=2)>000: 2447 4147 5356 2c32 2c32 2c30 382c 3234  | b'$GAGSV,2,2,08,24' |
016: 2c30 382c 3135 322c 3237 2c33 312c 3235  | b',08,152,27,31,25' |
032: 2c31 3035 2c33 362c 3334 2c34 322c 3239  | b',105,36,34,42,29' |
048: 302c 3430 2c33 362c 3430 2c32 3136 2c33  | b'0,40,36,40,216,3' |
064: 392c 322a 3737 0d0a                      | b'9,2*77\r\n' |
<NMEA(GAGSV, numMsg=3, msgNum=1, numSV=9, svid_01=4, elv_01=21.0, az_01=72, cno_01=38, svid_02=5, elv_02=47.0, az_02=274, cno_02=48, svid_03=9, elv_03=69.0, az_03=40, cno_03=49, svid_04=11, elv_04=7.0, az_04=178, cno_04=29, signalID=7)>000: 2447 4147 5356 2c33 2c31 2c30 392c 3034  | b'$GAGSV,3,1,09,04' |
016: 2c32 312c 3037 322c 3338 2c30 352c 3437  | b',21,072,38,05,47' |
032: 2c32 3734 2c34 382c 3039 2c36 392c 3034  | b',274,48,09,69,04' |
048: 302c 3439 2c31 312c 3037 2c31 3738 2c32  | b'0,49,11,07,178,2' |
064: 392c 372a 3737 0d0a                      | b'9,7*77\r\n' |
<NMEA(GAGSV, numMsg=3, msgNum=2, numSV=9, svid_01=15, elv_01=7.0, az_01=331, cno_01=34, svid_02=24, elv_02=8.0, az_02=152, cno_02=35, svid_03=31, elv_03=25.0, az_03=105, cno_03=41, svid_04=34, elv_04=42.0, az_04=290, cno_04=46, signalID=7)>000: 2447 4147 5356 2c33 2c32 2c30 392c 3135  | b'$GAGSV,3,2,09,15' |
016: 2c30 372c 3333 312c 3334 2c32 342c 3038  | b',07,331,34,24,08' |
032: 2c31 3532 2c33 352c 3331 2c32 352c 3130  | b',152,35,31,25,10' |
048: 352c 3431 2c33 342c 3432 2c32 3930 2c34  | b'5,41,34,42,290,4' |
064: 362c 372a 3743 0d0a                      | b'6,7*7C\r\n' |
<NMEA(GNTXT, numMsg=1, msgNum=1, msgType=0, text=txbuf alloc)>000: 2447 4e54 5854 2c30 312c 3031 2c30 302c  | b'$GNTXT,01,01,00,' |
016: 7478 6275 6620 616c 6c6f 632a 3631 0d0a  | b'txbuf alloc*61\r\n' |
<NMEA(GNRMC, time=19:35:33.250000, status=A, lat=43.8827352017, NS=N, lon=-72.158059435, EW=W, spd=0.546, cog=119.23, date=2023-09-05, mv=, mvEW=, posMode=R, navStatus=V)>000: 2447 4e52 4d43 2c31 3933 3533 332e 3235  | b'$GNRMC,193533.25' |
016: 2c41 2c34 3335 322e 3936 3431 3132 312c  | b',A,4352.9641121,' |
032: 4e2c 3037 3230 392e 3438 3335 3636 312c  | b'N,07209.4835661,' |
048: 572c 302e 3534 362c 3131 392e 3233 2c30  | b'W,0.546,119.23,0' |
064: 3530 3932 332c 2c2c 522c 562a 3046 0d0a  | b'50923,,,R,V*0F\r\n' |
<NMEA(GNVTG, cogt=119.23, cogtUnit=T, cogm=, cogmUnit=M, sogn=0.546, sognUnit=N, sogk=1.01, sogkUnit=K, posMode=D)>000: 2447 4e56 5447 2c31 3139 2e32 332c 542c  | b'$GNVTG,119.23,T,' |
016: 2c4d 2c30 2e35 3436 2c4e 2c31 2e30 3130  | b',M,0.546,N,1.010' |
032: 2c4b 2c44 2a32 390d 0a                   | b',K,D*29\r\n' |
<NMEA(GNGGA, time=19:35:33.250000, lat=43.8827352017, NS=N, lon=-72.158059435, EW=W, quality=4, numSV=12, HDOP=0.53, alt=142.37, altUnit=M, sep=-32.547, sepUnit=M, diffAge=, diffStation=0)>000: 2447 4e47 4741 2c31 3933 3533 332e 3235  | b'$GNGGA,193533.25' |
016: 2c34 3335 322e 3936 3431 3132 312c 4e2c  | b',4352.9641121,N,' |
032: 3037 3230 392e 3438 3335 3636 312c 572c  | b'07209.4835661,W,' |
048: 342c 3132 2c30 2e35 332c 3134 322e 3337  | b'4,12,0.53,142.37' |
064: 302c 4d2c 2d33 322e 3534 372c 4d2c 2c30  | b'0,M,-32.547,M,,0' |
080: 3030 302a 3746 0d0a                      | b'000*7F\r\n' |
<NMEA(GNGSA, opMode=A, navMode=3, svid_01=87, svid_02=85, svid_03=80, svid_04=71, svid_05=73, svid_06=70, svid_07=79, svid_08=, svid_09=, svid_10=, svid_11=, svid_12=, PDOP=0.97, HDOP=0.53, VDOP=0.81, systemId=2)>000: 2447 4e47 5341 2c41 2c33 2c38 372c 3835  | b'$GNGSA,A,3,87,85' |
016: 2c38 302c 3731 2c37 332c 3730 2c37 392c  | b',80,71,73,70,79,' |
032: 2c2c 2c2c 2c30 2e39 372c 302e 3533 2c30  | b',,,,,0.97,0.53,0' |
048: 2e38 312c 322a 3032 0d0a                 | b'.81,2*02\r\n' |
<NMEA(GNGSA, opMode=A, navMode=3, svid_01=36, svid_02=5, svid_03=31, svid_04=34, svid_05=4, svid_06=9, svid_07=, svid_08=, svid_09=, svid_10=, svid_11=, svid_12=, PDOP=0.97, HDOP=0.53, VDOP=0.81, systemId=3)>000: 2447 4e47 5341 2c41 2c33 2c33 362c 3035  | b'$GNGSA,A,3,36,05' |
016: 2c33 312c 3334 2c30 342c 3039 2c2c 2c2c  | b',31,34,04,09,,,,' |
032: 2c2c 2c30 2e39 372c 302e 3533 2c30 2e38  | b',,,0.97,0.53,0.8' |
048: 312c 332a 3041 0d0a                      | b'1,3*0A\r\n' |
<NMEA(GNGSA, opMode=A, navMode=3, svid_01=37, svid_02=19, svid_03=32, svid_04=29, svid_05=20, svid_06=23, svid_07=35, svid_08=, svid_09=, svid_10=, svid_11=, svid_12=, PDOP=0.97, HDOP=0.53, VDOP=0.81, systemId=4)>000: 2447 4e47 5341 2c41 2c33 2c33 372c 3139  | b'$GNGSA,A,3,37,19' |
016: 2c33 322c 3239 2c32 302c 3233 2c33 352c  | b',32,29,20,23,35,' |
032: 2c2c 2c2c 2c30 2e39 372c 302e 3533 2c30  | b',,,,,0.97,0.53,0' |
048: 2e38 312c 342a 3036 0d0a                 | b'.81,4*06\r\n' |
<NMEA(GPGSV, numMsg=3, msgNum=1, numSV=12, svid_01=2, elv_01=6.0, az_01=329, cno_01=35, svid_02=10, elv_02=68.0, az_02=312, cno_02=53, svid_03=12, elv_03=18.0, az_03=114, cno_03=38, svid_04=15, elv_04=18.0, az_04=79, cno_04=40, signalID=1)>000: 2447 5047 5356 2c33 2c31 2c31 322c 3032  | b'$GPGSV,3,1,12,02' |
016: 2c30 362c 3332 392c 3335 2c31 302c 3638  | b',06,329,35,10,68' |
032: 2c33 3132 2c35 332c 3132 2c31 382c 3131  | b',312,53,12,18,11' |
048: 342c 3338 2c31 352c 3138 2c30 3739 2c34  | b'4,38,15,18,079,4' |
064: 302c 312a 3634 0d0a                      | b'0,1*64\r\n' |
<NMEA(GPGSV, numMsg=3, msgNum=2, numSV=12, svid_01=18, elv_01=21.0, az_01=188, cno_01=40, svid_02=21, elv_02=12.0, az_02=324, cno_02=39, svid_03=23, elv_03=70.0, az_03=125, cno_03=48, svid_04=24, elv_04=49.0, az_04=59, cno_04=47, signalID=1)>000: 2447 5047 5356 2c33 2c32 2c31 322c 3138  | b'$GPGSV,3,2,12,18' |
016: 2c32 312c 3138 382c 3430 2c32 312c 3132  | b',21,188,40,21,12' |
032: 2c33 3234 2c33 392c 3233 2c37 302c 3132  | b',324,39,23,70,12' |
048: 352c 3438 2c32 342c 3439 2c30 3539 2c34  | b'5,48,24,49,059,4' |
064: 372c 312a 3645 0d0a                      | b'7,1*6E\r\n' |
<NMEA(GPGSV, numMsg=3, msgNum=3, numSV=12, svid_01=28, elv_01=7.0, az_01=212, cno_01=37, svid_02=32, elv_02=37.0, az_02=270, cno_02=48, svid_03=44, elv_03=23.0, az_03=235, cno_03=42, svid_04=46, elv_04=15.0, az_04=246, cno_04=39, signalID=1)>000: 2447 5047 5356 2c33 2c33 2c31 322c 3238  | b'$GPGSV,3,3,12,28' |
016: 2c30 372c 3231 322c 3337 2c33 322c 3337  | b',07,212,37,32,37' |
032: 2c32 3730 2c34 382c 3434 2c32 332c 3233  | b',270,48,44,23,23' |
048: 352c 3432 2c34 362c 3135 2c32 3436 2c33  | b'5,42,46,15,246,3' |
064: 392c 312a 3643 0d0a                      | b'9,1*6C\r\n' |
<NMEA(GPGSV, numMsg=3, msgNum=1, numSV=9, svid_01=10, elv_01=68.0, az_01=312, cno_01=42, svid_02=12, elv_02=18.0, az_02=114, cno_02=32, svid_03=15, elv_03=18.0, az_03=79, cno_03=32, svid_04=18, elv_04=21.0, az_04=188, cno_04=33, signalID=6)>000: 2447 5047 5356 2c33 2c31 2c30 392c 3130  | b'$GPGSV,3,1,09,10' |
016: 2c36 382c 3331 322c 3432 2c31 322c 3138  | b',68,312,42,12,18' |
032: 2c31 3134 2c33 322c 3135 2c31 382c 3037  | b',114,32,15,18,07' |
048: 392c 3332 2c31 382c 3231 2c31 3838 2c33  | b'9,32,18,21,188,3' |
064: 332c 362a 3637 0d0a                      | b'3,6*67\r\n' |
<NMEA(GPGSV, numMsg=3, msgNum=2, numSV=9, svid_01=23, elv_01=70.0, az_01=125, cno_01=42, svid_02=24, elv_02=49.0, az_02=59, cno_02=41, svid_03=25, elv_03=7.0, az_03=152, cno_03=24, svid_04=28, elv_04=7.0, az_04=212, cno_04=26, signalID=6)>000: 2447 5047 5356 2c33 2c32 2c30 392c 3233  | b'$GPGSV,3,2,09,23' |
016: 2c37 302c 3132 352c 3432 2c32 342c 3439  | b',70,125,42,24,49' |
032: 2c30 3539 2c34 312c 3235 2c30 372c 3135  | b',059,41,25,07,15' |
048: 322c 3234 2c32 382c 3037 2c32 3132 2c32  | b'2,24,28,07,212,2' |
064: 362c 362a 3637 0d0a                      | b'6,6*67\r\n' |
<NMEA(GPGSV, numMsg=3, msgNum=3, numSV=9, svid_01=32, elv_01=37.0, az_01=270, cno_01=38, signalID=6)>000: 2447 5047 5356 2c33 2c33 2c30 392c 3332  | b'$GPGSV,3,3,09,32' |
016: 2c33 372c 3237 302c 3338 2c36 2a35 310d  | b',37,270,38,6*51\r' |
032: 0a                                       | b'\n' |
<NMEA(GLGSV, numMsg=3, msgNum=1, numSV=10, svid_01=69, elv_01=9.0, az_01=89, cno_01=29, svid_02=70, elv_02=60.0, az_02=40, cno_02=39, svid_03=71, elv_03=43.0, az_03=308, cno_03=51, svid_04=73, elv_04=26.0, az_04=158, cno_04=45, signalID=1)>000: 2447 4c47 5356 2c33 2c31 2c31 302c 3639  | b'$GLGSV,3,1,10,69' |
016: 2c30 392c 3038 392c 3239 2c37 302c 3630  | b',09,089,29,70,60' |
032: 2c30 3430 2c33 392c 3731 2c34 332c 3330  | b',040,39,71,43,30' |
048: 382c 3531 2c37 332c 3236 2c31 3538 2c34  | b'8,51,73,26,158,4' |
064: 352c 312a 3742 0d0a                      | b'5,1*7B\r\n' |
<NMEA(GLGSV, numMsg=3, msgNum=2, numSV=10, svid_01=79, elv_01=21.0, az_01=32, cno_01=44, svid_02=80, elv_02=49.0, az_02=91, cno_02=49, svid_03=85, elv_03=17.0, az_03=223, cno_03=45, svid_04=86, elv_04=35.0, az_04=273, cno_04=48, signalID=1)>000: 2447 4c47 5356 2c33 2c32 2c31 302c 3739  | b'$GLGSV,3,2,10,79' |
016: 2c32 312c 3033 322c 3434 2c38 302c 3439  | b',21,032,44,80,49' |
032: 2c30 3931 2c34 392c 3835 2c31 372c 3232  | b',091,49,85,17,22' |
048: 332c 3435 2c38 362c 3335 2c32 3733 2c34  | b'3,45,86,35,273,4' |
064: 382c 312a 3746 0d0a                      | b'8,1*7F\r\n' |
<NMEA(GLGSV, numMsg=3, msgNum=3, numSV=10, svid_01=87, elv_01=18.0, az_01=332, cno_01=43, svid_02=, elv_02=, az_02=, cno_02=40, signalID=1)>000: 2447 4c47 5356 2c33 2c33 2c31 302c 3837  | b'$GLGSV,3,3,10,87' |
016: 2c31 382c 3333 322c 3433 2c2c 2c2c 3430  | b',18,332,43,,,,40' |
032: 2c31 2a34 450d 0a                        | b',1*4E\r\n' |
<NMEA(GLGSV, numMsg=2, msgNum=1, numSV=7, svid_01=69, elv_01=9.0, az_01=89, cno_01=22, svid_02=71, elv_02=43.0, az_02=308, cno_02=37, svid_03=73, elv_03=26.0, az_03=158, cno_03=33, svid_04=79, elv_04=21.0, az_04=32, cno_04=33, signalID=3)>000: 2447 4c47 5356 2c32 2c31 2c30 372c 3639  | b'$GLGSV,2,1,07,69' |
016: 2c30 392c 3038 392c 3232 2c37 312c 3433  | b',09,089,22,71,43' |
032: 2c33 3038 2c33 372c 3733 2c32 362c 3135  | b',308,37,73,26,15' |
048: 382c 3333 2c37 392c 3231 2c30 3332 2c33  | b'8,33,79,21,032,3' |
064: 332c 332a 3737 0d0a                      | b'3,3*77\r\n' |
<NMEA(GLGSV, numMsg=2, msgNum=2, numSV=7, svid_01=80, elv_01=49.0, az_01=91, cno_01=37, svid_02=85, elv_02=17.0, az_02=223, cno_02=31, svid_03=86, elv_03=35.0, az_03=273, cno_03=36, signalID=3)>000: 2447 4c47 5356 2c32 2c32 2c30 372c 3830  | b'$GLGSV,2,2,07,80' |
016: 2c34 392c 3039 312c 3337 2c38 352c 3137  | b',49,091,37,85,17' |
032: 2c32 3233 2c33 312c 3836 2c33 352c 3237  | b',223,31,86,35,27' |
048: 332c 3336 2c33 2a34 350d 0a              | b'3,36,3*45\r\n' |
<NMEA(GLGSV, numMsg=1, msgNum=1, numSV=1, svid_01=72, elv_01=2.0, az_01=285, cno_01=, signalID=0)>000: 2447 4c47 5356 2c31 2c31 2c30 312c 3732  | b'$GLGSV,1,1,01,72' |
016: 2c30 322c 3238 352c 2c30 2a34 300d 0a    | b',02,285,,0*40\r\n' |
<NMEA(GAGSV, numMsg=2, msgNum=1, numSV=8, svid_01=4, elv_01=21.0, az_01=72, cno_01=34, svid_02=5, elv_02=47.0, az_02=274, cno_02=41, svid_03=9, elv_03=69.0, az_03=40, cno_03=44, svid_04=15, elv_04=7.0, az_04=331, cno_04=32, signalID=2)>000: 2447 4147 5356 2c32 2c31 2c30 382c 3034  | b'$GAGSV,2,1,08,04' |
016: 2c32 312c 3037 322c 3334 2c30 352c 3437  | b',21,072,34,05,47' |
032: 2c32 3734 2c34 312c 3039 2c36 392c 3034  | b',274,41,09,69,04' |
048: 302c 3434 2c31 352c 3037 2c33 3331 2c33  | b'0,44,15,07,331,3' |
064: 322c 322a 3742 0d0a                      | b'2,2*7B\r\n' |
<NMEA(GAGSV, numMsg=2, msgNum=2, numSV=8, svid_01=24, elv_01=8.0, az_01=152, cno_01=28, svid_02=31, elv_02=25.0, az_02=105, cno_02=38, svid_03=34, elv_03=42.0, az_03=290, cno_03=40, svid_04=36, elv_04=40.0, az_04=216, cno_04=39, signalID=2)>000: 2447 4147 5356 2c32 2c32 2c30 382c 3234  | b'$GAGSV,2,2,08,24' |
016: 2c30 382c 3135 322c 3238 2c33 312c 3235  | b',08,152,28,31,25' |
032: 2c31 3035 2c33 382c 3334 2c34 322c 3239  | b',105,38,34,42,29' |
048: 302c 3430 2c33 362c 3430 2c32 3136 2c33  | b'0,40,36,40,216,3' |
064: 392c 322a 3736 0d0a                      | b'9,2*76\r\n' |
<NMEA(GAGSV, numMsg=3, msgNum=1, numSV=9, svid_01=4, elv_01=21.0, az_01=72, cno_01=35, svid_02=5, elv_02=47.0, az_02=274, cno_02=46, svid_03=9, elv_03=69.0, az_03=40, cno_03=49, svid_04=11, elv_04=7.0, az_04=178, cno_04=29, signalID=7)>000: 2447 4147 5356 2c33 2c31 2c30 392c 3034  | b'$GAGSV,3,1,09,04' |
016: 2c32 312c 3037 322c 3335 2c30 352c 3437  | b',21,072,35,05,47' |
032: 2c32 3734 2c34 362c 3039 2c36 392c 3034  | b',274,46,09,69,04' |
048: 302c 3439 2c31 312c 3037 2c31 3738 2c32  | b'0,49,11,07,178,2' |
064: 392c 372a 3734 0d0a                      | b'9,7*74\r\n' |
<NMEA(GAGSV, numMsg=3, msgNum=2, numSV=9, svid_01=15, elv_01=7.0, az_01=331, cno_01=35, svid_02=24, elv_02=8.0, az_02=152, cno_02=31, svid_03=31, elv_03=25.0, az_03=105, cno_03=41, svid_04=34, elv_04=42.0, az_04=290, cno_04=45, signalID=7)>000: 2447 4147 5356 2c33 2c32 2c30 392c 3135  | b'$GAGSV,3,2,09,15' |
016: 2c30 372c 3333 312c 3335 2c32 342c 3038  | b',07,331,35,24,08' |
032: 2c31 3532 2c33 312c 3331 2c32 352c 3130  | b',152,31,31,25,10' |
048: 352c 3431 2c33 342c 3432 2c32 3930 2c34  | b'5,41,34,42,290,4' |
064: 352c 372a 3741 0d0a                      | b'5,7*7A\r\n' |
<NMEA(GAGSV, numMsg=3, msgNum=3, numSV=9, svid_01=36, elv_01=40.0, az_01=216, cno_01=45, signalID=7)>000: 2447 4147 5356 2c33 2c33 2c30 392c 3336  | b'$GAGSV,3,3,09,36' |
016: 2c34 302c 3231 362c 3435 2c37 2a34 460d  | b',40,216,45,7*4F\r' |
032: 0a                                       | b'\n' |
<NMEA(GBGSV, numMsg=2, msgNum=1, numSV=8, svid_01=19, elv_01=14.0, az_01=292, cno_01=44, svid_02=20, elv_02=61.0, az_02=311, cno_02=53, svid_03=23, elv_03=40.0, az_03=67, cno_03=48, svid_04=29, elv_04=18.0, az_04=261, cno_04=40, signalID=1)>000: 2447 4247 5356 2c32 2c31 2c30 382c 3139  | b'$GBGSV,2,1,08,19' |
016: 2c31 342c 3239 322c 3434 2c32 302c 3631  | b',14,292,44,20,61' |
032: 2c33 3131 2c35 332c 3233 2c34 302c 3036  | b',311,53,23,40,06' |
048: 372c 3438 2c32 392c 3138 2c32 3631 2c34  | b'7,48,29,18,261,4' |
064: 302c 312a 3732 0d0a                      | b'0,1*72\r\n' |
<NMEA(GBGSV, numMsg=2, msgNum=2, numSV=8, svid_01=30, elv_01=3.0, az_01=212, cno_01=30, svid_02=32, elv_02=53.0, az_02=88, cno_02=50, svid_03=35, elv_03=11.0, az_03=316, cno_03=35, svid_04=37, elv_04=45.0, az_04=145, cno_04=48, signalID=1)>000: 2447 4247 5356 2c32 2c32 2c30 382c 3330  | b'$GBGSV,2,2,08,30' |
016: 2c30 332c 3231 322c 3330 2c33 322c 3533  | b',03,212,30,32,53' |
032: 2c30 3838 2c35 302c 3335 2c31 312c 3331  | b',088,50,35,11,31' |
048: 362c 3335 2c33 372c 3435 2c31 3435 2c34  | b'6,35,37,45,145,4' |
064: 382c 312a 3733 0d0a                      | b'8,1*73\r\n' |
<NMEA(GBGSV, numMsg=1, msgNum=1, numSV=3, svid_01=20, elv_01=61.0, az_01=311, cno_01=12, svid_02=25, elv_02=5.0, az_02=33, cno_02=8, svid_03=32, elv_03=53.0, az_03=88, cno_03=9, signalID=3)>000: 2447 4247 5356 2c31 2c31 2c30 332c 3230  | b'$GBGSV,1,1,03,20' |
016: 2c36 312c 3331 312c 3132 2c32 352c 3035  | b',61,311,12,25,05' |
032: 2c30 3333 2c30 382c 3332 2c35 332c 3038  | b',033,08,32,53,08' |
048: 382c 3039 2c33 2a34 360d 0a              | b'8,09,3*46\r\n' |
<NMEA(GNGLL, lat=43.8827352017, NS=N, lon=-72.158059435, EW=W, time=19:35:33.250000, status=A, posMode=D)>000: 2447 4e47 4c4c 2c34 3335 322e 3936 3431  | b'$GNGLL,4352.9641' |
016: 3132 312c 4e2c 3037 3230 392e 3438 3335  | b'121,N,07209.4835' |
032: 3636 312c 572c 3139 3335 3333 2e32 352c  | b'661,W,193533.25,' |
048: 412c 442a 3636 0d0a                      | b'A,D*66\r\n' |
<NMEA(GNRMC, time=19:35:33.500000, status=A, lat=43.8827355983, NS=N, lon=-72.1580586333, EW=W, spd=0.594, cog=54.94, date=2023-09-05, mv=, mvEW=, posMode=R, navStatus=V)>000: 2447 4e52 4d43 2c31 3933 3533 332e 3530  | b'$GNRMC,193533.50' |
016: 2c41 2c34 3335 322e 3936 3431 3335 392c  | b',A,4352.9641359,' |
032: 4e2c 3037 3230 392e 3438 3335 3138 302c  | b'N,07209.4835180,' |
048: 572c 302e 3539 342c 3534 2e39 342c 3035  | b'W,0.594,54.94,05' |
064: 3039 3233 2c2c 2c52 2c56 2a33 330d 0a    | b'0923,,,R,V*33\r\n' |
<NMEA(GNVTG, cogt=54.94, cogtUnit=T, cogm=, cogmUnit=M, sogn=0.594, sognUnit=N, sogk=1.1, sogkUnit=K, posMode=D)>000: 2447 4e56 5447 2c35 342e 3934 2c54 2c2c  | b'$GNVTG,54.94,T,,' |
016: 4d2c 302e 3539 342c 4e2c 312e 3130 302c  | b'M,0.594,N,1.100,' |
032: 4b2c 442a 3132 0d0a                      | b'K,D*12\r\n' |
<NMEA(GNGGA, time=19:35:33.500000, lat=43.8827355983, NS=N, lon=-72.1580586333, EW=W, quality=4, numSV=12, HDOP=0.53, alt=142.37, altUnit=M, sep=-32.547, sepUnit=M, diffAge=, diffStation=0)>000: 2447 4e47 4741 2c31 3933 3533 332e 3530  | b'$GNGGA,193533.50' |
016: 2c34 3335 322e 3936 3431 3335 392c 4e2c  | b',4352.9641359,N,' |
032: 3037 3230 392e 3438 3335 3138 302c 572c  | b'07209.4835180,W,' |
048: 342c 3132 2c30 2e35 332c 3134 322e 3337  | b'4,12,0.53,142.37' |
064: 302c 4d2c 2d33 322e 3534 372c 4d2c 2c30  | b'0,M,-32.547,M,,0' |
080: 3030 302a 3738 0d0a                      | b'000*78\r\n' |
<NMEA(GNGSA, opMode=A, navMode=3, svid_01=46, svid_02=21, svid_03=44, svid_04=24, svid_05=18, svid_06=10, svid_07=12, svid_08=23, svid_09=15, svid_10=32, svid_11=, svid_12=, PDOP=0.97, HDOP=0.53, VDOP=0.81, systemId=1)>000: 2447 4e47 5341 2c41 2c33 2c34 362c 3231  | b'$GNGSA,A,3,46,21' |
016: 2c34 342c 3234 2c31 382c 3130 2c31 322c  | b',44,24,18,10,12,' |
032: 3233 2c31 352c 3332 2c2c 2c30 2e39 372c  | b'23,15,32,,,0.97,' |
048: 302e 3533 2c30 2e38 312c 312a 3038 0d0a  | b'0.53,0.81,1*08\r\n' |
