<NMEA(GAGSV, numMsg=3, msgNum=1, numSV=9, svid_01=3, elv_01=5.0, az_01=267, cno_01=33, svid_02=4, elv_02=14.0, az_02=79, cno_02=38, svid_03=5, elv_03=53.0, az_03=284, cno_03=47, svid_04=9, elv_04=62.0, az_04=54, cno_04=50, signalID=7)>000: 2447 4147 5356 2c33 2c31 2c30 392c 3033  | b'$GAGSV,3,1,09,03' |
016: 2c30 352c 3236 372c 3333 2c30 342c 3134  | b',05,267,33,04,14' |
032: 2c30 3739 2c33 382c 3035 2c35 332c 3238  | b',079,38,05,53,28' |
048: 342c 3437 2c30 392c 3632 2c30 3534 2c35  | b'4,47,09,62,054,5' |
064: 302c 372a 3745 0d0a                      | b'0,7*7E\r\n' |
<NMEA(GAGSV, numMsg=3, msgNum=2, numSV=9, svid_01=15, elv_01=13.0, az_01=327, cno_01=36, svid_02=24, elv_02=15.0, az_02=149, cno_02=37, svid_03=31, elv_03=30.0, az_03=97, cno_03=40, svid_04=34, elv_04=41.0, az_04=279, cno_04=46, signalID=7)>000: 2447 4147 5356 2c33 2c32 2c30 392c 3135  | b'$GAGSV,3,2,09,15' |
016: 2c31 332c 3332 372c 3336 2c32 342c 3135  | b',13,327,36,24,15' |
032: 2c31 3439 2c33 372c 3331 2c33 302c 3039  | b',149,37,31,30,09' |
048: 372c 3430 2c33 342c 3431 2c32 3739 2c34  | b'7,40,34,41,279,4' |
064: 362c 372a 3733 0d0a                      | b'6,7*73\r\n' |
<NMEA(GAGSV, numMsg=3, msgNum=3, numSV=9, svid_01=36, elv_01=32.0, az_01=212, cno_01=43, signalID=7)>000: 2447 4147 5356 2c33 2c33 2c30 392c 3336  | b'$GAGSV,3,3,09,36' |
016: 2c33 322c 3231 322c 3433 2c37 2a34 380d  | b',32,212,43,7*48\r' |
032: 0a                                       | b'\n' |
<NMEA(GBGSV, numMsg=2, msgNum=2, numSV=7, svid_01=32, elv_01=46.0, az_01=98, cno_01=48, svid_02=35, elv_02=11.0, az_02=308, cno_02=40, svid_03=37, elv_03=53.0, az_03=136, cno_03=49, signalID=1)>000: 2447 4247 5356 2c32 2c32 2c30 372c 3332  | b'$GBGSV,2,2,07,32' |
016: 2c34 362c 3039 382c 3438 2c33 352c 3131  | b',46,098,48,35,11' |
032: 2c33 3038 2c34 302c 3337 2c35 332c 3133  | b',308,40,37,53,13' |
048: 362c 3439 2c31 2a34 440d 0a              | b'6,49,1*4D\r\n' |
<NMEA(GNTXT, numMsg=1, msgNum=1, msgType=0, text=txbuf alloc)>000: 2447 4e54 5854 2c30 312c 3031 2c30 302c  | b'$GNTXT,01,01,00,' |
016: 7478 6275 6620 616c 6c6f 632a 3631 0d0a  | b'txbuf alloc*61\r\n' |
<NMEA(GNRMC, time=19:58:24.250000, status=A, lat=43.882510095, NS=N, lon=-72.1574286983, EW=W, spd=0.412, cog=134.37, date=2023-09-05, mv=, mvEW=, posMode=R, navStatus=V)>000: 2447 4e52 4d43 2c31 3935 3832 342e 3235  | b'$GNRMC,195824.25' |
016: 2c41 2c34 3335 322e 3935 3036 3035 372c  | b',A,4352.9506057,' |
032: 4e2c 3037 3230 392e 3434 3537 3231 392c  | b'N,07209.4457219,' |
048: 572c 302e 3431 322c 3133 342e 3337 2c30  | b'W,0.412,134.37,0' |
064: 3530 3932 332c 2c2c 522c 562a 3042 0d0a  | b'50923,,,R,V*0B\r\n' |
<NMEA(GNVTG, cogt=134.37, cogtUnit=T, cogm=, cogmUnit=M, sogn=0.412, sognUnit=N, sogk=0.762, sogkUnit=K, posMode=D)>000: 2447 4e56 5447 2c31 3334 2e33 372c 542c  | b'$GNVTG,134.37,T,' |
016: 2c4d 2c30 2e34 3132 2c4e 2c30 2e37 3632  | b',M,0.412,N,0.762' |
032: 2c4b 2c44 2a32 300d 0a                   | b',K,D*20\r\n' |
<NMEA(GNGGA, time=19:58:24.250000, lat=43.882510095, NS=N, lon=-72.1574286983, EW=W, quality=4, numSV=12, HDOP=0.51, alt=142.764, altUnit=M, sep=-32.546, sepUnit=M, diffAge=, diffStation=0)>000: 2447 4e47 4741 2c31 3935 3832 342e 3235  | b'$GNGGA,195824.25' |
016: 2c34 3335 322e 3935 3036 3035 372c 4e2c  | b',4352.9506057,N,' |
032: 3037 3230 392e 3434 3537 3231 392c 572c  | b'07209.4457219,W,' |
048: 342c 3132 2c30 2e35 312c 3134 322e 3736  | b'4,12,0.51,142.76' |
064: 342c 4d2c 2d33 322e 3534 362c 4d2c 2c30  | b'4,M,-32.546,M,,0' |
080: 3030 302a 3733 0d0a                      | b'000*73\r\n' |
<NMEA(GNGSA, opMode=A, navMode=3, svid_01=2, svid_02=21, svid_03=44, svid_04=24, svid_05=28, svid_06=10, svid_07=12, svid_08=18, svid_09=23, svid_10=15, svid_11=32, svid_12=, PDOP=0.94, HDOP=0.51, VDOP=0.79, systemId=1)>000: 2447 4e47 5341 2c41 2c33 2c30 322c 3231  | b'$GNGSA,A,3,02,21' |
016: 2c34 342c 3234 2c32 382c 3130 2c31 322c  | b',44,24,28,10,12,' |
032: 3138 2c32 332c 3135 2c33 322c 2c30 2e39  | b'18,23,15,32,,0.9' |
048: 342c 302e 3531 2c30 2e37 392c 312a 3034  | b'4,0.51,0.79,1*04' |
064: 0d0a                                     | b'\r\n' |
<NMEA(GNGSA, opMode=A, navMode=3, svid_01=87, svid_02=80, svid_03=71, svid_04=73, svid_05=70, svid_06=79, svid_07=, svid_08=, svid_09=, svid_10=, svid_11=, svid_12=, PDOP=0.94, HDOP=0.51, VDOP=0.79, systemId=2)>000: 2447 4e47 5341 2c41 2c33 2c38 372c 3830  | b'$GNGSA,A,3,87,80' |
016: 2c37 312c 3733 2c37 302c 3739 2c2c 2c2c  | b',71,73,70,79,,,,' |
032: 2c2c 2c30 2e39 342c 302e 3531 2c30 2e37  | b',,,0.94,0.51,0.7' |
048: 392c 322a 3039 0d0a                      | b'9,2*09\r\n' |
<NMEA(GNGSA, opMode=A, navMode=3, svid_01=36, svid_02=4, svid_03=5, svid_04=31, svid_05=34, svid_06=15, svid_07=9, svid_08=, svid_09=, svid_10=, svid_11=, svid_12=, PDOP=0.94, HDOP=0.51, VDOP=0.79, systemId=3)>000: 2447 4e47 5341 2c41 2c33 2c33 362c 3034  | b'$GNGSA,A,3,36,04' |
016: 2c30 352c 3331 2c33 342c 3135 2c30 392c  | b',05,31,34,15,09,' |
032: 2c2c 2c2c 2c30 2e39 342c 302e 3531 2c30  | b',,,,,0.94,0.51,0' |
048: 2e37 392c 332a 3038 0d0a                 | b'.79,3*08\r\n' |
<NMEA(GNGSA, opMode=A, navMode=3, svid_01=37, svid_02=19, svid_03=32, svid_04=29, svid_05=20, svid_06=23, svid_07=35, svid_08=, svid_09=, svid_10=, svid_11=, svid_12=, PDOP=0.94, HDOP=0.51, VDOP=0.79, systemId=4)>000: 2447 4e47 5341 2c41 2c33 2c33 372c 3139  | b'$GNGSA,A,3,37,19' |
016: 2c33 322c 3239 2c32 302c 3233 2c33 352c  | b',32,29,20,23,35,' |
032: 2c2c 2c2c 2c30 2e39 342c 302e 3531 2c30  | b',,,,,0.94,0.51,0' |
048: 2e37 392c 342a 3030 0d0a                 | b'.79,4*00\r\n' |
<NMEA(GPGSV, numMsg=4, msgNum=1, numSV=13, svid_01=2, elv_01=12.0, az_01=324, cno_01=38, svid_02=10, elv_02=78.0, az_02=306, cno_02=52, svid_03=12, elv_03=24.0, az_03=105, cno_03=41, svid_04=15, elv_04=11.0, az_04=85, cno_04=32, signalID=1)>000: 2447 5047 5356 2c34 2c31 2c31 332c 3032  | b'$GPGSV,4,1,13,02' |
016: 2c31 322c 3332 342c 3338 2c31 302c 3738  | b',12,324,38,10,78' |
032: 2c33 3036 2c35 322c 3132 2c32 342c 3130  | b',306,52,12,24,10' |
048: 352c 3431 2c31 352c 3131 2c30 3835 2c33  | b'5,41,15,11,085,3' |
064: 322c 312a 3643 0d0a                      | b'2,1*6C\r\n' |
<NMEA(GPGSV, numMsg=4, msgNum=3, numSV=13, svid_01=25, elv_01=15.0, az_01=147, cno_01=31, svid_02=28, elv_02=17.0, az_02=215, cno_02=32, svid_03=32, elv_03=45.0, az_03=279, cno_03=49, svid_04=44, elv_04=23.0, az_04=235, cno_04=42, signalID=1)>000: 2447 5047 5356 2c34 2c33 2c31 332c 3235  | b'$GPGSV,4,3,13,25' |
016: 2c31 352c 3134 372c 3331 2c32 382c 3137  | b',15,147,31,28,17' |
032: 2c32 3135 2c33 322c 3332 2c34 352c 3237  | b',215,32,32,45,27' |
048: 392c 3439 2c34 342c 3233 2c32 3335 2c34  | b'9,49,44,23,235,4' |
064: 322c 312a 3642 0d0a                      | b'2,1*6B\r\n' |
<NMEA(GPGSV, numMsg=4, msgNum=4, numSV=13, svid_01=46, elv_01=15.0, az_01=246, cno_01=38, signalID=1)>000: 2447 5047 5356 2c34 2c34 2c31 332c 3436  | b'$GPGSV,4,4,13,46' |
016: 2c31 352c 3234 362c 3338 2c31 2a35 420d  | b',15,246,38,1*5B\r' |
032: 0a                                       | b'\n' |
<NMEA(GPGSV, numMsg=3, msgNum=1, numSV=9, svid_01=10, elv_01=78.0, az_01=306, cno_01=42, svid_02=12, elv_02=24.0, az_02=105, cno_02=33, svid_03=15, elv_03=11.0, az_03=85, cno_03=27, svid_04=18, elv_04=11.0, az_04=186, cno_04=27, signalID=6)>000: 2447 5047 5356 2c33 2c31 2c30 392c 3130  | b'$GPGSV,3,1,09,10' |
016: 2c37 382c 3330 362c 3432 2c31 322c 3234  | b',78,306,42,12,24' |
032: 2c31 3035 2c33 332c 3135 2c31 312c 3038  | b',105,33,15,11,08' |
048: 352c 3237 2c31 382c 3131 2c31 3836 2c32  | b'5,27,18,11,186,2' |
064: 372c 362a 3642 0d0a                      | b'7,6*6B\r\n' |
<NMEA(GPGSV, numMsg=3, msgNum=2, numSV=9, svid_01=23, elv_01=59.0, az_01=136, cno_01=39, svid_02=24, elv_02=40.0, az_02=54, cno_02=40, svid_03=25, elv_03=15.0, az_03=147, cno_03=25, svid_04=28, elv_04=17.0, az_04=215, cno_04=32, signalID=6)>000: 2447 5047 5356 2c33 2c32 2c30 392c 3233  | b'$GPGSV,3,2,09,23' |
016: 2c35 392c 3133 362c 3339 2c32 342c 3430  | b',59,136,39,24,40' |
032: 2c30 3534 2c34 302c 3235 2c31 352c 3134  | b',054,40,25,15,14' |
048: 372c 3235 2c32 382c 3137 2c32 3135 2c33  | b'7,25,28,17,215,3' |
064: 322c 362a 3632 0d0a                      | b'2,6*62\r\n' |
<NMEA(GPGSV, numMsg=3, msgNum=3, numSV=9, svid_01=32, elv_01=45.0, az_01=279, cno_01=40, signalID=6)>000: 2447 5047 5356 2c33 2c33 2c30 392c 3332  | b'$GPGSV,3,3,09,32' |
016: 2c34 352c 3237 392c 3430 2c36 2a35 320d  | b',45,279,40,6*52\r' |
032: 0a                                       | b'\n' |
<NMEA(GLGSV, numMsg=3, msgNum=1, numSV=11, svid_01=70, elv_01=55.0, az_01=62, cno_01=38, svid_02=71, elv_02=51.0, az_02=322, cno_02=50, svid_03=72, elv_03=9.0, az_03=293, cno_03=35, svid_04=73, elv_04=38.0, az_04=154, cno_04=47, signalID=1)>000: 2447 4c47 5356 2c33 2c31 2c31 312c 3730  | b'$GLGSV,3,1,11,70' |
016: 2c35 352c 3036 322c 3338 2c37 312c 3531  | b',55,062,38,71,51' |
032: 2c33 3232 2c35 302c 3732 2c30 392c 3239  | b',322,50,72,09,29' |
048: 332c 3335 2c37 332c 3338 2c31 3534 2c34  | b'3,35,73,38,154,4' |
064: 372c 312a 3738 0d0a                      | b'7,1*78\r\n' |
<NMEA(GLGSV, numMsg=3, msgNum=2, numSV=11, svid_01=74, elv_01=2.0, az_01=181, cno_01=27, svid_02=79, elv_02=13.0, az_02=25, cno_02=42, svid_03=80, elv_03=50.0, az_03=71, cno_03=48, svid_04=85, elv_04=7.0, az_04=218, cno_04=30, signalID=1)>000: 2447 4c47 5356 2c33 2c32 2c31 312c 3734  | b'$GLGSV,3,2,11,74' |
016: 2c30 322c 3138 312c 3237 2c37 392c 3133  | b',02,181,27,79,13' |
032: 2c30 3235 2c34 322c 3830 2c35 302c 3037  | b',025,42,80,50,07' |
048: 312c 3438 2c38 352c 3037 2c32 3138 2c33  | b'1,48,85,07,218,3' |
064: 302c 312a 3744 0d0a                      | b'0,1*7D\r\n' |
<NMEA(GLGSV, numMsg=3, msgNum=3, numSV=11, svid_01=86, elv_01=29.0, az_01=260, cno_01=48, svid_02=87, elv_02=22.0, az_02=321, cno_02=43, svid_03=, elv_03=, az_03=, cno_03=30, signalID=1)>000: 2447 4c47 5356 2c33 2c33 2c31 312c 3836  | b'$GLGSV,3,3,11,86' |
016: 2c32 392c 3236 302c 3438 2c38 372c 3232  | b',29,260,48,87,22' |
032: 2c33 3231 2c34 332c 2c2c 2c33 302c 312a  | b',321,43,,,,30,1*' |
048: 3745 0d0a                                | b'7E\r\n' |
<NMEA(GLGSV, numMsg=2, msgNum=1, numSV=6, svid_01=71, elv_01=51.0, az_01=322, cno_01=37, svid_02=72, elv_02=9.0, az_02=293, cno_02=30, svid_03=73, elv_03=38.0, az_03=154, cno_03=34, svid_04=79, elv_04=13.0, az_04=25, cno_04=32, signalID=3)>000: 2447 4c47 5356 2c32 2c31 2c30 362c 3731  | b'$GLGSV,2,1,06,71' |
016: 2c35 312c 3332 322c 3337 2c37 322c 3039  | b',51,322,37,72,09' |
032: 2c32 3933 2c33 302c 3733 2c33 382c 3135  | b',293,30,73,38,15' |
048: 342c 3334 2c37 392c 3133 2c30 3235 2c33  | b'4,34,79,13,025,3' |
064: 322c 332a 3746 0d0a                      | b'2,3*7F\r\n' |
<NMEA(GLGSV, numMsg=2, msgNum=2, numSV=6, svid_01=80, elv_01=50.0, az_01=71, cno_01=39, svid_02=86, elv_02=29.0, az_02=260, cno_02=37, signalID=3)>000: 2447 4c47 5356 2c32 2c32 2c30 362c 3830  | b'$GLGSV,2,2,06,80' |
016: 2c35 302c 3037 312c 3339 2c38 362c 3239  | b',50,071,39,86,29' |
032: 2c32 3630 2c33 372c 332a 3738 0d0a       | b',260,37,3*78\r\n' |
<NMEA(GLGSV, numMsg=1, msgNum=1, numSV=1, svid_01=69, elv_01=2.0, az_01=97, cno_01=, signalID=0)>000: 2447 4c47 5356 2c31 2c31 2c30 312c 3639  | b'$GLGSV,1,1,01,69' |
016: 2c30 322c 3039 372c 2c30 2a34 420d 0a    | b',02,097,,0*4B\r\n' |
<NMEA(GAGSV, numMsg=2, msgNum=1, numSV=8, svid_01=4, elv_01=14.0, az_01=79, cno_01=35, svid_02=5, elv_02=53.0, az_02=284, cno_02=40, svid_03=9, elv_03=62.0, az_03=54, cno_03=43, svid_04=15, elv_04=13.0, az_04=327, cno_04=33, signalID=2)>000: 2447 4147 5356 2c32 2c31 2c30 382c 3034  | b'$GAGSV,2,1,08,04' |
016: 2c31 342c 3037 392c 3335 2c30 352c 3533  | b',14,079,35,05,53' |
032: 2c32 3834 2c34 302c 3039 2c36 322c 3035  | b',284,40,09,62,05' |
048: 342c 3433 2c31 352c 3133 2c33 3237 2c33  | b'4,43,15,13,327,3' |
064: 332c 322a 3736 0d0a                      | b'3,2*76\r\n' |
<NMEA(GAGSV, numMsg=2, msgNum=2, numSV=8, svid_01=24, elv_01=15.0, az_01=149, cno_01=30, svid_02=31, elv_02=30.0, az_02=97, cno_02=36, svid_03=34, elv_03=41.0, az_03=279, cno_03=41, svid_04=36, elv_04=32.0, az_04=212, cno_04=38, signalID=2)>000: 2447 4147 5356 2c32 2c32 2c30 382c 3234  | b'$GAGSV,2,2,08,24' |
016: 2c31 352c 3134 392c 3330 2c33 312c 3330  | b',15,149,30,31,30' |
032: 2c30 3937 2c33 362c 3334 2c34 312c 3237  | b',097,36,34,41,27' |
048: 392c 3431 2c33 362c 3332 2c32 3132 2c33  | b'9,41,36,32,212,3' |
064: 382c 322a 3743 0d0a                      | b'8,2*7C\r\n' |
<NMEA(GAGSV, numMsg=3, msgNum=1, numSV=9, svid_01=3, elv_01=5.0, az_01=267, cno_01=30, svid_02=4, elv_02=14.0, az_02=79, cno_02=38, svid_03=5, elv_03=53.0, az_03=284, cno_03=47, svid_04=9, elv_04=62.0, az_04=54, cno_04=49, signalID=7)>000: 2447 4147 5356 2c33 2c31 2c30 392c 3033  | b'$GAGSV,3,1,09,03' |
016: 2c30 352c 3236 372c 3330 2c30 342c 3134  | b',05,267,30,04,14' |
032: 2c30 3739 2c33 382c 3035 2c35 332c 3238  | b',079,38,05,53,28' |
048: 342c 3437 2c30 392c 3632 2c30 3534 2c34  | b'4,47,09,62,054,4' |
064: 392c 372a 3735 0d0a                      | b'9,7*75\r\n' |
<NMEA(GAGSV, numMsg=3, msgNum=2, numSV=9, svid_01=15, elv_01=13.0, az_01=327, cno_01=36, svid_02=24, elv_02=15.0, az_02=149, cno_02=36, svid_03=31, elv_03=30.0, az_03=97, cno_03=41, svid_04=34, elv_04=41.0, az_04=279, cno_04=46, signalID=7)>000: 2447 4147 5356 2c33 2c32 2c30 392c 3135  | b'$GAGSV,3,2,09,15' |
016: 2c31 332c 3332 372c 3336 2c32 342c 3135  | b',13,327,36,24,15' |
032: 2c31 3439 2c33 362c 3331 2c33 302c 3039  | b',149,36,31,30,09' |
048: 372c 3431 2c33 342c 3431 2c32 3739 2c34  | b'7,41,34,41,279,4' |
064: 362c 372a 3733 0d0a                      | b'6,7*73\r\n' |
<NMEA(GAGSV, numMsg=3, msgNum=3, numSV=9, svid_01=36, elv_01=32.0, az_01=212, cno_01=43, signalID=7)>000: 2447 4147 5356 2c33 2c33 2c30 392c 3336  | b'$GAGSV,3,3,09,36' |
016: 2c33 322c 3231 322c 3433 2c37 2a34 380d  | b',32,212,43,7*48\r' |
032: 0a                                       | b'\n' |
<NMEA(GBGSV, numMsg=2, msgNum=1, numSV=7, svid_01=19, elv_01=21.0, az_01=297, cno_01=46, svid_02=20, elv_02=69.0, az_02=323, cno_02=53, svid_03=23, elv_03=36.0, az_03=58, cno_03=45, svid_04=29, elv_04=12.0, az_04=254, cno_04=39, signalID=1)>000: 2447 4247 5356 2c32 2c31 2c30 372c 3139  | b'$GBGSV,2,1,07,19' |
016: 2c32 312c 3239 372c 3436 2c32 302c 3639  | b',21,297,46,20,69' |
032: 2c33 3233 2c35 332c 3233 2c33 362c 3035  | b',323,53,23,36,05' |
048: 382c 3435 2c32 392c 3132 2c32 3534 2c33  | b'8,45,29,12,254,3' |
064: 392c 312a 3737 0d0a                      | b'9,1*77\r\n' |
<NMEA(GBGSV, numMsg=2, msgNum=2, numSV=7, svid_01=32, elv_01=46.0, az_01=98, cno_01=47, svid_02=35, elv_02=11.0, az_02=308, cno_02=40, svid_03=37, elv_03=53.0, az_03=136, cno_03=48, signalID=1)>000: 2447 4247 5356 2c32 2c32 2c30 372c 3332  | b'$GBGSV,2,2,07,32' |
016: 2c34 362c 3039 382c 3437 2c33 352c 3131  | b',46,098,47,35,11' |
032: 2c33 3038 2c34 302c 3337 2c35 332c 3133  | b',308,40,37,53,13' |
048: 362c 3438 2c31 2a34 330d 0a              | b'6,48,1*43\r\n' |
<NMEA(GBGSV, numMsg=2, msgNum=1, numSV=6, svid_01=23, elv_01=36.0, az_01=58, cno_01=12, svid_02=29, elv_02=12.0, az_02=254, cno_02=10, svid_03=32, elv_03=46.0, az_03=98, cno_03=11, svid_04=33, elv_04=, az_04=, cno_04=22, signalID=3)>000: 2447 4247 5356 2c32 2c31 2c30 362c 3233  | b'$GBGSV,2,1,06,23' |
016: 2c33 362c 3035 382c 3132 2c32 392c 3132  | b',36,058,12,29,12' |
032: 2c32 3534 2c31 302c 3332 2c34 362c 3039  | b',254,10,32,46,09' |
048: 382c 3131 2c33 332c 2c2c 3232 2c33 2a34  | b'8,11,33,,,22,3*4' |
064: 330d 0a                                  | b'3\r\n' |
<NMEA(GBGSV, numMsg=2, msgNum=2, numSV=6, svid_01=35, elv_01=11.0, az_01=308, cno_01=12, svid_02=37, elv_02=53.0, az_02=136, cno_02=11, signalID=3)>000: 2447 4247 5356 2c32 2c32 2c30 362c 3335  | b'$GBGSV,2,2,06,35' |
016: 2c31 312c 3330 382c 3132 2c33 372c 3533  | b',11,308,12,37,53' |
032: 2c31 3336 2c31 312c 332a 3741 0d0a       | b',136,11,3*7A\r\n' |
<NMEA(GNGLL, lat=43.882510095, NS=N, lon=-72.1574286983, EW=W, time=19:58:24.250000, status=A, posMode=D)>000: 2447 4e47 4c4c 2c34 3335 322e 3935 3036  | b'$GNGLL,4352.9506' |
016: 3035 372c 4e2c 3037 3230 392e 3434 3537  | b'057,N,07209.4457' |
032: 3231 392c 572c 3139 3538 3234 2e32 352c  | b'219,W,195824.25,' |
048: 412c 442a 3638 0d0a                      | b'A,D*68\r\n' |
<NMEA(GNRMC, time=19:58:24.500000, status=A, lat=43.882508855, NS=N, lon=-72.157428375, EW=W, spd=1.112, cog=169.02, date=2023-09-05, mv=, mvEW=, posMode=R, navStatus=V)>000: 2447 4e52 4d43 2c31 3935 3832 342e 3530  | b'$GNRMC,195824.50' |
016: 2c41 2c34 3335 322e 3935 3035 3331 332c  | b',A,4352.9505313,' |
032: 4e2c 3037 3230 392e 3434 3537 3032 352c  | b'N,07209.4457025,' |
048: 572c 312e 3131 322c 3136 392e 3032 2c30  | b'W,1.112,169.02,0' |
064: 3530 3932 332c 2c2c 522c 562a 3045 0d0a  | b'50923,,,R,V*0E\r\n' |
<NMEA(GNVTG, cogt=169.02, cogtUnit=T, cogm=, cogmUnit=M, sogn=1.112, sognUnit=N, sogk=2.06, sogkUnit=K, posMode=D)>000: 2447 4e56 5447 2c31 3639 2e30 322c 542c  | b'$GNVTG,169.02,T,' |
016: 2c4d 2c31 2e31 3132 2c4e 2c32 2e30 3630  | b',M,1.112,N,2.060' |
032: 2c4b 2c44 2a32 440d 0a                   | b',K,D*2D\r\n' |
<NMEA(GNGGA, time=19:58:24.500000, lat=43.882508855, NS=N, lon=-72.157428375, EW=W, quality=4, numSV=12, HDOP=0.51, alt=142.767, altUnit=M, sep=-32.546, sepUnit=M, diffAge=, diffStation=0)>000: 2447 4e47 4741 2c31 3935 3832 342e 3530  | b'$GNGGA,195824.50' |
016: 2c34 3335 322e 3935 3035 3331 332c 4e2c  | b',4352.9505313,N,' |
032: 3037 3230 392e 3434 3537 3032 352c 572c  | b'07209.4457025,W,' |
048: 342c 3132 2c30 2e35 312c 3134 322e 3736  | b'4,12,0.51,142.76' |
064: 372c 4d2c 2d33 322e 3534 362c 4d2c 2c30  | b'7,M,-32.546,M,,0' |
080: 3030 302a 3746 0d0a                      | b'000*7F\r\n' |
<NMEA(GNGSA, opMode=A, navMode=3, svid_01=2, svid_02=21, svid_03=44, svid_04=24, svid_05=28, svid_06=10, svid_07=12, svid_08=18, svid_09=23, svid_10=15, svid_11=32, svid_12=, PDOP=0.94, HDOP=0.51, VDOP=0.79, systemId=1)>000: 2447 4e47 5341 2c41 2c33 2c30 322c 3231  | b'$GNGSA,A,3,02,21' |
016: 2c34 342c 3234 2c32 382c 3130 2c31 322c  | b',44,24,28,10,12,' |
032: 3138 2c32 332c 3135 2c33 322c 2c30 2e39  | b'18,23,15,32,,0.9' |
048: 342c 302e 3531 2c30 2e37 392c 312a 3034  | b'4,0.51,0.79,1*04' |
064: 0d0a                                     | b'\r\n' |
<NMEA(GNGSA, opMode=A, navMode=3, svid_01=87, svid_02=80, svid_03=71, svid_04=73, svid_05=70, svid_06=79, svid_07=, svid_08=, svid_09=, svid_10=, svid_11=, svid_12=, PDOP=0.94, HDOP=0.51, VDOP=0.79, systemId=2)>000: 2447 4e47 5341 2c41 2c33 2c38 372c 3830  | b'$GNGSA,A,3,87,80' |
016: 2c37 312c 3733 2c37 302c 3739 2c2c 2c2c  | b',71,73,70,79,,,,' |
032: 2c2c 2c30 2e39 342c 302e 3531 2c30 2e37  | b',,,0.94,0.51,0.7' |
048: 392c 322a 3039 0d0a                      | b'9,2*09\r\n' |
<NMEA(GNGSA, opMode=A, navMode=3, svid_01=36, svid_02=4, svid_03=5, svid_04=31, svid_05=34, svid_06=15, svid_07=9, svid_08=, svid_09=, svid_10=, svid_11=, svid_12=, PDOP=0.94, HDOP=0.51, VDOP=0.79, systemId=3)>000: 2447 4e47 5341 2c41 2c33 2c33 362c 3034  | b'$GNGSA,A,3,36,04' |
016: 2c30 352c 3331 2c33 342c 3135 2c30 392c  | b',05,31,34,15,09,' |
032: 2c2c 2c2c 2c30 2e39 342c 302e 3531 2c30  | b',,,,,0.94,0.51,0' |
048: 2e37 392c 332a 3038 0d0a                 | b'.79,3*08\r\n' |
<NMEA(GNGSA, opMode=A, navMode=3, svid_01=37, svid_02=19, svid_03=32, svid_04=29, svid_05=20, svid_06=23, svid_07=35, svid_08=, svid_09=, svid_10=, svid_11=, svid_12=, PDOP=0.94, HDOP=0.51, VDOP=0.79, systemId=4)>000: 2447 4e47 5341 2c41 2c33 2c33 372c 3139  | b'$GNGSA,A,3,37,19' |
016: 2c33 322c 3239 2c32 302c 3233 2c33 352c  | b',32,29,20,23,35,' |
032: 2c2c 2c2c 2c30 2e39 342c 302e 3531 2c30  | b',,,,,0.94,0.51,0' |
048: 2e37 392c 342a 3030 0d0a                 | b'.79,4*00\r\n' |
<NMEA(GPGSV, numMsg=4, msgNum=1, numSV=13, svid_01=2, elv_01=12.0, az_01=324, cno_01=38, svid_02=10, elv_02=78.0, az_02=306, cno_02=52, svid_03=12, elv_03=24.0, az_03=105, cno_03=43, svid_04=15, elv_04=11.0, az_04=85, cno_04=32, signalID=1)>000: 2447 5047 5356 2c34 2c31 2c31 332c 3032  | b'$GPGSV,4,1,13,02' |
016: 2c31 322c 3332 342c 3338 2c31 302c 3738  | b',12,324,38,10,78' |
032: 2c33 3036 2c35 322c 3132 2c32 342c 3130  | b',306,52,12,24,10' |
048: 352c 3433 2c31 352c 3131 2c30 3835 2c33  | b'5,43,15,11,085,3' |
064: 322c 312a 3645 0d0a                      | b'2,1*6E\r\n' |
<NMEA(GPGSV, numMsg=4, msgNum=2, numSV=13, svid_01=18, elv_01=11.0, az_01=186, cno_01=39, svid_02=21, elv_02=17.0, az_02=317, cno_02=42, svid_03=23, elv_03=59.0, az_03=136, cno_03=47, svid_04=24, elv_04=40.0, az_04=54, cno_04=43, signalID=1)>000: 2447 5047 5356 2c34 2c32 2c31 332c 3138  | b'$GPGSV,4,2,13,18' |
016: 2c31 312c 3138 362c 3339 2c32 312c 3137  | b',11,186,39,21,17' |
032: 2c33 3137 2c34 322c 3233 2c35 392c 3133  | b',317,42,23,59,13' |
048: 362c 3437 2c32 342c 3430 2c30 3534 2c34  | b'6,47,24,40,054,4' |
064: 332c 312a 3634 0d0a                      | b'3,1*64\r\n' |
<NMEA(GPGSV, numMsg=4, msgNum=3, numSV=13, svid_01=25, elv_01=15.0, az_01=147, cno_01=26, svid_02=28, elv_02=17.0, az_02=215, cno_02=41, svid_03=32, elv_03=45.0, az_03=279, cno_03=49, svid_04=44, elv_04=23.0, az_04=235, cno_04=41, signalID=1)>000: 2447 5047 5356 2c34 2c33 2c31 332c 3235  | b'$GPGSV,4,3,13,25' |
016: 2c31 352c 3134 372c 3236 2c32 382c 3137  | b',15,147,26,28,17' |
032: 2c32 3135 2c34 312c 3332 2c34 352c 3237  | b',215,41,32,45,27' |
048: 392c 3439 2c34 342c 3233 2c32 3335 2c34  | b'9,49,44,23,235,4' |
064: 312c 312a 3641 0d0a                      | b'1,1*6A\r\n' |
<NMEA(GPGSV, numMsg=4, msgNum=4, numSV=13, svid_01=46, elv_01=15.0, az_01=246, cno_01=43, signalID=1)>000: 2447 5047 5356 2c34 2c34 2c31 332c 3436  | b'$GPGSV,4,4,13,46' |
016: 2c31 352c 3234 362c 3433 2c31 2a35 370d  | b',15,246,43,1*57\r' |
032: 0a                                       | b'\n' |
<NMEA(GPGSV, numMsg=3, msgNum=1, numSV=9, svid_01=10, elv_01=78.0, az_01=306, cno_01=42, svid_02=12, elv_02=24.0, az_02=105, cno_02=34, svid_03=15, elv_03=11.0, az_03=85, cno_03=28, svid_04=18, elv_04=11.0, az_04=186, cno_04=26, signalID=6)>000: 2447 5047 5356 2c33 2c31 2c30 392c 3130  | b'$GPGSV,3,1,09,10' |
016: 2c37 382c 3330 362c 3432 2c31 322c 3234  | b',78,306,42,12,24' |
032: 2c31 3035 2c33 342c 3135 2c31 312c 3038  | b',105,34,15,11,08' |
048: 352c 3238 2c31 382c 3131 2c31 3836 2c32  | b'5,28,18,11,186,2' |
064: 362c 362a 3632 0d0a                      | b'6,6*62\r\n' |
<NMEA(GPGSV, numMsg=3, msgNum=2, numSV=9, svid_01=23, elv_01=59.0, az_01=136, cno_01=39, svid_02=24, elv_02=40.0, az_02=54, cno_02=39, svid_03=25, elv_03=15.0, az_03=147, cno_03=24, svid_04=28, elv_04=17.0, az_04=215, cno_04=32, signalID=6)>000: 2447 5047 5356 2c33 2c32 2c30 392c 3233  | b'$GPGSV,3,2,09,23' |
016: 2c35 392c 3133 362c 3339 2c32 342c 3430  | b',59,136,39,24,40' |
032: 2c30 3534 2c33 392c 3235 2c31 352c 3134  | b',054,39,25,15,14' |
048: 372c 3234 2c32 382c 3137 2c32 3135 2c33  | b'7,24,28,17,215,3' |
064: 322c 362a 3644 0d0a                      | b'2,6*6D\r\n' |
<NMEA(GLGSV, numMsg=3, msgNum=1, numSV=11, svid_01=70, elv_01=55.0, az_01=62, cno_01=37, svid_02=71, elv_02=51.0, az_02=322, cno_02=50, svid_03=72, elv_03=9.0, az_03=293, cno_03=37, svid_04=73, elv_04=38.0, az_04=154, cno_04=48, signalID=1)>000: 2447 4c47 5356 2c33 2c31 2c31 312c 3730  | b'$GLGSV,3,1,11,70' |
016: 2c35 352c 3036 322c 3337 2c37 312c 3531  | b',55,062,37,71,51' |
032: 2c33 3232 2c35 302c 3732 2c30 392c 3239  | b',322,50,72,09,29' |
048: 332c 3337 2c37 332c 3338 2c31 3534 2c34  | b'3,37,73,38,154,4' |
064: 382c 312a 3741 0d0a                      | b'8,1*7A\r\n' |
<NMEA(GLGSV, numMsg=3, msgNum=2, numSV=11, svid_01=74, elv_01=2.0, az_01=181, cno_01=27, svid_02=79, elv_02=13.0, az_02=25, cno_02=42, svid_03=80, elv_03=50.0, az_03=71, cno_03=46, svid_04=85, elv_04=7.0, az_04=218, cno_04=37, signalID=1)>000: 2447 4c47 5356 2c33 2c32 2c31 312c 3734  | b'$GLGSV,3,2,11,74' |
016: 2c30 322c 3138 312c 3237 2c37 392c 3133  | b',02,181,27,79,13' |
032: 2c30 3235 2c34 322c 3830 2c35 302c 3037  | b',025,42,80,50,07' |
048: 312c 3436 2c38 352c 3037 2c32 3138 2c33  | b'1,46,85,07,218,3' |
064: 372c 312a 3734 0d0a                      | b'7,1*74\r\n' |
<NMEA(GLGSV, numMsg=3, msgNum=3, numSV=11, svid_01=86, elv_01=29.0, az_01=260, cno_01=47, svid_02=87, elv_02=22.0, az_02=321, cno_02=44, svid_03=, elv_03=, az_03=, cno_03=39, signalID=1)>000: 2447 4c47 5356 2c33 2c33 2c31 312c 3836  | b'$GLGSV,3,3,11,86' |
016: 2c32 392c 3236 302c 3437 2c38 372c 3232  | b',29,260,47,87,22' |
032: 2c33 3231 2c34 342c 2c2c 2c33 392c 312a  | b',321,44,,,,39,1*' |
048: 3746 0d0a                                | b'7F\r\n' |
<NMEA(GLGSV, numMsg=2, msgNum=1, numSV=6, svid_01=71, elv_01=51.0, az_01=322, cno_01=37, svid_02=72, elv_02=9.0, az_02=293, cno_02=30, svid_03=73, elv_03=38.0, az_03=154, cno_03=34, svid_04=79, elv_04=13.0, az_04=25, cno_04=33, signalID=3)>000: 2447 4c47 5356 2c32 2c31 2c30 362c 3731  | b'$GLGSV,2,1,06,71' |
016: 2c35 312c 3332 322c 3337 2c37 322c 3039  | b',51,322,37,72,09' |
032: 2c32 3933 2c33 302c 3733 2c33 382c 3135  | b',293,30,73,38,15' |
048: 342c 3334 2c37 392c 3133 2c30 3235 2c33  | b'4,34,79,13,025,3' |
064: 332c 332a 3745 0d0a                      | b'3,3*7E\r\n' |
<NMEA(GLGSV, numMsg=1, msgNum=1, numSV=1, svid_01=69, elv_01=2.0, az_01=97, cno_01=, signalID=0)>000: 2447 4c47 5356 2c31 2c31 2c30 312c 3639  | b'$GLGSV,1,1,01,69' |
016: 2c30 322c 3039 372c 2c30 2a34 420d 0a    | b',02,097,,0*4B\r\n' |
<NMEA(GAGSV, numMsg=2, msgNum=1, numSV=8, svid_01=4, elv_01=14.0, az_01=79, cno_01=36, svid_02=5, elv_02=53.0, az_02=284, cno_02=42, svid_03=9, elv_03=62.0, az_03=54, cno_03=43, svid_04=15, elv_04=13.0, az_04=327, cno_04=33, signalID=2)>000: 2447 4147 5356 2c32 2c31 2c30 382c 3034  | b'$GAGSV,2,1,08,04' |
016: 2c31 342c 3037 392c 3336 2c30 352c 3533  | b',14,079,36,05,53' |
032: 2c32 3834 2c34 322c 3039 2c36 322c 3035  | b',284,42,09,62,05' |
048: 342c 3433 2c31 352c 3133 2c33 3237 2c33  | b'4,43,15,13,327,3' |
064: 332c 322a 3737 0d0a                      | b'3,2*77\r\n' |
<NMEA(GAGSV, numMsg=2, msgNum=2, numSV=8, svid_01=24, elv_01=15.0, az_01=149, cno_01=30, svid_02=31, elv_02=30.0, az_02=97, cno_02=39, svid_03=34, elv_03=41.0, az_03=279, cno_03=41, svid_04=36, elv_04=32.0, az_04=212, cno_04=37, signalID=2)>000: 2447 4147 5356 2c32 2c32 2c30 382c 3234  | b'$GAGSV,2,2,08,24' |
016: 2c31 352c 3134 392c 3330 2c33 312c 3330  | b',15,149,30,31,30' |
032: 2c30 3937 2c33 392c 3334 2c34 312c 3237  | b',097,39,34,41,27' |
048: 392c 3431 2c33 362c 3332 2c32 3132 2c33  | b'9,41,36,32,212,3' |
064: 372c 322a 3743 0d0a                      | b'7,2*7C\r\n' |
<NMEA(GAGSV, numMsg=2, msgNum=1, numSV=8, svid_01=3, elv_01=5.0, az_01=267, cno_01=23, svid_02=4, elv_02=14.0, az_02=79, cno_02=38, svid_03=5, elv_03=53.0, az_03=284, cno_03=48, svid_04=9, elv_04=62.0, az_04=54, cno_04=48, signalID=7)>000: 2447 4147 5356 2c32 2c31 2c30 382c 3033  | b'$GAGSV,2,1,08,03' |
016: 2c30 352c 3236 372c 3233 2c30 342c 3134  | b',05,267,23,04,14' |
032: 2c30 3739 2c33 382c 3035 2c35 332c 3238  | b',079,38,05,53,28' |
048: 342c 3438 2c30 392c 3632 2c30 3534 2c34  | b'4,48,09,62,054,4' |
064: 382c 372a 3739 0d0a                      | b'8,7*79\r\n' |
<NMEA(GAGSV, numMsg=2, msgNum=2, numSV=8, svid_01=15, elv_01=13.0, az_01=327, cno_01=38, svid_02=31, elv_02=30.0, az_02=97, cno_02=41, svid_03=34, elv_03=41.0, az_03=279, cno_03=48, svid_04=36, elv_04=32.0, az_04=212, cno_04=44, signalID=7)>000: 2447 4147 5356 2c32 2c32 2c30 382c 3135  | b'$GAGSV,2,2,08,15' |
016: 2c31 332c 3332 372c 3338 2c33 312c 3330  | b',13,327,38,31,30' |
032: 2c30 3937 2c34 312c 3334 2c34 312c 3237  | b',097,41,34,41,27' |
048: 392c 3438 2c33 362c 3332 2c32 3132 2c34  | b'9,48,36,32,212,4' |
064: 342c 372a 3744 0d0a                      | b'4,7*7D\r\n' |
<NMEA(GBGSV, numMsg=2, msgNum=1, numSV=7, svid_01=19, elv_01=21.0, az_01=297, cno_01=47, svid_02=20, elv_02=69.0, az_02=323, cno_02=53, svid_03=23, elv_03=36.0, az_03=58, cno_03=45, svid_04=29, elv_04=12.0, az_04=254, cno_04=41, signalID=1)>000: 2447 4247 5356 2c32 2c31 2c30 372c 3139  | b'$GBGSV,2,1,07,19' |
016: 2c32 312c 3239 372c 3437 2c32 302c 3639  | b',21,297,47,20,69' |
032: 2c33 3233 2c35 332c 3233 2c33 362c 3035  | b',323,53,23,36,05' |
048: 382c 3435 2c32 392c 3132 2c32 3534 2c34  | b'8,45,29,12,254,4' |
064: 312c 312a 3739 0d0a                      | b'1,1*79\r\n' |
<NMEA(GBGSV, numMsg=2, msgNum=2, numSV=7, svid_01=32, elv_01=46.0, az_01=98, cno_01=48, svid_02=35, elv_02=11.0, az_02=308, cno_02=42, svid_03=37, elv_03=53.0, az_03=136, cno_03=49, signalID=1)>000: 2447 4247 5356 2c32 2c32 2c30 372c 3332  | b'$GBGSV,2,2,07,32' |
016: 2c34 362c 3039 382c 3438 2c33 352c 3131  | b',46,098,48,35,11' |
032: 2c33 3038 2c34 322c 3337 2c35 332c 3133  | b',308,42,37,53,13' |
048: 362c 3439 2c31 2a34 460d 0a              | b'6,49,1*4F\r\n' |
<NMEA(GBGSV, numMsg=2, msgNum=1, numSV=6, svid_01=23, elv_01=36.0, az_01=58, cno_01=12, svid_02=29, elv_02=12.0, az_02=254, cno_02=9, svid_03=32, elv_03=46.0, az_03=98, cno_03=9, svid_04=33, elv_04=, az_04=, cno_04=22, signalID=3)>000: 2447 4247 5356 2c32 2c31 2c30 362c 3233  | b'$GBGSV,2,1,06,23' |
016: 2c33 362c 3035 382c 3132 2c32 392c 3132  | b',36,058,12,29,12' |
032: 2c32 3534 2c30 392c 3332 2c34 362c 3039  | b',254,09,32,46,09' |
048: 382c 3039 2c33 332c 2c2c 3232 2c33 2a34  | b'8,09,33,,,22,3*4' |
064: 320d 0a                                  | b'2\r\n' |
<NMEA(GBGSV, numMsg=2, msgNum=2, numSV=6, svid_01=35, elv_01=11.0, az_01=308, cno_01=11, svid_02=37, elv_02=53.0, az_02=136, cno_02=9, signalID=3)>000: 2447 4247 5356 2c32 2c32 2c30 362c 3335  | b'$GBGSV,2,2,06,35' |
016: 2c31 312c 3330 382c 3131 2c33 372c 3533  | b',11,308,11,37,53' |
032: 2c31 3336 2c30 392c 332a 3730 0d0a       | b',136,09,3*70\r\n' |
<NMEA(GNGLL, lat=43.882508855, NS=N, lon=-72.157428375, EW=W, time=19:58:24.500000, status=A, posMode=D)>000: 2447 4e47 4c4c 2c34 3335 322e 3935 3035  | b'$GNGLL,4352.9505' |
016: 3331 332c 4e2c 3037 3230 392e 3434 3537  | b'313,N,07209.4457' |
032: 3032 352c 572c 3139 3538 3234 2e35 302c  | b'025,W,195824.50,' |
048: 412c 442a 3637 0d0a                      | b'A,D*67\r\n' |
<NMEA(GNRMC, time=19:58:24.750000, status=A, lat=43.8825098333, NS=N, lon=-72.1574284183, EW=W, spd=0.867, cog=354.23, date=2023-09-05, mv=, mvEW=, posMode=R, navStatus=V)>000: 2447 4e52 4d43 2c31 3935 3832 342e 3735  | b'$GNRMC,195824.75' |
016: 2c41 2c34 3335 322e 3935 3035 3930 302c  | b',A,4352.9505900,' |
032: 4e2c 3037 3230 392e 3434 3537 3035 312c  | b'N,07209.4457051,' |
048: 572c 302e 3836 372c 3335 342e 3233 2c30  | b'W,0.867,354.23,0' |
064: 3530 3932 332c 2c2c 522c 562a 3037 0d0a  | b'50923,,,R,V*07\r\n' |
<NMEA(GNVTG, cogt=354.23, cogtUnit=T, cogm=, cogmUnit=M, sogn=0.867, sognUnit=N, sogk=1.606, sogkUnit=K, posMode=D)>000: 2447 4e56 5447 2c33 3534 2e32 332c 542c  | b'$GNVTG,354.23,T,' |
016: 2c4d 2c30 2e38 3637 2c4e 2c31 2e36 3036  | b',M,0.867,N,1.606' |
032: 2c4b 2c44 2a32 440d 0a                   | b',K,D*2D\r\n' |
<NMEA(GNGGA, time=19:58:24.750000, lat=43.8825098333, NS=N, lon=-72.1574284183, EW=W, quality=4, numSV=12, HDOP=0.51, alt=142.759, altUnit=M, sep=-32.546, sepUnit=M, diffAge=, diffStation=0)>000: 2447 4e47 4741 2c31 3935 3832 342e 3735  | b'$GNGGA,195824.75' |
016: 2c34 3335 322e 3935 3035 3930 302c 4e2c  | b',4352.9505900,N,' |
032: 3037 3230 392e 3434 3537 3035 312c 572c  | b'07209.4457051,W,' |
048: 342c 3132 2c30 2e35 312c 3134 322e 3735  | b'4,12,0.51,142.75' |
064: 392c 4d2c 2d33 322e 3534 362c 4d2c 2c30  | b'9,M,-32.546,M,,0' |
080: 3030 302a 3745 0d0a                      | b'000*7E\r\n' |
<NMEA(GNGSA, opMode=A, navMode=3, svid_01=2, svid_02=21, svid_03=44, svid_04=24, svid_05=28, svid_06=10, svid_07=12, svid_08=18, svid_09=23, svid_10=15, svid_11=32, svid_12=, PDOP=0.94, HDOP=0.51, VDOP=0.79, systemId=1)>000: 2447 4e47 5341 2c41 2c33 2c30 322c 3231  | b'$GNGSA,A,3,02,21' |
016: 2c34 342c 3234 2c32 382c 3130 2c31 322c  | b',44,24,28,10,12,' |
032: 3138 2c32 332c 3135 2c33 322c 2c30 2e39  | b'18,23,15,32,,0.9' |
048: 342c 302e 3531 2c30 2e37 392c 312a 3034  | b'4,0.51,0.79,1*04' |
064: 0d0a                                     | b'\r\n' |
<NMEA(GNGSA, opMode=A, navMode=3, svid_01=87, svid_02=80, svid_03=71, svid_04=73, svid_05=70, svid_06=79, svid_07=, svid_08=, svid_09=, svid_10=, svid_11=, svid_12=, PDOP=0.94, HDOP=0.51, VDOP=0.79, systemId=2)>000: 2447 4e47 5341 2c41 2c33 2c38 372c 3830  | b'$GNGSA,A,3,87,80' |
016: 2c37 312c 3733 2c37 302c 3739 2c2c 2c2c  | b',71,73,70,79,,,,' |
032: 2c2c 2c30 2e39 342c 302e 3531 2c30 2e37  | b',,,0.94,0.51,0.7' |
048: 392c 322a 3039 0d0a                      | b'9,2*09\r\n' |
<NMEA(GNGSA, opMode=A, navMode=3, svid_01=36, svid_02=4, svid_03=5, svid_04=31, svid_05=34, svid_06=15, svid_07=9, svid_08=, svid_09=, svid_10=, svid_11=, svid_12=, PDOP=0.94, HDOP=0.51, VDOP=0.79, systemId=3)>000: 2447 4e47 5341 2c41 2c33 2c33 362c 3034  | b'$GNGSA,A,3,36,04' |
016: 2c30 352c 3331 2c33 342c 3135 2c30 392c  | b',05,31,34,15,09,' |
032: 2c2c 2c2c 2c30 2e39 342c 302e 3531 2c30  | b',,,,,0.94,0.51,0' |
048: 2e37 392c 332a 3038 0d0a                 | b'.79,3*08\r\n' |
<NMEA(GNGSA, opMode=A, navMode=3, svid_01=37, svid_02=19, svid_03=32, svid_04=29, svid_05=20, svid_06=23, svid_07=35, svid_08=, svid_09=, svid_10=, svid_11=, svid_12=, PDOP=0.94, HDOP=0.51, VDOP=0.79, systemId=4)>000: 2447 4e47 5341 2c41 2c33 2c33 372c 3139  | b'$GNGSA,A,3,37,19' |
016: 2c33 322c 3239 2c32 302c 3233 2c33 352c  | b',32,29,20,23,35,' |
032: 2c2c 2c2c 2c30 2e39 342c 302e 3531 2c30  | b',,,,,0.94,0.51,0' |
048: 2e37 392c 342a 3030 0d0a                 | b'.79,4*00\r\n' |
<NMEA(GPGSV, numMsg=4, msgNum=2, numSV=13, svid_01=18, elv_01=11.0, az_01=186, cno_01=41, svid_02=21, elv_02=17.0, az_02=317, cno_02=43, svid_03=23, elv_03=59.0, az_03=136, cno_03=46, svid_04=24, elv_04=40.0, az_04=54, cno_04=44, signalID=1)>000: 2447 5047 5356 2c34 2c32 2c31 332c 3138  | b'$GPGSV,4,2,13,18' |
016: 2c31 312c 3138 362c 3431 2c32 312c 3137  | b',11,186,41,21,17' |
032: 2c33 3137 2c34 332c 3233 2c35 392c 3133  | b',317,43,23,59,13' |
048: 362c 3436 2c32 342c 3430 2c30 3534 2c34  | b'6,46,24,40,054,4' |
064: 342c 312a 3643 0d0a                      | b'4,1*6C\r\n' |
<NMEA(GPGSV, numMsg=4, msgNum=3, numSV=13, svid_01=25, elv_01=15.0, az_01=147, cno_01=27, svid_02=28, elv_02=17.0, az_02=215, cno_02=42, svid_03=32, elv_03=45.0, az_03=279, cno_03=50, svid_04=44, elv_04=23.0, az_04=235, cno_04=44, signalID=1)>000: 2447 5047 5356 2c34 2c33 2c31 332c 3235  | b'$GPGSV,4,3,13,25' |
016: 2c31 352c 3134 372c 3237 2c32 382c 3137  | b',15,147,27,28,17' |
032: 2c32 3135 2c34 322c 3332 2c34 352c 3237  | b',215,42,32,45,27' |
048: 392c 3530 2c34 342c 3233 2c32 3335 2c34  | b'9,50,44,23,235,4' |
064: 342c 312a 3635 0d0a                      | b'4,1*65\r\n' |
<NMEA(GPGSV, numMsg=4, msgNum=4, numSV=13, svid_01=46, elv_01=15.0, az_01=246, cno_01=45, signalID=1)>000: 2447 5047 5356 2c34 2c34 2c31 332c 3436  | b'$GPGSV,4,4,13,46' |
016: 2c31 352c 3234 362c 3435 2c31 2a35 310d  | b',15,246,45,1*51\r' |
032: 0a                                       | b'\n' |
<NMEA(GPGSV, numMsg=3, msgNum=1, numSV=9, svid_01=10, elv_01=78.0, az_01=306, cno_01=42, svid_02=12, elv_02=24.0, az_02=105, cno_02=34, svid_03=15, elv_03=11.0, az_03=85, cno_03=28, svid_04=18, elv_04=11.0, az_04=186, cno_04=26, signalID=6)>000: 2447 5047 5356 2c33 2c31 2c30 392c 3130  | b'$GPGSV,3,1,09,10' |
016: 2c37 382c 3330 362c 3432 2c31 322c 3234  | b',78,306,42,12,24' |
032: 2c31 3035 2c33 342c 3135 2c31 312c 3038  | b',105,34,15,11,08' |
048: 352c 3238 2c31 382c 3131 2c31 3836 2c32  | b'5,28,18,11,186,2' |
064: 362c 362a 3632 0d0a                      | b'6,6*62\r\n' |
<NMEA(GPGSV, numMsg=3, msgNum=2, numSV=9, svid_01=23, elv_01=59.0, az_01=136, cno_01=39, svid_02=24, elv_02=40.0, az_02=54, cno_02=39, svid_03=25, elv_03=15.0, az_03=147, cno_03=23, svid_04=28, elv_04=17.0, az_04=215, cno_04=31, signalID=6)>000: 2447 5047 5356 2c33 2c32 2c30 392c 3233  | b'$GPGSV,3,2,09,23' |
016: 2c35 392c 3133 362c 3339 2c32 342c 3430  | b',59,136,39,24,40' |
032: 2c30 3534 2c33 392c 3235 2c31 352c 3134  | b',054,39,25,15,14' |
048: 372c 3233 2c32 382c 3137 2c32 3135 2c33  | b'7,23,28,17,215,3' |
064: 312c 362a 3639 0d0a                      | b'1,6*69\r\n' |
<NMEA(GPGSV, numMsg=3, msgNum=3, numSV=9, svid_01=32, elv_01=45.0, az_01=279, cno_01=40, signalID=6)>000: 2447 5047 5356 2c33 2c33 2c30 392c 3332  | b'$GPGSV,3,3,09,32' |
016: 2c34 352c 3237 392c 3430 2c36 2a35 320d  | b',45,279,40,6*52\r' |
032: 0a                                       | b'\n' |
<NMEA(GLGSV, numMsg=3, msgNum=1, numSV=11, svid_01=70, elv_01=55.0, az_01=62, cno_01=38, svid_02=71, elv_02=51.0, az_02=322, cno_02=51, svid_03=72, elv_03=9.0, az_03=293, cno_03=38, svid_04=73, elv_04=38.0, az_04=154, cno_04=46, signalID=1)>000: 2447 4c47 5356 2c33 2c31 2c31 312c 3730  | b'$GLGSV,3,1,11,70' |
016: 2c35 352c 3036 322c 3338 2c37 312c 3531  | b',55,062,38,71,51' |
032: 2c33 3232 2c35 312c 3732 2c30 392c 3239  | b',322,51,72,09,29' |
048: 332c 3338 2c37 332c 3338 2c31 3534 2c34  | b'3,38,73,38,154,4' |
064: 362c 312a 3735 0d0a                      | b'6,1*75\r\n' |
<NMEA(GLGSV, numMsg=3, msgNum=2, numSV=11, svid_01=74, elv_01=2.0, az_01=181, cno_01=26, svid_02=79, elv_02=13.0, az_02=25, cno_02=40, svid_03=80, elv_03=50.0, az_03=71, cno_03=48, svid_04=85, elv_04=7.0, az_04=218, cno_04=35, signalID=1)>000: 2447 4c47 5356 2c33 2c32 2c31 312c 3734  | b'$GLGSV,3,2,11,74' |
016: 2c30 322c 3138 312c 3236 2c37 392c 3133  | b',02,181,26,79,13' |
032: 2c30 3235 2c34 302c 3830 2c35 302c 3037  | b',025,40,80,50,07' |
048: 312c 3438 2c38 352c 3037 2c32 3138 2c33  | b'1,48,85,07,218,3' |
064: 352c 312a 3742 0d0a                      | b'5,1*7B\r\n' |
<NMEA(GLGSV, numMsg=1, msgNum=1, numSV=1, svid_01=69, elv_01=2.0, az_01=97, cno_01=, signalID=0)>000: 2447 4c47 5356 2c31 2c31 2c30 312c 3639  | b'$GLGSV,1,1,01,69' |
016: 2c30 322c 3039 372c 2c30 2a34 420d 0a    | b',02,097,,0*4B\r\n' |
<NMEA(GAGSV, numMsg=2, msgNum=1, numSV=8, svid_01=4, elv_01=14.0, az_01=79, cno_01=35, svid_02=5, elv_02=53.0, az_02=284, cno_02=42, svid_03=9, elv_03=62.0, az_03=54, cno_03=43, svid_04=15, elv_04=13.0, az_04=327, cno_04=33, signalID=2)>000: 2447 4147 5356 2c32 2c31 2c30 382c 3034  | b'$GAGSV,2,1,08,04' |
016: 2c31 342c 3037 392c 3335 2c30 352c 3533  | b',14,079,35,05,53' |
032: 2c32 3834 2c34 322c 3039 2c36 322c 3035  | b',284,42,09,62,05' |
048: 342c 3433 2c31 352c 3133 2c33 3237 2c33  | b'4,43,15,13,327,3' |
064: 332c 322a 3734 0d0a                      | b'3,2*74\r\n' |
<NMEA(GAGSV, numMsg=2, msgNum=2, numSV=8, svid_01=24, elv_01=15.0, az_01=149, cno_01=29, svid_02=31, elv_02=30.0, az_02=97, cno_02=38, svid_03=34, elv_03=41.0, az_03=279, cno_03=40, svid_04=36, elv_04=32.0, az_04=212, cno_04=36, signalID=2)>000: 2447 4147 5356 2c32 2c32 2c30 382c 3234  | b'$GAGSV,2,2,08,24' |
016: 2c31 352c 3134 392c 3239 2c33 312c 3330  | b',15,149,29,31,30' |
032: 2c30 3937 2c33 382c 3334 2c34 312c 3237  | b',097,38,34,41,27' |
048: 392c 3430 2c33 362c 3332 2c32 3132 2c33  | b'9,40,36,32,212,3' |
064: 362c 322a 3735 0d0a                      | b'6,2*75\r\n' |
<NMEA(GAGSV, numMsg=2, msgNum=1, numSV=8, svid_01=3, elv_01=5.0, az_01=267, cno_01=24, svid_02=4, elv_02=14.0, az_02=79, cno_02=38, svid_03=5, elv_03=53.0, az_03=284, cno_03=48, svid_04=9, elv_04=62.0, az_04=54, cno_04=49, signalID=7)>000: 2447 4147 5356 2c32 2c31 2c30 382c 3033  | b'$GAGSV,2,1,08,03' |
016: 2c30 352c 3236 372c 3234 2c30 342c 3134  | b',05,267,24,04,14' |
032: 2c30 3739 2c33 382c 3035 2c35 332c 3238  | b',079,38,05,53,28' |
048: 342c 3438 2c30 392c 3632 2c30 3534 2c34  | b'4,48,09,62,054,4' |
064: 392c 372a 3746 0d0a                      | b'9,7*7F\r\n' |
<NMEA(GNTXT, numMsg=1, msgNum=1, msgType=0, text=txbuf alloc)>000: 2447 4e54 5854 2c30 312c 3031 2c30 302c  | b'$GNTXT,01,01,00,' |
016: 7478 6275 6620 616c 6c6f 632a 3631 0d0a  | b'txbuf alloc*61\r\n' |
<NMEA(GNRMC, time=19:58:25.500000, status=A, lat=43.882506695, NS=N, lon=-72.1574221933, EW=W, spd=0.884, cog=1.15, date=2023-09-05, mv=, mvEW=, posMode=R, navStatus=V)>000: 2447 4e52 4d43 2c31 3935 3832 352e 3530  | b'$GNRMC,195825.50' |
016: 2c41 2c34 3335 322e 3935 3034 3031 372c  | b',A,4352.9504017,' |
032: 4e2c 3037 3230 392e 3434 3533 3331 362c  | b'N,07209.4453316,' |
048: 572c 302e 3838 342c 312e 3135 2c30 3530  | b'W,0.884,1.15,050' |
064: 3932 332c 2c2c 522c 562a 3030 0d0a       | b'923,,,R,V*00\r\n' |
<NMEA(GNVTG, cogt=1.15, cogtUnit=T, cogm=, cogmUnit=M, sogn=0.884, sognUnit=N, sogk=1.637, sogkUnit=K, posMode=D)>000: 2447 4e56 5447 2c31 2e31 352c 542c 2c4d  | b'$GNVTG,1.15,T,,M' |
016: 2c30 2e38 3834 2c4e 2c31 2e36 3337 2c4b  | b',0.884,N,1.637,K' |
032: 2c44 2a32 340d 0a                        | b',D*24\r\n' |
<NMEA(GNGGA, time=19:58:25.500000, lat=43.882506695, NS=N, lon=-72.1574221933, EW=W, quality=4, numSV=12, HDOP=0.51, alt=142.817, altUnit=M, sep=-32.546, sepUnit=M, diffAge=, diffStation=0)>000: 2447 4e47 4741 2c31 3935 3832 352e 3530  | b'$GNGGA,195825.50' |
016: 2c34 3335 322e 3935 3034 3031 372c 4e2c  | b',4352.9504017,N,' |
032: 3037 3230 392e 3434 3533 3331 362c 572c  | b'07209.4453316,W,' |
048: 342c 3132 2c30 2e35 312c 3134 322e 3831  | b'4,12,0.51,142.81' |
064: 372c 4d2c 2d33 322e 3534 362c 4d2c 2c30  | b'7,M,-32.546,M,,0' |
080: 3030 302a 3737 0d0a                      | b'000*77\r\n' |
<NMEA(GNGSA, opMode=A, navMode=3, svid_01=2, svid_02=21, svid_03=44, svid_04=24, svid_05=28, svid_06=10, svid_07=12, svid_08=18, svid_09=23, svid_10=15, svid_11=32, svid_12=, PDOP=0.94, HDOP=0.51, VDOP=0.79, systemId=1)>000: 2447 4e47 5341 2c41 2c33 2c30 322c 3231  | b'$GNGSA,A,3,02,21' |
016: 2c34 342c 3234 2c32 382c 3130 2c31 322c  | b',44,24,28,10,12,' |
032: 3138 2c32 332c 3135 2c33 322c 2c30 2e39  | b'18,23,15,32,,0.9' |
048: 342c 302e 3531 2c30 2e37 392c 312a 3034  | b'4,0.51,0.79,1*04' |
064: 0d0a                                     | b'\r\n' |
<NMEA(GNGSA, opMode=A, navMode=3, svid_01=87, svid_02=80, svid_03=71, svid_04=73, svid_05=70, svid_06=79, svid_07=, svid_08=, svid_09=, svid_10=, svid_11=, svid_12=, PDOP=0.94, HDOP=0.51, VDOP=0.79, systemId=2)>000: 2447 4e47 5341 2c41 2c33 2c38 372c 3830  | b'$GNGSA,A,3,87,80' |
016: 2c37 312c 3733 2c37 302c 3739 2c2c 2c2c  | b',71,73,70,79,,,,' |
032: 2c2c 2c30 2e39 342c 302e 3531 2c30 2e37  | b',,,0.94,0.51,0.7' |
048: 392c 322a 3039 0d0a                      | b'9,2*09\r\n' |
<NMEA(GNGSA, opMode=A, navMode=3, svid_01=36, svid_02=4, svid_03=5, svid_04=31, svid_05=34, svid_06=15, svid_07=9, svid_08=, svid_09=, svid_10=, svid_11=, svid_12=, PDOP=0.94, HDOP=0.51, VDOP=0.79, systemId=3)>000: 2447 4e47 5341 2c41 2c33 2c33 362c 3034  | b'$GNGSA,A,3,36,04' |
016: 2c30 352c 3331 2c33 342c 3135 2c30 392c  | b',05,31,34,15,09,' |
032: 2c2c 2c2c 2c30 2e39 342c 302e 3531 2c30  | b',,,,,0.94,0.51,0' |
048: 2e37 392c 332a 3038 0d0a                 | b'.79,3*08\r\n' |
<NMEA(GNGSA, opMode=A, navMode=3, svid_01=37, svid_02=19, svid_03=32, svid_04=29, svid_05=20, svid_06=23, svid_07=35, svid_08=, svid_09=, svid_10=, svid_11=, svid_12=, PDOP=0.94, HDOP=0.51, VDOP=0.79, systemId=4)>000: 2447 4e47 5341 2c41 2c33 2c33 372c 3139  | b'$GNGSA,A,3,37,19' |
016: 2c33 322c 3239 2c32 302c 3233 2c33 352c  | b',32,29,20,23,35,' |
032: 2c2c 2c2c 2c30 2e39 342c 302e 3531 2c30  | b',,,,,0.94,0.51,0' |
048: 2e37 392c 342a 3030 0d0a                 | b'.79,4*00\r\n' |
<NMEA(GPGSV, numMsg=4, msgNum=1, numSV=13, svid_01=2, elv_01=12.0, az_01=324, cno_01=36, svid_02=10, elv_02=78.0, az_02=306, cno_02=52, svid_03=12, elv_03=24.0, az_03=105, cno_03=41, svid_04=15, elv_04=11.0, az_04=85, cno_04=39, signalID=1)>000: 2447 5047 5356 2c34 2c31 2c31 332c 3032  | b'$GPGSV,4,1,13,02' |
016: 2c31 322c 3332 342c 3336 2c31 302c 3738  | b',12,324,36,10,78' |
032: 2c33 3036 2c35 322c 3132 2c32 342c 3130  | b',306,52,12,24,10' |
048: 352c 3431 2c31 352c 3131 2c30 3835 2c33  | b'5,41,15,11,085,3' |
064: 392c 312a 3639 0d0a                      | b'9,1*69\r\n' |
<NMEA(GPGSV, numMsg=4, msgNum=3, numSV=13, svid_01=25, elv_01=15.0, az_01=147, cno_01=31, svid_02=28, elv_02=17.0, az_02=215, cno_02=39, svid_03=32, elv_03=45.0, az_03=279, cno_03=48, svid_04=44, elv_04=23.0, az_04=235, cno_04=41, signalID=1)>000: 2447 5047 5356 2c34 2c33 2c31 332c 3235  | b'$GPGSV,4,3,13,25' |
016: 2c31 352c 3134 372c 3331 2c32 382c 3137  | b',15,147,31,28,17' |
032: 2c32 3135 2c33 392c 3332 2c34 352c 3237  | b',215,39,32,45,27' |
048: 392c 3438 2c34 342c 3233 2c32 3335 2c34  | b'9,48,44,23,235,4' |
064: 312c 312a 3632 0d0a                      | b'1,1*62\r\n' |
<NMEA(GPGSV, numMsg=4, msgNum=4, numSV=13, svid_01=46, elv_01=15.0, az_01=246, cno_01=42, signalID=1)>000: 2447 5047 5356 2c34 2c34 2c31 332c 3436  | b'$GPGSV,4,4,13,46' |
016: 2c31 352c 3234 362c 3432 2c31 2a35 360d  | b',15,246,42,1*56\r' |
032: 0a                                       | b'\n' |
<NMEA(GPGSV, numMsg=3, msgNum=1, numSV=9, svid_01=10, elv_01=78.0, az_01=306, cno_01=41, svid_02=12, elv_02=24.0, az_02=105, cno_02=37, svid_03=15, elv_03=11.0, az_03=85, cno_03=33, svid_04=18, elv_04=11.0, az_04=186, cno_04=31, signalID=6)>000: 2447 5047 5356 2c33 2c31 2c30 392c 3130  | b'$GPGSV,3,1,09,10' |
016: 2c37 382c 3330 362c 3431 2c31 322c 3234  | b',78,306,41,12,24' |
032: 2c31 3035 2c33 372c 3135 2c31 312c 3038  | b',105,37,15,11,08' |
048: 352c 3333 2c31 382c 3131 2c31 3836 2c33  | b'5,33,18,11,186,3' |
064: 312c 362a 3645 0d0a                      | b'1,6*6E\r\n' |
<NMEA(GPGSV, numMsg=3, msgNum=2, numSV=9, svid_01=23, elv_01=59.0, az_01=136, cno_01=41, svid_02=24, elv_02=40.0, az_02=54, cno_02=41, svid_03=25, elv_03=15.0, az_03=147, cno_03=24, svid_04=28, elv_04=17.0, az_04=215, cno_04=34, signalID=6)>000: 2447 5047 5356 2c33 2c32 2c30 392c 3233  | b'$GPGSV,3,2,09,23' |
016: 2c35 392c 3133 362c 3431 2c32 342c 3430  | b',59,136,41,24,40' |
032: 2c30 3534 2c34 312c 3235 2c31 352c 3134  | b',054,41,25,15,14' |
048: 372c 3234 2c32 382c 3137 2c32 3135 2c33  | b'7,24,28,17,215,3' |
064: 342c 362a 3642 0d0a                      | b'4,6*6B\r\n' |
<NMEA(GPGSV, numMsg=3, msgNum=3, numSV=9, svid_01=32, elv_01=45.0, az_01=279, cno_01=40, signalID=6)>000: 2447 5047 5356 2c33 2c33 2c30 392c 3332  | b'$GPGSV,3,3,09,32' |
016: 2c34 352c 3237 392c 3430 2c36 2a35 320d  | b',45,279,40,6*52\r' |
032: 0a                                       | b'\n' |
<NMEA(GLGSV, numMsg=3, msgNum=1, numSV=11, svid_01=70, elv_01=55.0, az_01=62, cno_01=38, svid_02=71, elv_02=51.0, az_02=322, cno_02=51, svid_03=72, elv_03=9.0, az_03=293, cno_03=37, svid_04=73, elv_04=38.0, az_04=154, cno_04=49, signalID=1)>000: 2447 4c47 5356 2c33 2c31 2c31 312c 3730  | b'$GLGSV,3,1,11,70' |
016: 2c35 352c 3036 322c 3338 2c37 312c 3531  | b',55,062,38,71,51' |
032: 2c33 3232 2c35 312c 3732 2c30 392c 3239  | b',322,51,72,09,29' |
048: 332c 3337 2c37 332c 3338 2c31 3534 2c34  | b'3,37,73,38,154,4' |
064: 392c 312a 3735 0d0a                      | b'9,1*75\r\n' |
<NMEA(GLGSV, numMsg=3, msgNum=2, numSV=11, svid_01=74, elv_01=2.0, az_01=181, cno_01=27, svid_02=79, elv_02=13.0, az_02=25, cno_02=43, svid_03=80, elv_03=50.0, az_03=71, cno_03=50, svid_04=85, elv_04=7.0, az_04=218, cno_04=32, signalID=1)>000: 2447 4c47 5356 2c33 2c32 2c31 312c 3734  | b'$GLGSV,3,2,11,74' |
016: 2c30 322c 3138 312c 3237 2c37 392c 3133  | b',02,181,27,79,13' |
032: 2c30 3235 2c34 332c 3830 2c35 302c 3037  | b',025,43,80,50,07' |
048: 312c 3530 2c38 352c 3037 2c32 3138 2c33  | b'1,50,85,07,218,3' |
064: 322c 312a 3737 0d0a                      | b'2,1*77\r\n' |
<NMEA(GLGSV, numMsg=3, msgNum=3, numSV=11, svid_01=86, elv_01=29.0, az_01=260, cno_01=46, svid_02=87, elv_02=22.0, az_02=321, cno_02=42, svid_03=, elv_03=, az_03=, cno_03=30, signalID=1)>000: 2447 4c47 5356 2c33 2c33 2c31 312c 3836  | b'$GLGSV,3,3,11,86' |
016: 2c32 392c 3236 302c 3436 2c38 372c 3232  | b',29,260,46,87,22' |
032: 2c33 3231 2c34 322c 2c2c 2c33 302c 312a  | b',321,42,,,,30,1*' |
048: 3731 0d0a                                | b'71\r\n' |
<NMEA(GLGSV, numMsg=2, msgNum=1, numSV=6, svid_01=71, elv_01=51.0, az_01=322, cno_01=35, svid_02=72, elv_02=9.0, az_02=293, cno_02=28, svid_03=73, elv_03=38.0, az_03=154, cno_03=34, svid_04=79, elv_04=13.0, az_04=25, cno_04=32, signalID=3)>000: 2447 4c47 5356 2c32 2c31 2c30 362c 3731  | b'$GLGSV,2,1,06,71' |
016: 2c35 312c 3332 322c 3335 2c37 322c 3039  | b',51,322,35,72,09' |
032: 2c32 3933 2c32 382c 3733 2c33 382c 3135  | b',293,28,73,38,15' |
048: 342c 3334 2c37 392c 3133 2c30 3235 2c33  | b'4,34,79,13,025,3' |
064: 322c 332a 3734 0d0a                      | b'2,3*74\r\n' |
<NMEA(GLGSV, numMsg=2, msgNum=2, numSV=6, svid_01=80, elv_01=50.0, az_01=71, cno_01=38, svid_02=86, elv_02=29.0, az_02=260, cno_02=34, signalID=3)>000: 2447 4c47 5356 2c32 2c32 2c30 362c 3830  | b'$GLGSV,2,2,06,80' |
016: 2c35 302c 3037 312c 3338 2c38 362c 3239  | b',50,071,38,86,29' |
032: 2c32 3630 2c33 342c 332a 3741 0d0a       | b',260,34,3*7A\r\n' |
<NMEA(GLGSV, numMsg=1, msgNum=1, numSV=1, svid_01=69, elv_01=2.0, az_01=97, cno_01=, signalID=0)>000: 2447 4c47 5356 2c31 2c31 2c30 312c 3639  | b'$GLGSV,1,1,01,69' |
016: 2c30 322c 3039 372c 2c30 2a34 420d 0a    | b',02,097,,0*4B\r\n' |
<NMEA(GAGSV, numMsg=2, msgNum=1, numSV=8, svid_01=4, elv_01=14.0, az_01=79, cno_01=36, svid_02=5, elv_02=53.0, az_02=284, cno_02=41, svid_03=9, elv_03=62.0, az_03=54, cno_03=43, svid_04=15, elv_04=13.0, az_04=327, cno_04=33, signalID=2)>000: 2447 4147 5356 2c32 2c31 2c30 382c 3034  | b'$GAGSV,2,1,08,04' |
016: 2c31 342c 3037 392c 3336 2c30 352c 3533  | b',14,079,36,05,53' |
032: 2c32 3834 2c34 312c 3039 2c36 322c 3035  | b',284,41,09,62,05' |
048: 342c 3433 2c31 352c 3133 2c33 3237 2c33  | b'4,43,15,13,327,3' |
064: 332c 322a 3734 0d0a                      | b'3,2*74\r\n' |
<NMEA(GAGSV, numMsg=2, msgNum=2, numSV=8, svid_01=24, elv_01=15.0, az_01=149, cno_01=29, svid_02=31, elv_02=30.0, az_02=97, cno_02=40, svid_03=34, elv_03=41.0, az_03=279, cno_03=40, svid_04=36, elv_04=32.0, az_04=212, cno_04=37, signalID=2)>000: 2447 4147 5356 2c32 2c32 2c30 382c 3234  | b'$GAGSV,2,2,08,24' |
016: 2c31 352c 3134 392c 3239 2c33 312c 3330  | b',15,149,29,31,30' |
032: 2c30 3937 2c34 302c 3334 2c34 312c 3237  | b',097,40,34,41,27' |
048: 392c 3430 2c33 362c 3332 2c32 3132 2c33  | b'9,40,36,32,212,3' |
064: 372c 322a 3742 0d0a                      | b'7,2*7B\r\n' |
<NMEA(GAGSV, numMsg=3, msgNum=3, numSV=9, svid_01=36, elv_01=32.0, az_01=212, cno_01=43, signalID=7)>000: 2447 4147 5356 2c33 2c33 2c30 392c 3336  | b'$GAGSV,3,3,09,36' |
016: 2c33 322c 3231 322c 3433 2c37 2a34 380d  | b',32,212,43,7*48\r' |
032: 0a                                       | b'\n' |
<NMEA(GBGSV, numMsg=2, msgNum=1, numSV=7, svid_01=19, elv_01=21.0, az_01=297, cno_01=43, svid_02=20, elv_02=69.0, az_02=323, cno_02=52, svid_03=23, elv_03=36.0, az_03=58, cno_03=48, svid_04=29, elv_04=12.0, az_04=254, cno_04=40, signalID=1)>000: 2447 4247 5356 2c32 2c31 2c30 372c 3139  | b'$GBGSV,2,1,07,19' |
016: 2c32 312c 3239 372c 3433 2c32 302c 3639  | b',21,297,43,20,69' |
032: 2c33 3233 2c35 322c 3233 2c33 362c 3035  | b',323,52,23,36,05' |
048: 382c 3438 2c32 392c 3132 2c32 3534 2c34  | b'8,48,29,12,254,4' |
064: 302c 312a 3730 0d0a                      | b'0,1*70\r\n' |
<NMEA(GBGSV, numMsg=2, msgNum=2, numSV=7, svid_01=32, elv_01=46.0, az_01=98, cno_01=48, svid_02=35, elv_02=11.0, az_02=308, cno_02=39, svid_03=37, elv_03=53.0, az_03=136, cno_03=51, signalID=1)>000: 2447 4247 5356 2c32 2c32 2c30 372c 3332  | b'$GBGSV,2,2,07,32' |
016: 2c34 362c 3039 382c 3438 2c33 352c 3131  | b',46,098,48,35,11' |
032: 2c33 3038 2c33 392c 3337 2c35 332c 3133  | b',308,39,37,53,13' |
048: 362c 3531 2c31 2a34 410d 0a              | b'6,51,1*4A\r\n' |
<NMEA(GBGSV, numMsg=2, msgNum=1, numSV=5, svid_01=23, elv_01=36.0, az_01=58, cno_01=10, svid_02=29, elv_02=12.0, az_02=254, cno_02=8, svid_03=32, elv_03=46.0, az_03=98, cno_03=8, svid_04=35, elv_04=11.0, az_04=308, cno_04=10, signalID=3)>000: 2447 4247 5356 2c32 2c31 2c30 352c 3233  | b'$GBGSV,2,1,05,23' |
016: 2c33 362c 3035 382c 3130 2c32 392c 3132  | b',36,058,10,29,12' |
032: 2c32 3534 2c30 382c 3332 2c34 362c 3039  | b',254,08,32,46,09' |
048: 382c 3038 2c33 352c 3131 2c33 3038 2c31  | b'8,08,35,11,308,1' |
064: 302c 332a 3746 0d0a                      | b'0,3*7F\r\n' |
<NMEA(GBGSV, numMsg=2, msgNum=2, numSV=5, svid_01=37, elv_01=53.0, az_01=136, cno_01=8, signalID=3)>000: 2447 4247 5356 2c32 2c32 2c30 352c 3337  | b'$GBGSV,2,2,05,37' |
016: 2c35 332c 3133 362c 3038 2c33 2a34 460d  | b',53,136,08,3*4F\r' |
032: 0a                                       | b'\n' |
<NMEA(GNGLL, lat=43.882506695, NS=N, lon=-72.1574221933, EW=W, time=19:58:25.500000, status=A, posMode=D)>000: 2447 4e47 4c4c 2c34 3335 322e 3935 3034  | b'$GNGLL,4352.9504' |
016: 3031 372c 4e2c 3037 3230 392e 3434 3533  | b'017,N,07209.4453' |
032: 3331 362c 572c 3139 3538 3235 2e35 302c  | b'316,W,195825.50,' |
048: 412c 442a 3637 0d0a                      | b'A,D*67\r\n' |
<NMEA(GNRMC, time=19:58:25.750000, status=A, lat=43.8825069983, NS=N, lon=-72.1574229067, EW=W, spd=0.493, cog=297.41, date=2023-09-05, mv=, mvEW=, posMode=R, navStatus=V)>000: 2447 4e52 4d43 2c31 3935 3832 352e 3735  | b'$GNRMC,195825.75' |
016: 2c41 2c34 3335 322e 3935 3034 3139 392c  | b',A,4352.9504199,' |
032: 4e2c 3037 3230 392e 3434 3533 3734 342c  | b'N,07209.4453744,' |
048: 572c 302e 3439 332c 3239 372e 3431 2c30  | b'W,0.493,297.41,0' |
064: 3530 3932 332c 2c2c 522c 562a 3035 0d0a  | b'50923,,,R,V*05\r\n' |
<NMEA(GNVTG, cogt=297.41, cogtUnit=T, cogm=, cogmUnit=M, sogn=0.493, sognUnit=N, sogk=0.913, sogkUnit=K, posMode=D)>000: 2447 4e56 5447 2c32 3937 2e34 312c 542c  | b'$GNVTG,297.41,T,' |
016: 2c4d 2c30 2e34 3933 2c4e 2c30 2e39 3133  | b',M,0.493,N,0.913' |
032: 2c4b 2c44 2a32 410d 0a                   | b',K,D*2A\r\n' |
<NMEA(GNGGA, time=19:58:25.750000, lat=43.8825069983, NS=N, lon=-72.1574229067, EW=W, quality=4, numSV=12, HDOP=0.53, alt=142.815, altUnit=M, sep=-32.546, sepUnit=M, diffAge=, diffStation=0)>000: 2447 4e47 4741 2c31 3935 3832 352e 3735  | b'$GNGGA,195825.75' |
016: 2c34 3335 322e 3935 3034 3139 392c 4e2c  | b',4352.9504199,N,' |
032: 3037 3230 392e 3434 3533 3734 342c 572c  | b'07209.4453744,W,' |
048: 342c 3132 2c30 2e35 332c 3134 322e 3831  | b'4,12,0.53,142.81' |
064: 352c 4d2c 2d33 322e 3534 362c 4d2c 2c30  | b'5,M,-32.546,M,,0' |
080: 3030 302a 3734 0d0a                      | b'000*74\r\n' |
<NMEA(GNGSA, opMode=A, navMode=3, svid_01=2, svid_02=21, svid_03=44, svid_04=24, svid_05=28, svid_06=10, svid_07=25, svid_08=12, svid_09=18, svid_10=23, svid_11=15, svid_12=32, PDOP=0.96, HDOP=0.53, VDOP=0.81, systemId=1)>000: 2447 4e47 5341 2c41 2c33 2c30 322c 3231  | b'$GNGSA,A,3,02,21' |
016: 2c34 342c 3234 2c32 382c 3130 2c32 352c  | b',44,24,28,10,25,' |
032: 3132 2c31 382c 3233 2c31 352c 3332 2c30  | b'12,18,23,15,32,0' |
048: 2e39 362c 302e 3533 2c30 2e38 312c 312a  | b'.96,0.53,0.81,1*' |
064: 3034 0d0a                                | b'04\r\n' |
<NMEA(GNGSA, opMode=A, navMode=3, svid_01=87, svid_02=80, svid_03=71, svid_04=73, svid_05=70, svid_06=79, svid_07=, svid_08=, svid_09=, svid_10=, svid_11=, svid_12=, PDOP=0.96, HDOP=0.53, VDOP=0.81, systemId=2)>000: 2447 4e47 5341 2c41 2c33 2c38 372c 3830  | b'$GNGSA,A,3,87,80' |
016: 2c37 312c 3733 2c37 302c 3739 2c2c 2c2c  | b',71,73,70,79,,,,' |
032: 2c2c 2c30 2e39 362c 302e 3533 2c30 2e38  | b',,,0.96,0.53,0.8' |
048: 312c 322a 3045 0d0a                      | b'1,2*0E\r\n' |
<NMEA(GNGSA, opMode=A, navMode=3, svid_01=37, svid_02=19, svid_03=32, svid_04=20, svid_05=23, svid_06=35, svid_07=, svid_08=, svid_09=, svid_10=, svid_11=, svid_12=, PDOP=0.96, HDOP=0.53, VDOP=0.81, systemId=4)>000: 2447 4e47 5341 2c41 2c33 2c33 372c 3139  | b'$GNGSA,A,3,37,19' |
016: 2c33 322c 3230 2c32 332c 3335 2c2c 2c2c  | b',32,20,23,35,,,,' |
032: 2c2c 2c30 2e39 362c 302e 3533 2c30 2e38  | b',,,0.96,0.53,0.8' |
048: 312c 342a 3043 0d0a                      | b'1,4*0C\r\n' |
<NMEA(GPGSV, numMsg=4, msgNum=1, numSV=13, svid_01=2, elv_01=12.0, az_01=324, cno_01=36, svid_02=10, elv_02=78.0, az_02=306, cno_02=52, svid_03=12, elv_03=24.0, az_03=105, cno_03=41, svid_04=15, elv_04=11.0, az_04=85, cno_04=39, signalID=1)>000: 2447 5047 5356 2c34 2c31 2c31 332c 3032  | b'$GPGSV,4,1,13,02' |
016: 2c31 322c 3332 342c 3336 2c31 302c 3738  | b',12,324,36,10,78' |
032: 2c33 3036 2c35 322c 3132 2c32 342c 3130  | b',306,52,12,24,10' |
048: 352c 3431 2c31 352c 3131 2c30 3835 2c33  | b'5,41,15,11,085,3' |
064: 392c 312a 3639 0d0a                      | b'9,1*69\r\n' |
<NMEA(GPGSV, numMsg=4, msgNum=2, numSV=13, svid_01=18, elv_01=11.0, az_01=186, cno_01=36, svid_02=21, elv_02=17.0, az_02=317, cno_02=42, svid_03=23, elv_03=59.0, az_03=136, cno_03=49, svid_04=24, elv_04=40.0, az_04=54, cno_04=47, signalID=1)>000: 2447 5047 5356 2c34 2c32 2c31 332c 3138  | b'$GPGSV,4,2,13,18' |
016: 2c31 312c 3138 362c 3336 2c32 312c 3137  | b',11,186,36,21,17' |
032: 2c33 3137 2c34 322c 3233 2c35 392c 3133  | b',317,42,23,59,13' |
048: 362c 3439 2c32 342c 3430 2c30 3534 2c34  | b'6,49,24,40,054,4' |
064: 372c 312a 3631 0d0a                      | b'7,1*61\r\n' |
<NMEA(GPGSV, numMsg=4, msgNum=3, numSV=13, svid_01=25, elv_01=15.0, az_01=147, cno_01=31, svid_02=28, elv_02=17.0, az_02=215, cno_02=39, svid_03=32, elv_03=45.0, az_03=279, cno_03=49, svid_04=44, elv_04=23.0, az_04=235, cno_04=42, signalID=1)>000: 2447 5047 5356 2c34 2c33 2c31 332c 3235  | b'$GPGSV,4,3,13,25' |
016: 2c31 352c 3134 372c 3331 2c32 382c 3137  | b',15,147,31,28,17' |
032: 2c32 3135 2c33 392c 3332 2c34 352c 3237  | b',215,39,32,45,27' |
048: 392c 3439 2c34 342c 3233 2c32 3335 2c34  | b'9,49,44,23,235,4' |
064: 322c 312a 3630 0d0a                      | b'2,1*60\r\n' |
<NMEA(GPGSV, numMsg=4, msgNum=4, numSV=13, svid_01=46, elv_01=15.0, az_01=246, cno_01=39, signalID=1)>000: 2447 5047 5356 2c34 2c34 2c31 332c 3436  | b'$GPGSV,4,4,13,46' |
016: 2c31 352c 3234 362c 3339 2c31 2a35 410d  | b',15,246,39,1*5A\r' |
032: 0a                                       | b'\n' |
<NMEA(GPGSV, numMsg=3, msgNum=1, numSV=9, svid_01=10, elv_01=78.0, az_01=306, cno_01=42, svid_02=12, elv_02=24.0, az_02=105, cno_02=36, svid_03=15, elv_03=11.0, az_03=85, cno_03=32, svid_04=18, elv_04=11.0, az_04=186, cno_04=26, signalID=6)>000: 2447 5047 5356 2c33 2c31 2c30 392c 3130  | b'$GPGSV,3,1,09,10' |
016: 2c37 382c 3330 362c 3432 2c31 322c 3234  | b',78,306,42,12,24' |
032: 2c31 3035 2c33 362c 3135 2c31 312c 3038  | b',105,36,15,11,08' |
048: 352c 3332 2c31 382c 3131 2c31 3836 2c32  | b'5,32,18,11,186,2' |
064: 362c 362a 3642 0d0a                      | b'6,6*6B\r\n' |
<NMEA(GPGSV, numMsg=3, msgNum=2, numSV=9, svid_01=23, elv_01=59.0, az_01=136, cno_01=41, svid_02=24, elv_02=40.0, az_02=54, cno_02=41, svid_03=25, elv_03=15.0, az_03=147, cno_03=24, svid_04=28, elv_04=17.0, az_04=215, cno_04=31, signalID=6)>000: 2447 5047 5356 2c33 2c32 2c30 392c 3233  | b'$GPGSV,3,2,09,23' |
016: 2c35 392c 3133 362c 3431 2c32 342c 3430  | b',59,136,41,24,40' |
032: 2c30 3534 2c34 312c 3235 2c31 352c 3134  | b',054,41,25,15,14' |
048: 372c 3234 2c32 382c 3137 2c32 3135 2c33  | b'7,24,28,17,215,3' |
064: 312c 362a 3645 0d0a                      | b'1,6*6E\r\n' |
<NMEA(GPGSV, numMsg=3, msgNum=3, numSV=9, svid_01=32, elv_01=45.0, az_01=279, cno_01=40, signalID=6)>000: 2447 5047 5356 2c33 2c33 2c30 392c 3332  | b'$GPGSV,3,3,09,32' |
016: 2c34 352c 3237 392c 3430 2c36 2a35 320d  | b',45,279,40,6*52\r' |
032: 0a                                       | b'\n' |
<NMEA(GLGSV, numMsg=3, msgNum=1, numSV=11, svid_01=70, elv_01=55.0, az_01=62, cno_01=38, svid_02=71, elv_02=51.0, az_02=322, cno_02=51, svid_03=72, elv_03=9.0, az_03=293, cno_03=38, svid_04=73, elv_04=38.0, az_04=154, cno_04=49, signalID=1)>000: 2447 4c47 5356 2c33 2c31 2c31 312c 3730  | b'$GLGSV,3,1,11,70' |
