<NMEA(GPGSV, numMsg=4, msgNum=4, numSV=13, svid_01=46, elv_01=15.0, az_01=246, cno_01=40, signalID=1)>000: 2447 5047 5356 2c34 2c34 2c31 332c 3436  | b'$GPGSV,4,4,13,46' |
016: 2c31 352c 3234 362c 3430 2c31 2a35 340d  | b',15,246,40,1*54\r' |
032: 0a                                       | b'\n' |
<NMEA(GPGSV, numMsg=3, msgNum=1, numSV=9, svid_01=10, elv_01=69.0, az_01=312, cno_01=42, svid_02=12, elv_02=18.0, az_02=113, cno_02=33, svid_03=15, elv_03=18.0, az_03=80, cno_03=34, svid_04=18, elv_04=20.0, az_04=188, cno_04=32, signalID=6)>000: 2447 5047 5356 2c33 2c31 2c30 392c 3130  | b'$GPGSV,3,1,09,10' |
016: 2c36 392c 3331 322c 3432 2c31 322c 3138  | b',69,312,42,12,18' |
032: 2c31 3133 2c33 332c 3135 2c31 382c 3038  | b',113,33,15,18,08' |
048: 302c 3334 2c31 382c 3230 2c31 3838 2c33  | b'0,34,18,20,188,3' |
064: 322c 362a 3630 0d0a                      | b'2,6*60\r\n' |
<NMEA(GPGSV, numMsg=3, msgNum=2, numSV=9, svid_01=23, elv_01=69.0, az_01=126, cno_01=43, svid_02=24, elv_02=48.0, az_02=59, cno_02=42, svid_03=25, elv_03=8.0, az_03=152, cno_03=29, svid_04=28, elv_04=7.0, az_04=212, cno_04=30, signalID=6)>000: 2447 5047 5356 2c33 2c32 2c30 392c 3233  | b'$GPGSV,3,2,09,23' |
016: 2c36 392c 3132 362c 3433 2c32 342c 3438  | b',69,126,43,24,48' |
032: 2c30 3539 2c34 322c 3235 2c30 382c 3135  | b',059,42,25,08,15' |
048: 322c 3239 2c32 382c 3037 2c32 3132 2c33  | b'2,29,28,07,212,3' |
064: 302c 362a 3641 0d0a                      | b'0,6*6A\r\n' |
<NMEA(GPGSV, numMsg=3, msgNum=3, numSV=9, svid_01=32, elv_01=37.0, az_01=270, cno_01=40, signalID=6)>000: 2447 5047 5356 2c33 2c33 2c30 392c 3332  | b'$GPGSV,3,3,09,32' |
016: 2c33 372c 3237 302c 3430 2c36 2a35 450d  | b',37,270,40,6*5E\r' |
032: 0a                                       | b'\n' |
<NMEA(GLGSV, numMsg=3, msgNum=1, numSV=10, svid_01=69, elv_01=8.0, az_01=89, cno_01=10, svid_02=70, elv_02=60.0, az_02=42, cno_02=39, svid_03=71, elv_03=43.0, az_03=310, cno_03=51, svid_04=73, elv_04=27.0, az_04=158, cno_04=45, signalID=1)>000: 2447 4c47 5356 2c33 2c31 2c31 302c 3639  | b'$GLGSV,3,1,10,69' |
016: 2c30 382c 3038 392c 3130 2c37 302c 3630  | b',08,089,10,70,60' |
032: 2c30 3432 2c33 392c 3731 2c34 332c 3331  | b',042,39,71,43,31' |
048: 302c 3531 2c37 332c 3237 2c31 3538 2c34  | b'0,51,73,27,158,4' |
064: 352c 312a 3741 0d0a                      | b'5,1*7A\r\n' |
<NMEA(GLGSV, numMsg=3, msgNum=2, numSV=10, svid_01=79, elv_01=20.0, az_01=31, cno_01=44, svid_02=80, elv_02=49.0, az_02=89, cno_02=50, svid_03=85, elv_03=16.0, az_03=222, cno_03=40, svid_04=86, elv_04=35.0, az_04=272, cno_04=48, signalID=1)>000: 2447 4c47 5356 2c33 2c32 2c31 302c 3739  | b'$GLGSV,3,2,10,79' |
016: 2c32 302c 3033 312c 3434 2c38 302c 3439  | b',20,031,44,80,49' |
032: 2c30 3839 2c35 302c 3835 2c31 362c 3232  | b',089,50,85,16,22' |
048: 322c 3430 2c38 362c 3335 2c32 3732 2c34  | b'2,40,86,35,272,4' |
064: 382c 312a 3738 0d0a                      | b'8,1*78\r\n' |
<NMEA(GLGSV, numMsg=3, msgNum=3, numSV=10, svid_01=87, elv_01=18.0, az_01=331, cno_01=40, svid_02=, elv_02=, az_02=, cno_02=42, signalID=1)>000: 2447 4c47 5356 2c33 2c33 2c31 302c 3837  | b'$GLGSV,3,3,10,87' |
016: 2c31 382c 3333 312c 3430 2c2c 2c2c 3432  | b',18,331,40,,,,42' |
032: 2c31 2a34 430d 0a                        | b',1*4C\r\n' |
<NMEA(GLGSV, numMsg=2, msgNum=2, numSV=5, svid_01=86, elv_01=35.0, az_01=272, cno_01=37, signalID=3)>000: 2447 4c47 5356 2c32 2c32 2c30 352c 3836  | b'$GLGSV,2,2,05,86' |
016: 2c33 352c 3237 322c 3337 2c33 2a34 340d  | b',35,272,37,3*44\r' |
032: 0a                                       | b'\n' |
<NMEA(GLGSV, numMsg=1, msgNum=1, numSV=1, svid_01=72, elv_01=3.0, az_01=286, cno_01=, signalID=0)>000: 2447 4c47 5356 2c31 2c31 2c30 312c 3732  | b'$GLGSV,1,1,01,72' |
016: 2c30 332c 3238 362c 2c30 2a34 320d 0a    | b',03,286,,0*42\r\n' |
<NMEA(GAGSV, numMsg=2, msgNum=1, numSV=8, svid_01=4, elv_01=20.0, az_01=73, cno_01=34, svid_02=5, elv_02=47.0, az_02=275, cno_02=41, svid_03=9, elv_03=68.0, az_03=42, cno_03=42, svid_04=15, elv_04=8.0, az_04=331, cno_04=27, signalID=2)>000: 2447 4147 5356 2c32 2c31 2c30 382c 3034  | b'$GAGSV,2,1,08,04' |
016: 2c32 302c 3037 332c 3334 2c30 352c 3437  | b',20,073,34,05,47' |
032: 2c32 3735 2c34 312c 3039 2c36 382c 3034  | b',275,41,09,68,04' |
048: 322c 3432 2c31 352c 3038 2c33 3331 2c32  | b'2,42,15,08,331,2' |
064: 372c 322a 3734 0d0a                      | b'7,2*74\r\n' |
<NMEA(GAGSV, numMsg=2, msgNum=2, numSV=8, svid_01=24, elv_01=9.0, az_01=151, cno_01=29, svid_02=31, elv_02=25.0, az_02=105, cno_02=37, svid_03=34, elv_03=42.0, az_03=290, cno_03=39, svid_04=36, elv_04=40.0, az_04=216, cno_04=38, signalID=2)>000: 2447 4147 5356 2c32 2c32 2c30 382c 3234  | b'$GAGSV,2,2,08,24' |
016: 2c30 392c 3135 312c 3239 2c33 312c 3235  | b',09,151,29,31,25' |
032: 2c31 3035 2c33 372c 3334 2c34 322c 3239  | b',105,37,34,42,29' |
048: 302c 3339 2c33 362c 3430 2c32 3136 2c33  | b'0,39,36,40,216,3' |
064: 382c 322a 3735 0d0a                      | b'8,2*75\r\n' |
<NMEA(GAGSV, numMsg=2, msgNum=1, numSV=8, svid_01=4, elv_01=20.0, az_01=73, cno_01=37, svid_02=5, elv_02=47.0, az_02=275, cno_02=47, svid_03=9, elv_03=68.0, az_03=42, cno_03=48, svid_04=11, elv_04=7.0, az_04=178, cno_04=28, signalID=7)>000: 2447 4147 5356 2c32 2c31 2c30 382c 3034  | b'$GAGSV,2,1,08,04' |
016: 2c32 302c 3037 332c 3337 2c30 352c 3437  | b',20,073,37,05,47' |
032: 2c32 3735 2c34 372c 3039 2c36 382c 3034  | b',275,47,09,68,04' |
048: 322c 3438 2c31 312c 3037 2c31 3738 2c32  | b'2,48,11,07,178,2' |
064: 382c 372a 3735 0d0a                      | b'8,7*75\r\n' |
<NMEA(GAGSV, numMsg=2, msgNum=2, numSV=8, svid_01=24, elv_01=9.0, az_01=151, cno_01=34, svid_02=31, elv_02=25.0, az_02=105, cno_02=42, svid_03=34, elv_03=42.0, az_03=290, cno_03=46, svid_04=36, elv_04=40.0, az_04=216, cno_04=45, signalID=7)>000: 2447 4147 5356 2c32 2c32 2c30 382c 3234  | b'$GAGSV,2,2,08,24' |
016: 2c30 392c 3135 312c 3334 2c33 312c 3235  | b',09,151,34,31,25' |
032: 2c31 3035 2c34 322c 3334 2c34 322c 3239  | b',105,42,34,42,29' |
048: 302c 3436 2c33 362c 3430 2c32 3136 2c34  | b'0,46,36,40,216,4' |
064: 352c 372a 3743 0d0a                      | b'5,7*7C\r\n' |
<NMEA(GAGSV, numMsg=1, msgNum=1, numSV=1, svid_01=3, elv_01=0.0, az_01=262, cno_01=, signalID=0)>000: 2447 4147 5356 2c31 2c31 2c30 312c 3033  | b'$GAGSV,1,1,01,03' |
016: 2c30 302c 3236 322c 2c30 2a34 300d 0a    | b',00,262,,0*40\r\n' |
<NMEA(GBGSV, numMsg=2, msgNum=1, numSV=7, svid_01=19, elv_01=15.0, az_01=292, cno_01=41, svid_02=20, elv_02=62.0, az_02=312, cno_02=52, svid_03=23, elv_03=40.0, az_03=66, cno_03=46, svid_04=29, elv_04=18.0, az_04=260, cno_04=41, signalID=1)>000: 2447 4247 5356 2c32 2c31 2c30 372c 3139  | b'$GBGSV,2,1,07,19' |
016: 2c31 352c 3239 322c 3431 2c32 302c 3632  | b',15,292,41,20,62' |
032: 2c33 3132 2c35 322c 3233 2c34 302c 3036  | b',312,52,23,40,06' |
048: 362c 3436 2c32 392c 3138 2c32 3630 2c34  | b'6,46,29,18,260,4' |
064: 312c 312a 3737 0d0a                      | b'1,1*77\r\n' |
<NMEA(GBGSV, numMsg=2, msgNum=2, numSV=7, svid_01=32, elv_01=53.0, az_01=89, cno_01=50, svid_02=35, elv_02=11.0, az_02=315, cno_02=41, svid_03=37, elv_03=46.0, az_03=144, cno_03=49, signalID=1)>000: 2447 4247 5356 2c32 2c32 2c30 372c 3332  | b'$GBGSV,2,2,07,32' |
016: 2c35 332c 3038 392c 3530 2c33 352c 3131  | b',53,089,50,35,11' |
032: 2c33 3135 2c34 312c 3337 2c34 362c 3134  | b',315,41,37,46,14' |
048: 342c 3439 2c31 2a34 430d 0a              | b'4,49,1*4C\r\n' |
<NMEA(GBGSV, numMsg=2, msgNum=1, numSV=5, svid_01=20, elv_01=62.0, az_01=312, cno_01=13, svid_02=23, elv_02=40.0, az_02=66, cno_02=8, svid_03=30, elv_03=2.0, az_03=212, cno_03=11, svid_04=32, elv_04=53.0, az_04=89, cno_04=10, signalID=3)>000: 2447 4247 5356 2c32 2c31 2c30 352c 3230  | b'$GBGSV,2,1,05,20' |
016: 2c36 322c 3331 322c 3133 2c32 332c 3430  | b',62,312,13,23,40' |
032: 2c30 3636 2c30 382c 3330 2c30 322c 3231  | b',066,08,30,02,21' |
048: 322c 3131 2c33 322c 3533 2c30 3839 2c31  | b'2,11,32,53,089,1' |
064: 302c 332a 3743 0d0a                      | b'0,3*7C\r\n' |
<NMEA(GBGSV, numMsg=2, msgNum=2, numSV=5, svid_01=35, elv_01=11.0, az_01=315, cno_01=15, signalID=3)>000: 2447 4247 5356 2c32 2c32 2c30 352c 3335  | b'$GBGSV,2,2,05,35' |
016: 2c31 312c 3331 352c 3135 2c33 2a34 340d  | b',11,315,15,3*44\r' |
032: 0a                                       | b'\n' |
<NMEA(GBGSV, numMsg=1, msgNum=1, numSV=1, svid_01=25, elv_01=4.0, az_01=33, cno_01=, signalID=0)>000: 2447 4247 5356 2c31 2c31 2c30 312c 3235  | b'$GBGSV,1,1,01,25' |
016: 2c30 342c 3033 332c 2c30 2a34 350d 0a    | b',04,033,,0*45\r\n' |
<NMEA(GNGLL, lat=43.882636415, NS=N, lon=-72.1578049583, EW=W, time=19:37:28, status=A, posMode=D)>000: 2447 4e47 4c4c 2c34 3335 322e 3935 3831  | b'$GNGLL,4352.9581' |
016: 3834 392c 4e2c 3037 3230 392e 3436 3832  | b'849,N,07209.4682' |
032: 3937 352c 572c 3139 3337 3238 2e30 302c  | b'975,W,193728.00,' |
048: 412c 442a 3639 0d0a                      | b'A,D*69\r\n' |
<NMEA(GNTXT, numMsg=1, msgNum=1, msgType=0, text=txbuf alloc)>000: 2447 4e54 5854 2c30 312c 3031 2c30 302c  | b'$GNTXT,01,01,00,' |
016: 7478 6275 6620 616c 6c6f 632a 3631 0d0a  | b'txbuf alloc*61\r\n' |
<NMEA(GNVTG, cogt=138.11, cogtUnit=T, cogm=, cogmUnit=M, sogn=0.592, sognUnit=N, sogk=1.097, sogkUnit=K, posMode=D)>000: 2447 4e56 5447 2c31 3338 2e31 312c 542c  | b'$GNVTG,138.11,T,' |
016: 2c4d 2c30 2e35 3932 2c4e 2c31 2e30 3937  | b',M,0.592,N,1.097' |
032: 2c4b 2c44 2a32 440d 0a                   | b',K,D*2D\r\n' |
<NMEA(GNGGA, time=19:37:28.250000, lat=43.882635895, NS=N, lon=-72.15780432, EW=W, quality=4, numSV=12, HDOP=0.53, alt=142.437, altUnit=M, sep=-32.547, sepUnit=M, diffAge=, diffStation=0)>000: 2447 4e47 4741 2c31 3933 3732 382e 3235  | b'$GNGGA,193728.25' |
016: 2c34 3335 322e 3935 3831 3533 372c 4e2c  | b',4352.9581537,N,' |
032: 3037 3230 392e 3436 3832 3539 322c 572c  | b'07209.4682592,W,' |
048: 342c 3132 2c30 2e35 332c 3134 322e 3433  | b'4,12,0.53,142.43' |
064: 372c 4d2c 2d33 322e 3534 372c 4d2c 2c30  | b'7,M,-32.547,M,,0' |
080: 3030 302a 3732 0d0a                      | b'000*72\r\n' |
<NMEA(GNGSA, opMode=A, navMode=3, svid_01=46, svid_02=21, svid_03=44, svid_04=24, svid_05=18, svid_06=10, svid_07=12, svid_08=23, svid_09=15, svid_10=32, svid_11=, svid_12=, PDOP=0.96, HDOP=0.53, VDOP=0.81, systemId=1)>000: 2447 4e47 5341 2c41 2c33 2c34 362c 3231  | b'$GNGSA,A,3,46,21' |
016: 2c34 342c 3234 2c31 382c 3130 2c31 322c  | b',44,24,18,10,12,' |
032: 3233 2c31 352c 3332 2c2c 2c30 2e39 362c  | b'23,15,32,,,0.96,' |
048: 302e 3533 2c30 2e38 312c 312a 3039 0d0a  | b'0.53,0.81,1*09\r\n' |
<NMEA(GNGSA, opMode=A, navMode=3, svid_01=87, svid_02=85, svid_03=80, svid_04=71, svid_05=73, svid_06=70, svid_07=79, svid_08=, svid_09=, svid_10=, svid_11=, svid_12=, PDOP=0.96, HDOP=0.53, VDOP=0.81, systemId=2)>000: 2447 4e47 5341 2c41 2c33 2c38 372c 3835  | b'$GNGSA,A,3,87,85' |
016: 2c38 302c 3731 2c37 332c 3730 2c37 392c  | b',80,71,73,70,79,' |
032: 2c2c 2c2c 2c30 2e39 362c 302e 3533 2c30  | b',,,,,0.96,0.53,0' |
048: 2e38 312c 322a 3033 0d0a                 | b'.81,2*03\r\n' |
<NMEA(GNGSA, opMode=A, navMode=3, svid_01=36, svid_02=5, svid_03=31, svid_04=34, svid_05=4, svid_06=9, svid_07=, svid_08=, svid_09=, svid_10=, svid_11=, svid_12=, PDOP=0.96, HDOP=0.53, VDOP=0.81, systemId=3)>000: 2447 4e47 5341 2c41 2c33 2c33 362c 3035  | b'$GNGSA,A,3,36,05' |
016: 2c33 312c 3334 2c30 342c 3039 2c2c 2c2c  | b',31,34,04,09,,,,' |
032: 2c2c 2c30 2e39 362c 302e 3533 2c30 2e38  | b',,,0.96,0.53,0.8' |
048: 312c 332a 3042 0d0a                      | b'1,3*0B\r\n' |
<NMEA(GNGSA, opMode=A, navMode=3, svid_01=37, svid_02=19, svid_03=32, svid_04=29, svid_05=20, svid_06=23, svid_07=35, svid_08=, svid_09=, svid_10=, svid_11=, svid_12=, PDOP=0.96, HDOP=0.53, VDOP=0.81, systemId=4)>000: 2447 4e47 5341 2c41 2c33 2c33 372c 3139  | b'$GNGSA,A,3,37,19' |
016: 2c33 322c 3239 2c32 302c 3233 2c33 352c  | b',32,29,20,23,35,' |
032: 2c2c 2c2c 2c30 2e39 362c 302e 3533 2c30  | b',,,,,0.96,0.53,0' |
048: 2e38 312c 342a 3037 0d0a                 | b'.81,4*07\r\n' |
<NMEA(GPGSV, numMsg=4, msgNum=2, numSV=13, svid_01=18, elv_01=20.0, az_01=188, cno_01=43, svid_02=21, elv_02=13.0, az_02=323, cno_02=33, svid_03=23, elv_03=69.0, az_03=126, cno_03=47, svid_04=24, elv_04=48.0, az_04=59, cno_04=46, signalID=1)>000: 2447 5047 5356 2c34 2c32 2c31 332c 3138  | b'$GPGSV,4,2,13,18' |
016: 2c32 302c 3138 382c 3433 2c32 312c 3133  | b',20,188,43,21,13' |
032: 2c33 3233 2c33 332c 3233 2c36 392c 3132  | b',323,33,23,69,12' |
048: 362c 3437 2c32 342c 3438 2c30 3539 2c34  | b'6,47,24,48,059,4' |
064: 362c 312a 3632 0d0a                      | b'6,1*62\r\n' |
<NMEA(GPGSV, numMsg=4, msgNum=3, numSV=13, svid_01=25, elv_01=8.0, az_01=152, cno_01=36, svid_02=28, elv_02=7.0, az_02=212, cno_02=35, svid_03=32, elv_03=37.0, az_03=270, cno_03=47, svid_04=44, elv_04=23.0, az_04=235, cno_04=41, signalID=1)>000: 2447 5047 5356 2c34 2c33 2c31 332c 3235  | b'$GPGSV,4,3,13,25' |
016: 2c30 382c 3135 322c 3336 2c32 382c 3037  | b',08,152,36,28,07' |
032: 2c32 3132 2c33 352c 3332 2c33 372c 3237  | b',212,35,32,37,27' |
048: 302c 3437 2c34 342c 3233 2c32 3335 2c34  | b'0,47,44,23,235,4' |
064: 312c 312a 3634 0d0a                      | b'1,1*64\r\n' |
<NMEA(GPGSV, numMsg=4, msgNum=4, numSV=13, svid_01=46, elv_01=15.0, az_01=246, cno_01=38, signalID=1)>000: 2447 5047 5356 2c34 2c34 2c31 332c 3436  | b'$GPGSV,4,4,13,46' |
016: 2c31 352c 3234 362c 3338 2c31 2a35 420d  | b',15,246,38,1*5B\r' |
032: 0a                                       | b'\n' |
<NMEA(GPGSV, numMsg=3, msgNum=1, numSV=9, svid_01=10, elv_01=69.0, az_01=312, cno_01=42, svid_02=12, elv_02=18.0, az_02=113, cno_02=33, svid_03=15, elv_03=18.0, az_03=80, cno_03=35, svid_04=18, elv_04=20.0, az_04=188, cno_04=33, signalID=6)>000: 2447 5047 5356 2c33 2c31 2c30 392c 3130  | b'$GPGSV,3,1,09,10' |
016: 2c36 392c 3331 322c 3432 2c31 322c 3138  | b',69,312,42,12,18' |
032: 2c31 3133 2c33 332c 3135 2c31 382c 3038  | b',113,33,15,18,08' |
048: 302c 3335 2c31 382c 3230 2c31 3838 2c33  | b'0,35,18,20,188,3' |
064: 332c 362a 3630 0d0a                      | b'3,6*60\r\n' |
<NMEA(GPGSV, numMsg=3, msgNum=2, numSV=9, svid_01=23, elv_01=69.0, az_01=126, cno_01=43, svid_02=24, elv_02=48.0, az_02=59, cno_02=42, svid_03=25, elv_03=8.0, az_03=152, cno_03=28, svid_04=28, elv_04=7.0, az_04=212, cno_04=30, signalID=6)>000: 2447 5047 5356 2c33 2c32 2c30 392c 3233  | b'$GPGSV,3,2,09,23' |
016: 2c36 392c 3132 362c 3433 2c32 342c 3438  | b',69,126,43,24,48' |
032: 2c30 3539 2c34 322c 3235 2c30 382c 3135  | b',059,42,25,08,15' |
048: 322c 3238 2c32 382c 3037 2c32 3132 2c33  | b'2,28,28,07,212,3' |
064: 302c 362a 3642 0d0a                      | b'0,6*6B\r\n' |
<NMEA(GPGSV, numMsg=3, msgNum=3, numSV=9, svid_01=32, elv_01=37.0, az_01=270, cno_01=38, signalID=6)>000: 2447 5047 5356 2c33 2c33 2c30 392c 3332  | b'$GPGSV,3,3,09,32' |
016: 2c33 372c 3237 302c 3338 2c36 2a35 310d  | b',37,270,38,6*51\r' |
032: 0a                                       | b'\n' |
<NMEA(GLGSV, numMsg=3, msgNum=1, numSV=10, svid_01=69, elv_01=8.0, az_01=89, cno_01=10, svid_02=70, elv_02=60.0, az_02=42, cno_02=40, svid_03=71, elv_03=43.0, az_03=310, cno_03=50, svid_04=73, elv_04=27.0, az_04=158, cno_04=45, signalID=1)>000: 2447 4c47 5356 2c33 2c31 2c31 302c 3639  | b'$GLGSV,3,1,10,69' |
016: 2c30 382c 3038 392c 3130 2c37 302c 3630  | b',08,089,10,70,60' |
032: 2c30 3432 2c34 302c 3731 2c34 332c 3331  | b',042,40,71,43,31' |
048: 302c 3530 2c37 332c 3237 2c31 3538 2c34  | b'0,50,73,27,158,4' |
064: 352c 312a 3735 0d0a                      | b'5,1*75\r\n' |
<NMEA(GLGSV, numMsg=3, msgNum=2, numSV=10, svid_01=79, elv_01=20.0, az_01=31, cno_01=42, svid_02=80, elv_02=49.0, az_02=89, cno_02=49, svid_03=85, elv_03=16.0, az_03=222, cno_03=42, svid_04=86, elv_04=35.0, az_04=272, cno_04=48, signalID=1)>000: 2447 4c47 5356 2c33 2c32 2c31 302c 3739  | b'$GLGSV,3,2,10,79' |
016: 2c32 302c 3033 312c 3432 2c38 302c 3439  | b',20,031,42,80,49' |
032: 2c30 3839 2c34 392c 3835 2c31 362c 3232  | b',089,49,85,16,22' |
048: 322c 3432 2c38 362c 3335 2c32 3732 2c34  | b'2,42,86,35,272,4' |
064: 382c 312a 3734 0d0a                      | b'8,1*74\r\n' |
<NMEA(GLGSV, numMsg=3, msgNum=3, numSV=10, svid_01=87, elv_01=18.0, az_01=331, cno_01=41, svid_02=, elv_02=, az_02=, cno_02=41, signalID=1)>000: 2447 4c47 5356 2c33 2c33 2c31 302c 3837  | b'$GLGSV,3,3,10,87' |
016: 2c31 382c 3333 312c 3431 2c2c 2c2c 3431  | b',18,331,41,,,,41' |
032: 2c31 2a34 450d 0a                        | b',1*4E\r\n' |
<NMEA(GLGSV, numMsg=2, msgNum=1, numSV=5, svid_01=71, elv_01=43.0, az_01=310, cno_01=38, svid_02=73, elv_02=27.0, az_02=158, cno_02=36, svid_03=79, elv_03=20.0, az_03=31, cno_03=37, svid_04=80, elv_04=49.0, az_04=89, cno_04=40, signalID=3)>000: 2447 4c47 5356 2c32 2c31 2c30 352c 3731  | b'$GLGSV,2,1,05,71' |
016: 2c34 332c 3331 302c 3338 2c37 332c 3237  | b',43,310,38,73,27' |
032: 2c31 3538 2c33 362c 3739 2c32 302c 3033  | b',158,36,79,20,03' |
048: 312c 3337 2c38 302c 3439 2c30 3839 2c34  | b'1,37,80,49,089,4' |
064: 302c 332a 3736 0d0a                      | b'0,3*76\r\n' |
<NMEA(GLGSV, numMsg=2, msgNum=2, numSV=5, svid_01=86, elv_01=35.0, az_01=272, cno_01=39, signalID=3)>000: 2447 4c47 5356 2c32 2c32 2c30 352c 3836  | b'$GLGSV,2,2,05,86' |
016: 2c33 352c 3237 322c 3339 2c33 2a34 410d  | b',35,272,39,3*4A\r' |
032: 0a                                       | b'\n' |
<NMEA(GLGSV, numMsg=1, msgNum=1, numSV=1, svid_01=72, elv_01=3.0, az_01=286, cno_01=, signalID=0)>000: 2447 4c47 5356 2c31 2c31 2c30 312c 3732  | b'$GLGSV,1,1,01,72' |
016: 2c30 332c 3238 362c 2c30 2a34 320d 0a    | b',03,286,,0*42\r\n' |
<NMEA(GAGSV, numMsg=2, msgNum=1, numSV=8, svid_01=4, elv_01=20.0, az_01=73, cno_01=30, svid_02=5, elv_02=47.0, az_02=275, cno_02=41, svid_03=9, elv_03=68.0, az_03=42, cno_03=42, svid_04=15, elv_04=8.0, az_04=331, cno_04=27, signalID=2)>000: 2447 4147 5356 2c32 2c31 2c30 382c 3034  | b'$GAGSV,2,1,08,04' |
016: 2c32 302c 3037 332c 3330 2c30 352c 3437  | b',20,073,30,05,47' |
032: 2c32 3735 2c34 312c 3039 2c36 382c 3034  | b',275,41,09,68,04' |
048: 322c 3432 2c31 352c 3038 2c33 3331 2c32  | b'2,42,15,08,331,2' |
064: 372c 322a 3730 0d0a                      | b'7,2*70\r\n' |
<NMEA(GAGSV, numMsg=2, msgNum=2, numSV=8, svid_01=24, elv_01=9.0, az_01=151, cno_01=29, svid_02=31, elv_02=25.0, az_02=105, cno_02=37, svid_03=34, elv_03=42.0, az_03=290, cno_03=39, svid_04=36, elv_04=40.0, az_04=216, cno_04=38, signalID=2)>000: 2447 4147 5356 2c32 2c32 2c30 382c 3234  | b'$GAGSV,2,2,08,24' |
016: 2c30 392c 3135 312c 3239 2c33 312c 3235  | b',09,151,29,31,25' |
032: 2c31 3035 2c33 372c 3334 2c34 322c 3239  | b',105,37,34,42,29' |
048: 302c 3339 2c33 362c 3430 2c32 3136 2c33  | b'0,39,36,40,216,3' |
064: 382c 322a 3735 0d0a                      | b'8,2*75\r\n' |
<NMEA(GAGSV, numMsg=2, msgNum=1, numSV=8, svid_01=4, elv_01=20.0, az_01=73, cno_01=34, svid_02=5, elv_02=47.0, az_02=275, cno_02=46, svid_03=9, elv_03=68.0, az_03=42, cno_03=48, svid_04=11, elv_04=7.0, az_04=178, cno_04=32, signalID=7)>000: 2447 4147 5356 2c32 2c31 2c30 382c 3034  | b'$GAGSV,2,1,08,04' |
016: 2c32 302c 3037 332c 3334 2c30 352c 3437  | b',20,073,34,05,47' |
032: 2c32 3735 2c34 362c 3039 2c36 382c 3034  | b',275,46,09,68,04' |
048: 322c 3438 2c31 312c 3037 2c31 3738 2c33  | b'2,48,11,07,178,3' |
064: 322c 372a 3743 0d0a                      | b'2,7*7C\r\n' |
<NMEA(GAGSV, numMsg=2, msgNum=2, numSV=8, svid_01=24, elv_01=9.0, az_01=151, cno_01=36, svid_02=31, elv_02=25.0, az_02=105, cno_02=41, svid_03=34, elv_03=42.0, az_03=290, cno_03=45, svid_04=36, elv_04=40.0, az_04=216, cno_04=44, signalID=7)>000: 2447 4147 5356 2c32 2c32 2c30 382c 3234  | b'$GAGSV,2,2,08,24' |
016: 2c30 392c 3135 312c 3336 2c33 312c 3235  | b',09,151,36,31,25' |
032: 2c31 3035 2c34 312c 3334 2c34 322c 3239  | b',105,41,34,42,29' |
048: 302c 3435 2c33 362c 3430 2c32 3136 2c34  | b'0,45,36,40,216,4' |
064: 342c 372a 3746 0d0a                      | b'4,7*7F\r\n' |
<NMEA(GAGSV, numMsg=1, msgNum=1, numSV=1, svid_01=3, elv_01=0.0, az_01=262, cno_01=, signalID=0)>000: 2447 4147 5356 2c31 2c31 2c30 312c 3033  | b'$GAGSV,1,1,01,03' |
016: 2c30 302c 3236 322c 2c30 2a34 300d 0a    | b',00,262,,0*40\r\n' |
<NMEA(GBGSV, numMsg=2, msgNum=1, numSV=7, svid_01=19, elv_01=15.0, az_01=292, cno_01=41, svid_02=20, elv_02=62.0, az_02=312, cno_02=50, svid_03=23, elv_03=40.0, az_03=66, cno_03=44, svid_04=29, elv_04=18.0, az_04=260, cno_04=41, signalID=1)>000: 2447 4247 5356 2c32 2c31 2c30 372c 3139  | b'$GBGSV,2,1,07,19' |
016: 2c31 352c 3239 322c 3431 2c32 302c 3632  | b',15,292,41,20,62' |
032: 2c33 3132 2c35 302c 3233 2c34 302c 3036  | b',312,50,23,40,06' |
048: 362c 3434 2c32 392c 3138 2c32 3630 2c34  | b'6,44,29,18,260,4' |
064: 312c 312a 3737 0d0a                      | b'1,1*77\r\n' |
<NMEA(GBGSV, numMsg=2, msgNum=2, numSV=7, svid_01=32, elv_01=53.0, az_01=89, cno_01=48, svid_02=35, elv_02=11.0, az_02=315, cno_02=38, svid_03=37, elv_03=46.0, az_03=144, cno_03=47, signalID=1)>000: 2447 4247 5356 2c32 2c32 2c30 372c 3332  | b'$GBGSV,2,2,07,32' |
016: 2c35 332c 3038 392c 3438 2c33 352c 3131  | b',53,089,48,35,11' |
032: 2c33 3135 2c33 382c 3337 2c34 362c 3134  | b',315,38,37,46,14' |
048: 342c 3437 2c31 2a34 350d 0a              | b'4,47,1*45\r\n' |
<NMEA(GBGSV, numMsg=2, msgNum=1, numSV=5, svid_01=20, elv_01=62.0, az_01=312, cno_01=13, svid_02=23, elv_02=40.0, az_02=66, cno_02=8, svid_03=30, elv_03=2.0, az_03=212, cno_03=10, svid_04=32, elv_04=53.0, az_04=89, cno_04=9, signalID=3)>000: 2447 4247 5356 2c32 2c31 2c30 352c 3230  | b'$GBGSV,2,1,05,20' |
016: 2c36 322c 3331 322c 3133 2c32 332c 3430  | b',62,312,13,23,40' |
032: 2c30 3636 2c30 382c 3330 2c30 322c 3231  | b',066,08,30,02,21' |
048: 322c 3130 2c33 322c 3533 2c30 3839 2c30  | b'2,10,32,53,089,0' |
064: 392c 332a 3735 0d0a                      | b'9,3*75\r\n' |
<NMEA(GBGSV, numMsg=2, msgNum=2, numSV=5, svid_01=35, elv_01=11.0, az_01=315, cno_01=14, signalID=3)>000: 2447 4247 5356 2c32 2c32 2c30 352c 3335  | b'$GBGSV,2,2,05,35' |
016: 2c31 312c 3331 352c 3134 2c33 2a34 350d  | b',11,315,14,3*45\r' |
032: 0a                                       | b'\n' |
<NMEA(GBGSV, numMsg=1, msgNum=1, numSV=1, svid_01=25, elv_01=4.0, az_01=33, cno_01=, signalID=0)>000: 2447 4247 5356 2c31 2c31 2c30 312c 3235  | b'$GBGSV,1,1,01,25' |
016: 2c30 342c 3033 332c 2c30 2a34 350d 0a    | b',04,033,,0*45\r\n' |
<NMEA(GNGLL, lat=43.882635895, NS=N, lon=-72.15780432, EW=W, time=19:37:28.250000, status=A, posMode=D)>000: 2447 4e47 4c4c 2c34 3335 322e 3935 3831  | b'$GNGLL,4352.9581' |
016: 3533 372c 4e2c 3037 3230 392e 3436 3832  | b'537,N,07209.4682' |
032: 3539 322c 572c 3139 3337 3238 2e32 352c  | b'592,W,193728.25,' |
048: 412c 442a 3646 0d0a                      | b'A,D*6F\r\n' |
<NMEA(GNRMC, time=19:37:28.500000, status=A, lat=43.882635615, NS=N, lon=-72.15780397, EW=W, spd=0.331, cog=138.23, date=2023-09-05, mv=, mvEW=, posMode=R, navStatus=V)>000: 2447 4e52 4d43 2c31 3933 3732 382e 3530  | b'$GNRMC,193728.50' |
016: 2c41 2c34 3335 322e 3935 3831 3336 392c  | b',A,4352.9581369,' |
032: 4e2c 3037 3230 392e 3436 3832 3338 322c  | b'N,07209.4682382,' |
048: 572c 302e 3333 312c 3133 382e 3233 2c30  | b'W,0.331,138.23,0' |
064: 3530 3932 332c 2c2c 522c 562a 3042 0d0a  | b'50923,,,R,V*0B\r\n' |
<NMEA(GNVTG, cogt=138.23, cogtUnit=T, cogm=, cogmUnit=M, sogn=0.331, sognUnit=N, sogk=0.613, sogkUnit=K, posMode=D)>000: 2447 4e56 5447 2c31 3338 2e32 332c 542c  | b'$GNVTG,138.23,T,' |
016: 2c4d 2c30 2e33 3331 2c4e 2c30 2e36 3133  | b',M,0.331,N,0.613' |
032: 2c4b 2c44 2a32 380d 0a                   | b',K,D*28\r\n' |
<NMEA(GNGGA, time=19:37:28.500000, lat=43.882635615, NS=N, lon=-72.15780397, EW=W, quality=4, numSV=12, HDOP=0.53, alt=142.428, altUnit=M, sep=-32.547, sepUnit=M, diffAge=, diffStation=0)>000: 2447 4e47 4741 2c31 3933 3732 382e 3530  | b'$GNGGA,193728.50' |
016: 2c34 3335 322e 3935 3831 3336 392c 4e2c  | b',4352.9581369,N,' |
032: 3037 3230 392e 3436 3832 3338 322c 572c  | b'07209.4682382,W,' |
048: 342c 3132 2c30 2e35 332c 3134 322e 3432  | b'4,12,0.53,142.42' |
064: 382c 4d2c 2d33 322e 3534 372c 4d2c 2c30  | b'8,M,-32.547,M,,0' |
080: 3030 302a 3734 0d0a                      | b'000*74\r\n' |
<NMEA(GNGSA, opMode=A, navMode=3, svid_01=87, svid_02=85, svid_03=80, svid_04=71, svid_05=73, svid_06=70, svid_07=79, svid_08=, svid_09=, svid_10=, svid_11=, svid_12=, PDOP=0.96, HDOP=0.53, VDOP=0.81, systemId=2)>000: 2447 4e47 5341 2c41 2c33 2c38 372c 3835  | b'$GNGSA,A,3,87,85' |
016: 2c38 302c 3731 2c37 332c 3730 2c37 392c  | b',80,71,73,70,79,' |
032: 2c2c 2c2c 2c30 2e39 362c 302e 3533 2c30  | b',,,,,0.96,0.53,0' |
048: 2e38 312c 322a 3033 0d0a                 | b'.81,2*03\r\n' |
<NMEA(GNGSA, opMode=A, navMode=3, svid_01=36, svid_02=5, svid_03=31, svid_04=34, svid_05=4, svid_06=9, svid_07=, svid_08=, svid_09=, svid_10=, svid_11=, svid_12=, PDOP=0.96, HDOP=0.53, VDOP=0.81, systemId=3)>000: 2447 4e47 5341 2c41 2c33 2c33 362c 3035  | b'$GNGSA,A,3,36,05' |
016: 2c33 312c 3334 2c30 342c 3039 2c2c 2c2c  | b',31,34,04,09,,,,' |
032: 2c2c 2c30 2e39 362c 302e 3533 2c30 2e38  | b',,,0.96,0.53,0.8' |
048: 312c 332a 3042 0d0a                      | b'1,3*0B\r\n' |
<NMEA(GNGSA, opMode=A, navMode=3, svid_01=37, svid_02=19, svid_03=32, svid_04=29, svid_05=20, svid_06=23, svid_07=35, svid_08=, svid_09=, svid_10=, svid_11=, svid_12=, PDOP=0.96, HDOP=0.53, VDOP=0.81, systemId=4)>000: 2447 4e47 5341 2c41 2c33 2c33 372c 3139  | b'$GNGSA,A,3,37,19' |
016: 2c33 322c 3239 2c32 302c 3233 2c33 352c  | b',32,29,20,23,35,' |
032: 2c2c 2c2c 2c30 2e39 362c 302e 3533 2c30  | b',,,,,0.96,0.53,0' |
048: 2e38 312c 342a 3037 0d0a                 | b'.81,4*07\r\n' |
<NMEA(GPGSV, numMsg=4, msgNum=1, numSV=13, svid_01=2, elv_01=7.0, az_01=329, cno_01=36, svid_02=10, elv_02=69.0, az_02=312, cno_02=51, svid_03=12, elv_03=18.0, az_03=113, cno_03=38, svid_04=15, elv_04=18.0, az_04=80, cno_04=40, signalID=1)>000: 2447 5047 5356 2c34 2c31 2c31 332c 3032  | b'$GPGSV,4,1,13,02' |
016: 2c30 372c 3332 392c 3336 2c31 302c 3639  | b',07,329,36,10,69' |
032: 2c33 3132 2c35 312c 3132 2c31 382c 3131  | b',312,51,12,18,11' |
048: 332c 3338 2c31 352c 3138 2c30 3830 2c34  | b'3,38,15,18,080,4' |
064: 302c 312a 3632 0d0a                      | b'0,1*62\r\n' |
<NMEA(GPGSV, numMsg=4, msgNum=2, numSV=13, svid_01=18, elv_01=20.0, az_01=188, cno_01=41, svid_02=21, elv_02=13.0, az_02=323, cno_02=38, svid_03=23, elv_03=69.0, az_03=126, cno_03=47, svid_04=24, elv_04=48.0, az_04=59, cno_04=47, signalID=1)>000: 2447 5047 5356 2c34 2c32 2c31 332c 3138  | b'$GPGSV,4,2,13,18' |
016: 2c32 302c 3138 382c 3431 2c32 312c 3133  | b',20,188,41,21,13' |
032: 2c33 3233 2c33 382c 3233 2c36 392c 3132  | b',323,38,23,69,12' |
048: 362c 3437 2c32 342c 3438 2c30 3539 2c34  | b'6,47,24,48,059,4' |
064: 372c 312a 3641 0d0a                      | b'7,1*6A\r\n' |
<NMEA(GPGSV, numMsg=4, msgNum=4, numSV=13, svid_01=46, elv_01=15.0, az_01=246, cno_01=38, signalID=1)>000: 2447 5047 5356 2c34 2c34 2c31 332c 3436  | b'$GPGSV,4,4,13,46' |
016: 2c31 352c 3234 362c 3338 2c31 2a35 420d  | b',15,246,38,1*5B\r' |
032: 0a                                       | b'\n' |
<NMEA(GPGSV, numMsg=3, msgNum=1, numSV=9, svid_01=10, elv_01=69.0, az_01=312, cno_01=42, svid_02=12, elv_02=18.0, az_02=113, cno_02=32, svid_03=15, elv_03=18.0, az_03=80, cno_03=35, svid_04=18, elv_04=20.0, az_04=188, cno_04=33, signalID=6)>000: 2447 5047 5356 2c33 2c31 2c30 392c 3130  | b'$GPGSV,3,1,09,10' |
016: 2c36 392c 3331 322c 3432 2c31 322c 3138  | b',69,312,42,12,18' |
032: 2c31 3133 2c33 322c 3135 2c31 382c 3038  | b',113,32,15,18,08' |
048: 302c 3335 2c31 382c 3230 2c31 3838 2c33  | b'0,35,18,20,188,3' |
064: 332c 362a 3631 0d0a                      | b'3,6*61\r\n' |
<NMEA(GPGSV, numMsg=3, msgNum=2, numSV=9, svid_01=23, elv_01=69.0, az_01=126, cno_01=43, svid_02=24, elv_02=48.0, az_02=59, cno_02=42, svid_03=25, elv_03=8.0, az_03=152, cno_03=28, svid_04=28, elv_04=7.0, az_04=212, cno_04=30, signalID=6)>000: 2447 5047 5356 2c33 2c32 2c30 392c 3233  | b'$GPGSV,3,2,09,23' |
016: 2c36 392c 3132 362c 3433 2c32 342c 3438  | b',69,126,43,24,48' |
032: 2c30 3539 2c34 322c 3235 2c30 382c 3135  | b',059,42,25,08,15' |
048: 322c 3238 2c32 382c 3037 2c32 3132 2c33  | b'2,28,28,07,212,3' |
064: 302c 362a 3642 0d0a                      | b'0,6*6B\r\n' |
<NMEA(GPGSV, numMsg=3, msgNum=3, numSV=9, svid_01=32, elv_01=37.0, az_01=270, cno_01=39, signalID=6)>000: 2447 5047 5356 2c33 2c33 2c30 392c 3332  | b'$GPGSV,3,3,09,32' |
016: 2c33 372c 3237 302c 3339 2c36 2a35 300d  | b',37,270,39,6*50\r' |
032: 0a                                       | b'\n' |
<NMEA(GLGSV, numMsg=3, msgNum=1, numSV=10, svid_01=69, elv_01=8.0, az_01=89, cno_01=9, svid_02=70, elv_02=60.0, az_02=42, cno_02=40, svid_03=71, elv_03=43.0, az_03=310, cno_03=51, svid_04=73, elv_04=27.0, az_04=158, cno_04=46, signalID=1)>000: 2447 4c47 5356 2c33 2c31 2c31 302c 3639  | b'$GLGSV,3,1,10,69' |
016: 2c30 382c 3038 392c 3039 2c37 302c 3630  | b',08,089,09,70,60' |
032: 2c30 3432 2c34 302c 3731 2c34 332c 3331  | b',042,40,71,43,31' |
048: 302c 3531 2c37 332c 3237 2c31 3538 2c34  | b'0,51,73,27,158,4' |
064: 362c 312a 3746 0d0a                      | b'6,1*7F\r\n' |
<NMEA(GLGSV, numMsg=3, msgNum=3, numSV=10, svid_01=87, elv_01=18.0, az_01=331, cno_01=40, svid_02=, elv_02=, az_02=, cno_02=41, signalID=1)>000: 2447 4c47 5356 2c33 2c33 2c31 302c 3837  | b'$GLGSV,3,3,10,87' |
016: 2c31 382c 3333 312c 3430 2c2c 2c2c 3431  | b',18,331,40,,,,41' |
032: 2c31 2a34 460d 0a                        | b',1*4F\r\n' |
<NMEA(GLGSV, numMsg=1, msgNum=1, numSV=4, svid_01=71, elv_01=43.0, az_01=310, cno_01=38, svid_02=79, elv_02=20.0, az_02=31, cno_02=37, svid_03=80, elv_03=49.0, az_03=89, cno_03=38, svid_04=86, elv_04=35.0, az_04=272, cno_04=39, signalID=3)>000: 2447 4c47 5356 2c31 2c31 2c30 342c 3731  | b'$GLGSV,1,1,04,71' |
016: 2c34 332c 3331 302c 3338 2c37 392c 3230  | b',43,310,38,79,20' |
032: 2c30 3331 2c33 372c 3830 2c34 392c 3038  | b',031,37,80,49,08' |
048: 392c 3338 2c38 362c 3335 2c32 3732 2c33  | b'9,38,86,35,272,3' |
064: 392c 332a 3736 0d0a                      | b'9,3*76\r\n' |
<NMEA(GLGSV, numMsg=1, msgNum=1, numSV=1, svid_01=72, elv_01=3.0, az_01=286, cno_01=, signalID=0)>000: 2447 4c47 5356 2c31 2c31 2c30 312c 3732  | b'$GLGSV,1,1,01,72' |
016: 2c30 332c 3238 362c 2c30 2a34 320d 0a    | b',03,286,,0*42\r\n' |
<NMEA(GAGSV, numMsg=2, msgNum=1, numSV=8, svid_01=4, elv_01=20.0, az_01=73, cno_01=34, svid_02=5, elv_02=47.0, az_02=275, cno_02=41, svid_03=9, elv_03=68.0, az_03=42, cno_03=42, svid_04=15, elv_04=8.0, az_04=331, cno_04=28, signalID=2)>000: 2447 4147 5356 2c32 2c31 2c30 382c 3034  | b'$GAGSV,2,1,08,04' |
016: 2c32 302c 3037 332c 3334 2c30 352c 3437  | b',20,073,34,05,47' |
032: 2c32 3735 2c34 312c 3039 2c36 382c 3034  | b',275,41,09,68,04' |
048: 322c 3432 2c31 352c 3038 2c33 3331 2c32  | b'2,42,15,08,331,2' |
064: 382c 322a 3742 0d0a                      | b'8,2*7B\r\n' |
<NMEA(GAGSV, numMsg=2, msgNum=2, numSV=8, svid_01=24, elv_01=9.0, az_01=151, cno_01=30, svid_02=31, elv_02=25.0, az_02=105, cno_02=36, svid_03=34, elv_03=42.0, az_03=290, cno_03=39, svid_04=36, elv_04=40.0, az_04=216, cno_04=39, signalID=2)>000: 2447 4147 5356 2c32 2c32 2c30 382c 3234  | b'$GAGSV,2,2,08,24' |
016: 2c30 392c 3135 312c 3330 2c33 312c 3235  | b',09,151,30,31,25' |
032: 2c31 3035 2c33 362c 3334 2c34 322c 3239  | b',105,36,34,42,29' |
048: 302c 3339 2c33 362c 3430 2c32 3136 2c33  | b'0,39,36,40,216,3' |
064: 392c 322a 3744 0d0a                      | b'9,2*7D\r\n' |
<NMEA(GAGSV, numMsg=2, msgNum=1, numSV=8, svid_01=4, elv_01=20.0, az_01=73, cno_01=37, svid_02=5, elv_02=47.0, az_02=275, cno_02=47, svid_03=9, elv_03=68.0, az_03=42, cno_03=48, svid_04=11, elv_04=7.0, az_04=178, cno_04=27, signalID=7)>000: 2447 4147 5356 2c32 2c31 2c30 382c 3034  | b'$GAGSV,2,1,08,04' |
016: 2c32 302c 3037 332c 3337 2c30 352c 3437  | b',20,073,37,05,47' |
032: 2c32 3735 2c34 372c 3039 2c36 382c 3034  | b',275,47,09,68,04' |
048: 322c 3438 2c31 312c 3037 2c31 3738 2c32  | b'2,48,11,07,178,2' |
064: 372c 372a 3741 0d0a                      | b'7,7*7A\r\n' |
<NMEA(GAGSV, numMsg=2, msgNum=2, numSV=8, svid_01=24, elv_01=9.0, az_01=151, cno_01=36, svid_02=31, elv_02=25.0, az_02=105, cno_02=40, svid_03=34, elv_03=42.0, az_03=290, cno_03=45, svid_04=36, elv_04=40.0, az_04=216, cno_04=45, signalID=7)>000: 2447 4147 5356 2c32 2c32 2c30 382c 3234  | b'$GAGSV,2,2,08,24' |
016: 2c30 392c 3135 312c 3336 2c33 312c 3235  | b',09,151,36,31,25' |
032: 2c31 3035 2c34 302c 3334 2c34 322c 3239  | b',105,40,34,42,29' |
048: 302c 3435 2c33 362c 3430 2c32 3136 2c34  | b'0,45,36,40,216,4' |
064: 352c 372a 3746 0d0a                      | b'5,7*7F\r\n' |
<NMEA(GAGSV, numMsg=1, msgNum=1, numSV=1, svid_01=3, elv_01=0.0, az_01=262, cno_01=, signalID=0)>000: 2447 4147 5356 2c31 2c31 2c30 312c 3033  | b'$GAGSV,1,1,01,03' |
016: 2c30 302c 3236 322c 2c30 2a34 300d 0a    | b',00,262,,0*40\r\n' |
<NMEA(GBGSV, numMsg=2, msgNum=1, numSV=7, svid_01=19, elv_01=15.0, az_01=292, cno_01=39, svid_02=20, elv_02=62.0, az_02=312, cno_02=51, svid_03=23, elv_03=40.0, az_03=66, cno_03=45, svid_04=29, elv_04=18.0, az_04=260, cno_04=39, signalID=1)>000: 2447 4247 5356 2c32 2c31 2c30 372c 3139  | b'$GBGSV,2,1,07,19' |
016: 2c31 352c 3239 322c 3339 2c32 302c 3632  | b',15,292,39,20,62' |
032: 2c33 3132 2c35 312c 3233 2c34 302c 3036  | b',312,51,23,40,06' |
048: 362c 3435 2c32 392c 3138 2c32 3630 2c33  | b'6,45,29,18,260,3' |
064: 392c 312a 3737 0d0a                      | b'9,1*77\r\n' |
<NMEA(GBGSV, numMsg=2, msgNum=2, numSV=7, svid_01=32, elv_01=53.0, az_01=89, cno_01=49, svid_02=35, elv_02=11.0, az_02=315, cno_02=40, svid_03=37, elv_03=46.0, az_03=144, cno_03=47, signalID=1)>000: 2447 4247 5356 2c32 2c32 2c30 372c 3332  | b'$GBGSV,2,2,07,32' |
016: 2c35 332c 3038 392c 3439 2c33 352c 3131  | b',53,089,49,35,11' |
032: 2c33 3135 2c34 302c 3337 2c34 362c 3134  | b',315,40,37,46,14' |
048: 342c 3437 2c31 2a34 420d 0a              | b'4,47,1*4B\r\n' |
<NMEA(GBGSV, numMsg=2, msgNum=1, numSV=5, svid_01=20, elv_01=62.0, az_01=312, cno_01=11, svid_02=23, elv_02=40.0, az_02=66, cno_02=8, svid_03=30, elv_03=2.0, az_03=212, cno_03=10, svid_04=32, elv_04=53.0, az_04=89, cno_04=8, signalID=3)>000: 2447 4247 5356 2c32 2c31 2c30 352c 3230  | b'$GBGSV,2,1,05,20' |
016: 2c36 322c 3331 322c 3131 2c32 332c 3430  | b',62,312,11,23,40' |
032: 2c30 3636 2c30 382c 3330 2c30 322c 3231  | b',066,08,30,02,21' |
048: 322c 3130 2c33 322c 3533 2c30 3839 2c30  | b'2,10,32,53,089,0' |
064: 382c 332a 3736 0d0a                      | b'8,3*76\r\n' |
<NMEA(GBGSV, numMsg=2, msgNum=2, numSV=5, svid_01=35, elv_01=11.0, az_01=315, cno_01=13, signalID=3)>000: 2447 4247 5356 2c32 2c32 2c30 352c 3335  | b'$GBGSV,2,2,05,35' |
016: 2c31 312c 3331 352c 3133 2c33 2a34 320d  | b',11,315,13,3*42\r' |
032: 0a                                       | b'\n' |
<NMEA(GBGSV, numMsg=1, msgNum=1, numSV=1, svid_01=25, elv_01=4.0, az_01=33, cno_01=, signalID=0)>000: 2447 4247 5356 2c31 2c31 2c30 312c 3235  | b'$GBGSV,1,1,01,25' |
016: 2c30 342c 3033 332c 2c30 2a34 350d 0a    | b',04,033,,0*45\r\n' |
<NMEA(GNGLL, lat=43.882635615, NS=N, lon=-72.15780397, EW=W, time=19:37:28.500000, status=A, posMode=D)>000: 2447 4e47 4c4c 2c34 3335 322e 3935 3831  | b'$GNGLL,4352.9581' |
016: 3336 392c 4e2c 3037 3230 392e 3436 3832  | b'369,N,07209.4682' |
032: 3338 322c 572c 3139 3337 3238 2e35 302c  | b'382,W,193728.50,' |
048: 412c 442a 3637 0d0a                      | b'A,D*67\r\n' |
<NMEA(GNRMC, time=19:37:28.750000, status=A, lat=43.8826356633, NS=N, lon=-72.157803205, EW=W, spd=0.447, cog=85.0, date=2023-09-05, mv=, mvEW=, posMode=R, navStatus=V)>000: 2447 4e52 4d43 2c31 3933 3732 382e 3735  | b'$GNRMC,193728.75' |
016: 2c41 2c34 3335 322e 3935 3831 3339 382c  | b',A,4352.9581398,' |
032: 4e2c 3037 3230 392e 3436 3831 3932 332c  | b'N,07209.4681923,' |
048: 572c 302e 3434 372c 3835 2e30 302c 3035  | b'W,0.447,85.00,05' |
064: 3039 3233 2c2c 2c52 2c56 2a33 300d 0a    | b'0923,,,R,V*30\r\n' |
<NMEA(GNVTG, cogt=85.0, cogtUnit=T, cogm=, cogmUnit=M, sogn=0.447, sognUnit=N, sogk=0.829, sogkUnit=K, posMode=D)>000: 2447 4e56 5447 2c38 352e 3030 2c54 2c2c  | b'$GNVTG,85.00,T,,' |
016: 4d2c 302e 3434 372c 4e2c 302e 3832 392c  | b'M,0.447,N,0.829,' |
032: 4b2c 442a 3146 0d0a                      | b'K,D*1F\r\n' |
<NMEA(GNGGA, time=19:37:28.750000, lat=43.8826356633, NS=N, lon=-72.157803205, EW=W, quality=4, numSV=12, HDOP=0.53, alt=142.44, altUnit=M, sep=-32.547, sepUnit=M, diffAge=, diffStation=0)>000: 2447 4e47 4741 2c31 3933 3732 382e 3735  | b'$GNGGA,193728.75' |
016: 2c34 3335 322e 3935 3831 3339 382c 4e2c  | b',4352.9581398,N,' |
032: 3037 3230 392e 3436 3831 3932 332c 572c  | b'07209.4681923,W,' |
048: 342c 3132 2c30 2e35 332c 3134 322e 3434  | b'4,12,0.53,142.44' |
064: 302c 4d2c 2d33 322e 3534 372c 4d2c 2c30  | b'0,M,-32.547,M,,0' |
080: 3030 302a 3731 0d0a                      | b'000*71\r\n' |
<NMEA(GNGSA, opMode=A, navMode=3, svid_01=46, svid_02=21, svid_03=44, svid_04=24, svid_05=18, svid_06=10, svid_07=12, svid_08=23, svid_09=15, svid_10=32, svid_11=, svid_12=, PDOP=0.96, HDOP=0.53, VDOP=0.81, systemId=1)>000: 2447 4e47 5341 2c41 2c33 2c34 362c 3231  | b'$GNGSA,A,3,46,21' |
016: 2c34 342c 3234 2c31 382c 3130 2c31 322c  | b',44,24,18,10,12,' |
032: 3233 2c31 352c 3332 2c2c 2c30 2e39 362c  | b'23,15,32,,,0.96,' |
048: 302e 3533 2c30 2e38 312c 312a 3039 0d0a  | b'0.53,0.81,1*09\r\n' |
<NMEA(GNGSA, opMode=A, navMode=3, svid_01=87, svid_02=85, svid_03=80, svid_04=71, svid_05=73, svid_06=70, svid_07=79, svid_08=, svid_09=, svid_10=, svid_11=, svid_12=, PDOP=0.96, HDOP=0.53, VDOP=0.81, systemId=2)>000: 2447 4e47 5341 2c41 2c33 2c38 372c 3835  | b'$GNGSA,A,3,87,85' |
016: 2c38 302c 3731 2c37 332c 3730 2c37 392c  | b',80,71,73,70,79,' |
032: 2c2c 2c2c 2c30 2e39 362c 302e 3533 2c30  | b',,,,,0.96,0.53,0' |
048: 2e38 312c 322a 3033 0d0a                 | b'.81,2*03\r\n' |
<NMEA(GNGSA, opMode=A, navMode=3, svid_01=37, svid_02=19, svid_03=32, svid_04=29, svid_05=20, svid_06=23, svid_07=35, svid_08=, svid_09=, svid_10=, svid_11=, svid_12=, PDOP=0.96, HDOP=0.53, VDOP=0.81, systemId=4)>000: 2447 4e47 5341 2c41 2c33 2c33 372c 3139  | b'$GNGSA,A,3,37,19' |
016: 2c33 322c 3239 2c32 302c 3233 2c33 352c  | b',32,29,20,23,35,' |
032: 2c2c 2c2c 2c30 2e39 362c 302e 3533 2c30  | b',,,,,0.96,0.53,0' |
048: 2e38 312c 342a 3037 0d0a                 | b'.81,4*07\r\n' |
<NMEA(GPGSV, numMsg=4, msgNum=1, numSV=13, svid_01=2, elv_01=7.0, az_01=329, cno_01=33, svid_02=10, elv_02=69.0, az_02=312, cno_02=52, svid_03=12, elv_03=18.0, az_03=113, cno_03=40, svid_04=15, elv_04=18.0, az_04=80, cno_04=38, signalID=1)>000: 2447 5047 5356 2c34 2c31 2c31 332c 3032  | b'$GPGSV,4,1,13,02' |
016: 2c30 372c 3332 392c 3333 2c31 302c 3639  | b',07,329,33,10,69' |
032: 2c33 3132 2c35 322c 3132 2c31 382c 3131  | b',312,52,12,18,11' |
048: 332c 3430 2c31 352c 3138 2c30 3830 2c33  | b'3,40,15,18,080,3' |
064: 382c 312a 3634 0d0a                      | b'8,1*64\r\n' |
<NMEA(GPGSV, numMsg=4, msgNum=2, numSV=13, svid_01=18, elv_01=20.0, az_01=188, cno_01=41, svid_02=21, elv_02=13.0, az_02=323, cno_02=38, svid_03=23, elv_03=69.0, az_03=126, cno_03=48, svid_04=24, elv_04=48.0, az_04=59, cno_04=47, signalID=1)>000: 2447 5047 5356 2c34 2c32 2c31 332c 3138  | b'$GPGSV,4,2,13,18' |
016: 2c32 302c 3138 382c 3431 2c32 312c 3133  | b',20,188,41,21,13' |
032: 2c33 3233 2c33 382c 3233 2c36 392c 3132  | b',323,38,23,69,12' |
048: 362c 3438 2c32 342c 3438 2c30 3539 2c34  | b'6,48,24,48,059,4' |
064: 372c 312a 3635 0d0a                      | b'7,1*65\r\n' |
<NMEA(GPGSV, numMsg=4, msgNum=3, numSV=13, svid_01=25, elv_01=8.0, az_01=152, cno_01=28, svid_02=28, elv_02=7.0, az_02=212, cno_02=38, svid_03=32, elv_03=37.0, az_03=270, cno_03=49, svid_04=44, elv_04=23.0, az_04=235, cno_04=42, signalID=1)>000: 2447 5047 5356 2c34 2c33 2c31 332c 3235  | b'$GPGSV,4,3,13,25' |
016: 2c30 382c 3135 322c 3238 2c32 382c 3037  | b',08,152,28,28,07' |
032: 2c32 3132 2c33 382c 3332 2c33 372c 3237  | b',212,38,32,37,27' |
048: 302c 3439 2c34 342c 3233 2c32 3335 2c34  | b'0,49,44,23,235,4' |
064: 322c 312a 3642 0d0a                      | b'2,1*6B\r\n' |
<NMEA(GPGSV, numMsg=4, msgNum=4, numSV=13, svid_01=46, elv_01=15.0, az_01=246, cno_01=41, signalID=1)>000: 2447 5047 5356 2c34 2c34 2c31 332c 3436  | b'$GPGSV,4,4,13,46' |
016: 2c31 352c 3234 362c 3431 2c31 2a35 350d  | b',15,246,41,1*55\r' |
032: 0a                                       | b'\n' |
<NMEA(GPGSV, numMsg=3, msgNum=1, numSV=9, svid_01=10, elv_01=69.0, az_01=312, cno_01=42, svid_02=12, elv_02=18.0, az_02=113, cno_02=32, svid_03=15, elv_03=18.0, az_03=80, cno_03=35, svid_04=18, elv_04=20.0, az_04=188, cno_04=33, signalID=6)>000: 2447 5047 5356 2c33 2c31 2c30 392c 3130  | b'$GPGSV,3,1,09,10' |
016: 2c36 392c 3331 322c 3432 2c31 322c 3138  | b',69,312,42,12,18' |
032: 2c31 3133 2c33 322c 3135 2c31 382c 3038  | b',113,32,15,18,08' |
048: 302c 3335 2c31 382c 3230 2c31 3838 2c33  | b'0,35,18,20,188,3' |
064: 332c 362a 3631 0d0a                      | b'3,6*61\r\n' |
<NMEA(GPGSV, numMsg=3, msgNum=2, numSV=9, svid_01=23, elv_01=69.0, az_01=126, cno_01=43, svid_02=24, elv_02=48.0, az_02=59, cno_02=42, svid_03=25, elv_03=8.0, az_03=152, cno_03=28, svid_04=28, elv_04=7.0, az_04=212, cno_04=31, signalID=6)>000: 2447 5047 5356 2c33 2c32 2c30 392c 3233  | b'$GPGSV,3,2,09,23' |
016: 2c36 392c 3132 362c 3433 2c32 342c 3438  | b',69,126,43,24,48' |
032: 2c30 3539 2c34 322c 3235 2c30 382c 3135  | b',059,42,25,08,15' |
048: 322c 3238 2c32 382c 3037 2c32 3132 2c33  | b'2,28,28,07,212,3' |
064: 312c 362a 3641 0d0a                      | b'1,6*6A\r\n' |
<NMEA(GPGSV, numMsg=3, msgNum=3, numSV=9, svid_01=32, elv_01=37.0, az_01=270, cno_01=40, signalID=6)>000: 2447 5047 5356 2c33 2c33 2c30 392c 3332  | b'$GPGSV,3,3,09,32' |
016: 2c33 372c 3237 302c 3430 2c36 2a35 450d  | b',37,270,40,6*5E\r' |
032: 0a                                       | b'\n' |
<NMEA(GLGSV, numMsg=3, msgNum=1, numSV=10, svid_01=69, elv_01=8.0, az_01=89, cno_01=8, svid_02=70, elv_02=60.0, az_02=42, cno_02=40, svid_03=71, elv_03=43.0, az_03=310, cno_03=51, svid_04=73, elv_04=27.0, az_04=158, cno_04=43, signalID=1)>000: 2447 4c47 5356 2c33 2c31 2c31 302c 3639  | b'$GLGSV,3,1,10,69' |
016: 2c30 382c 3038 392c 3038 2c37 302c 3630  | b',08,089,08,70,60' |
032: 2c30 3432 2c34 302c 3731 2c34 332c 3331  | b',042,40,71,43,31' |
048: 302c 3531 2c37 332c 3237 2c31 3538 2c34  | b'0,51,73,27,158,4' |
064: 332c 312a 3742 0d0a                      | b'3,1*7B\r\n' |
<NMEA(GLGSV, numMsg=3, msgNum=2, numSV=10, svid_01=79, elv_01=20.0, az_01=31, cno_01=45, svid_02=80, elv_02=49.0, az_02=89, cno_02=49, svid_03=85, elv_03=16.0, az_03=222, cno_03=41, svid_04=86, elv_04=35.0, az_04=272, cno_04=49, signalID=1)>000: 2447 4c47 5356 2c33 2c32 2c31 302c 3739  | b'$GLGSV,3,2,10,79' |
016: 2c32 302c 3033 312c 3435 2c38 302c 3439  | b',20,031,45,80,49' |
032: 2c30 3839 2c34 392c 3835 2c31 362c 3232  | b',089,49,85,16,22' |
048: 322c 3431 2c38 362c 3335 2c32 3732 2c34  | b'2,41,86,35,272,4' |
064: 392c 312a 3731 0d0a                      | b'9,1*71\r\n' |
<NMEA(GLGSV, numMsg=3, msgNum=3, numSV=10, svid_01=87, elv_01=18.0, az_01=331, cno_01=36, svid_02=, elv_02=, az_02=, cno_02=41, signalID=1)>000: 2447 4c47 5356 2c33 2c33 2c31 302c 3837  | b'$GLGSV,3,3,10,87' |
016: 2c31 382c 3333 312c 3336 2c2c 2c2c 3431  | b',18,331,36,,,,41' |
032: 2c31 2a34 450d 0a                        | b',1*4E\r\n' |
<NMEA(GLGSV, numMsg=1, msgNum=1, numSV=4, svid_01=71, elv_01=43.0, az_01=310, cno_01=38, svid_02=79, elv_02=20.0, az_02=31, cno_02=37, svid_03=80, elv_03=49.0, az_03=89, cno_03=39, svid_04=86, elv_04=35.0, az_04=272, cno_04=39, signalID=3)>000: 2447 4c47 5356 2c31 2c31 2c30 342c 3731  | b'$GLGSV,1,1,04,71' |
016: 2c34 332c 3331 302c 3338 2c37 392c 3230  | b',43,310,38,79,20' |
032: 2c30 3331 2c33 372c 3830 2c34 392c 3038  | b',031,37,80,49,08' |
048: 392c 3339 2c38 362c 3335 2c32 3732 2c33  | b'9,39,86,35,272,3' |
064: 392c 332a 3737 0d0a                      | b'9,3*77\r\n' |
<NMEA(GLGSV, numMsg=1, msgNum=1, numSV=1, svid_01=72, elv_01=3.0, az_01=286, cno_01=, signalID=0)>000: 2447 4c47 5356 2c31 2c31 2c30 312c 3732  | b'$GLGSV,1,1,01,72' |
016: 2c30 332c 3238 362c 2c30 2a34 320d 0a    | b',03,286,,0*42\r\n' |
<NMEA(GAGSV, numMsg=2, msgNum=1, numSV=8, svid_01=4, elv_01=20.0, az_01=73, cno_01=36, svid_02=5, elv_02=47.0, az_02=275, cno_02=41, svid_03=9, elv_03=68.0, az_03=42, cno_03=42, svid_04=15, elv_04=8.0, az_04=331, cno_04=28, signalID=2)>000: 2447 4147 5356 2c32 2c31 2c30 382c 3034  | b'$GAGSV,2,1,08,04' |
016: 2c32 302c 3037 332c 3336 2c30 352c 3437  | b',20,073,36,05,47' |
032: 2c32 3735 2c34 312c 3039 2c36 382c 3034  | b',275,41,09,68,04' |
048: 322c 3432 2c31 352c 3038 2c33 3331 2c32  | b'2,42,15,08,331,2' |
064: 382c 322a 3739 0d0a                      | b'8,2*79\r\n' |
<NMEA(GAGSV, numMsg=2, msgNum=2, numSV=8, svid_01=24, elv_01=9.0, az_01=151, cno_01=29, svid_02=31, elv_02=25.0, az_02=105, cno_02=35, svid_03=34, elv_03=42.0, az_03=290, cno_03=40, svid_04=36, elv_04=40.0, az_04=216, cno_04=40, signalID=2)>000: 2447 4147 5356 2c32 2c32 2c30 382c 3234  | b'$GAGSV,2,2,08,24' |
016: 2c30 392c 3135 312c 3239 2c33 312c 3235  | b',09,151,29,31,25' |
032: 2c31 3035 2c33 352c 3334 2c34 322c 3239  | b',105,35,34,42,29' |
048: 302c 3430 2c33 362c 3430 2c32 3136 2c34  | b'0,40,36,40,216,4' |
064: 302c 322a 3736 0d0a                      | b'0,2*76\r\n' |
<NMEA(GAGSV, numMsg=2, msgNum=1, numSV=8, svid_01=4, elv_01=20.0, az_01=73, cno_01=39, svid_02=5, elv_02=47.0, az_02=275, cno_02=48, svid_03=9, elv_03=68.0, az_03=42, cno_03=48, svid_04=11, elv_04=7.0, az_04=178, cno_04=27, signalID=7)>000: 2447 4147 5356 2c32 2c31 2c30 382c 3034  | b'$GAGSV,2,1,08,04' |
016: 2c32 302c 3037 332c 3339 2c30 352c 3437  | b',20,073,39,05,47' |
032: 2c32 3735 2c34 382c 3039 2c36 382c 3034  | b',275,48,09,68,04' |
048: 322c 3438 2c31 312c 3037 2c31 3738 2c32  | b'2,48,11,07,178,2' |
064: 372c 372a 3742 0d0a                      | b'7,7*7B\r\n' |
<NMEA(GAGSV, numMsg=2, msgNum=2, numSV=8, svid_01=24, elv_01=9.0, az_01=151, cno_01=33, svid_02=31, elv_02=25.0, az_02=105, cno_02=39, svid_03=34, elv_03=42.0, az_03=290, cno_03=45, svid_04=36, elv_04=40.0, az_04=216, cno_04=46, signalID=7)>000: 2447 4147 5356 2c32 2c32 2c30 382c 3234  | b'$GAGSV,2,2,08,24' |
016: 2c30 392c 3135 312c 3333 2c33 312c 3235  | b',09,151,33,31,25' |
032: 2c31 3035 2c33 392c 3334 2c34 322c 3239  | b',105,39,34,42,29' |
048: 302c 3435 2c33 362c 3430 2c32 3136 2c34  | b'0,45,36,40,216,4' |
064: 362c 372a 3737 0d0a                      | b'6,7*77\r\n' |
<NMEA(GAGSV, numMsg=1, msgNum=1, numSV=1, svid_01=3, elv_01=0.0, az_01=262, cno_01=, signalID=0)>000: 2447 4147 5356 2c31 2c31 2c30 312c 3033  | b'$GAGSV,1,1,01,03' |
016: 2c30 302c 3236 322c 2c30 2a34 300d 0a    | b',00,262,,0*40\r\n' |
<NMEA(GBGSV, numMsg=2, msgNum=1, numSV=7, svid_01=19, elv_01=15.0, az_01=292, cno_01=42, svid_02=20, elv_02=62.0, az_02=312, cno_02=51, svid_03=23, elv_03=40.0, az_03=66, cno_03=45, svid_04=29, elv_04=18.0, az_04=260, cno_04=35, signalID=1)>000: 2447 4247 5356 2c32 2c31 2c30 372c 3139  | b'$GBGSV,2,1,07,19' |
016: 2c31 352c 3239 322c 3432 2c32 302c 3632  | b',15,292,42,20,62' |
032: 2c33 3132 2c35 312c 3233 2c34 302c 3036  | b',312,51,23,40,06' |
048: 362c 3435 2c32 392c 3138 2c32 3630 2c33  | b'6,45,29,18,260,3' |
064: 352c 312a 3737 0d0a                      | b'5,1*77\r\n' |
<NMEA(GBGSV, numMsg=2, msgNum=2, numSV=7, svid_01=32, elv_01=53.0, az_01=89, cno_01=49, svid_02=35, elv_02=11.0, az_02=315, cno_02=38, svid_03=37, elv_03=46.0, az_03=144, cno_03=47, signalID=1)>000: 2447 4247 5356 2c32 2c32 2c30 372c 3332  | b'$GBGSV,2,2,07,32' |
016: 2c35 332c 3038 392c 3439 2c33 352c 3131  | b',53,089,49,35,11' |
032: 2c33 3135 2c33 382c 3337 2c34 362c 3134  | b',315,38,37,46,14' |
048: 342c 3437 2c31 2a34 340d 0a              | b'4,47,1*44\r\n' |
<NMEA(GBGSV, numMsg=2, msgNum=1, numSV=6, svid_01=20, elv_01=62.0, az_01=312, cno_01=10, svid_02=23, elv_02=40.0, az_02=66, cno_02=8, svid_03=30, elv_03=2.0, az_03=212, cno_03=9, svid_04=32, elv_04=53.0, az_04=89, cno_04=8, signalID=3)>000: 2447 4247 5356 2c32 2c31 2c30 362c 3230  | b'$GBGSV,2,1,06,20' |
016: 2c36 322c 3331 322c 3130 2c32 332c 3430  | b',62,312,10,23,40' |
032: 2c30 3636 2c30 382c 3330 2c30 322c 3231  | b',066,08,30,02,21' |
048: 322c 3039 2c33 322c 3533 2c30 3839 2c30  | b'2,09,32,53,089,0' |
064: 382c 332a 3743 0d0a                      | b'8,3*7C\r\n' |
<NMEA(GBGSV, numMsg=2, msgNum=2, numSV=6, svid_01=35, elv_01=11.0, az_01=315, cno_01=12, svid_02=37, elv_02=46.0, az_02=144, cno_02=13, signalID=3)>000: 2447 4247 5356 2c32 2c32 2c30 362c 3335  | b'$GBGSV,2,2,06,35' |
016: 2c31 312c 3331 352c 3132 2c33 372c 3436  | b',11,315,12,37,46' |
032: 2c31 3434 2c31 332c 332a 3735 0d0a       | b',144,13,3*75\r\n' |
<NMEA(GBGSV, numMsg=1, msgNum=1, numSV=1, svid_01=25, elv_01=4.0, az_01=33, cno_01=, signalID=0)>000: 2447 4247 5356 2c31 2c31 2c30 312c 3235  | b'$GBGSV,1,1,01,25' |
016: 2c30 342c 3033 332c 2c30 2a34 350d 0a    | b',04,033,,0*45\r\n' |
<NMEA(GNGLL, lat=43.8826356633, NS=N, lon=-72.157803205, EW=W, time=19:37:28.750000, status=A, posMode=D)>000: 2447 4e47 4c4c 2c34 3335 322e 3935 3831  | b'$GNGLL,4352.9581' |
016: 3339 382c 4e2c 3037 3230 392e 3436 3831  | b'398,N,07209.4681' |
032: 3932 332c 572c 3139 3337 3238 2e37 352c  | b'923,W,193728.75,' |
048: 412c 442a 3643 0d0a                      | b'A,D*6C\r\n' |
<NMEA(GNRMC, time=19:37:29, status=A, lat=43.8826354017, NS=N, lon=-72.1578025033, EW=W, spd=0.477, cog=118.69, date=2023-09-05, mv=, mvEW=, posMode=R, navStatus=V)>000: 2447 4e52 4d43 2c31 3933 3732 392e 3030  | b'$GNRMC,193729.00' |
016: 2c41 2c34 3335 322e 3935 3831 3234 312c  | b',A,4352.9581241,' |
032: 4e2c 3037 3230 392e 3436 3831 3530 322c  | b'N,07209.4681502,' |
048: 572c 302e 3437 372c 3131 382e 3639 2c30  | b'W,0.477,118.69,0' |
064: 3530 3932 332c 2c2c 522c 562a 3030 0d0a  | b'50923,,,R,V*00\r\n' |
<NMEA(GNVTG, cogt=118.69, cogtUnit=T, cogm=, cogmUnit=M, sogn=0.477, sognUnit=N, sogk=0.884, sogkUnit=K, posMode=D)>000: 2447 4e56 5447 2c31 3138 2e36 392c 542c  | b'$GNVTG,118.69,T,' |
016: 2c4d 2c30 2e34 3737 2c4e 2c30 2e38 3834  | b',M,0.477,N,0.884' |
032: 2c4b 2c44 2a32 310d 0a                   | b',K,D*21\r\n' |
<NMEA(GNGGA, time=19:37:29, lat=43.8826354017, NS=N, lon=-72.1578025033, EW=W, quality=4, numSV=12, HDOP=0.53, alt=142.437, altUnit=M, sep=-32.547, sepUnit=M, diffAge=, diffStation=0)>000: 2447 4e47 4741 2c31 3933 3732 392e 3030  | b'$GNGGA,193729.00' |
016: 2c34 3335 322e 3935 3831 3234 312c 4e2c  | b',4352.9581241,N,' |
032: 3037 3230 392e 3436 3831 3530 322c 572c  | b'07209.4681502,W,' |
048: 342c 3132 2c30 2e35 332c 3134 322e 3433  | b'4,12,0.53,142.43' |
064: 372c 4d2c 2d33 322e 3534 372c 4d2c 2c30  | b'7,M,-32.547,M,,0' |
080: 3030 302a 3738 0d0a                      | b'000*78\r\n' |
<NMEA(GNGSA, opMode=A, navMode=3, svid_01=46, svid_02=21, svid_03=44, svid_04=24, svid_05=18, svid_06=10, svid_07=12, svid_08=23, svid_09=15, svid_10=32, svid_11=, svid_12=, PDOP=0.96, HDOP=0.53, VDOP=0.81, systemId=1)>000: 2447 4e47 5341 2c41 2c33 2c34 362c 3231  | b'$GNGSA,A,3,46,21' |
016: 2c34 342c 3234 2c31 382c 3130 2c31 322c  | b',44,24,18,10,12,' |
032: 3233 2c31 352c 3332 2c2c 2c30 2e39 362c  | b'23,15,32,,,0.96,' |
048: 302e 3533 2c30 2e38 312c 312a 3039 0d0a  | b'0.53,0.81,1*09\r\n' |
<NMEA(GNGSA, opMode=A, navMode=3, svid_01=87, svid_02=85, svid_03=80, svid_04=71, svid_05=73, svid_06=70, svid_07=79, svid_08=, svid_09=, svid_10=, svid_11=, svid_12=, PDOP=0.96, HDOP=0.53, VDOP=0.81, systemId=2)>000: 2447 4e47 5341 2c41 2c33 2c38 372c 3835  | b'$GNGSA,A,3,87,85' |
016: 2c38 302c 3731 2c37 332c 3730 2c37 392c  | b',80,71,73,70,79,' |
032: 2c2c 2c2c 2c30 2e39 362c 302e 3533 2c30  | b',,,,,0.96,0.53,0' |
048: 2e38 312c 322a 3033 0d0a                 | b'.81,2*03\r\n' |
<NMEA(GNGSA, opMode=A, navMode=3, svid_01=36, svid_02=5, svid_03=31, svid_04=34, svid_05=4, svid_06=9, svid_07=, svid_08=, svid_09=, svid_10=, svid_11=, svid_12=, PDOP=0.96, HDOP=0.53, VDOP=0.81, systemId=3)>000: 2447 4e47 5341 2c41 2c33 2c33 362c 3035  | b'$GNGSA,A,3,36,05' |
016: 2c33 312c 3334 2c30 342c 3039 2c2c 2c2c  | b',31,34,04,09,,,,' |
032: 2c2c 2c30 2e39 362c 302e 3533 2c30 2e38  | b',,,0.96,0.53,0.8' |
048: 312c 332a 3042 0d0a                      | b'1,3*0B\r\n' |
<NMEA(GPGSV, numMsg=4, msgNum=1, numSV=13, svid_01=2, elv_01=7.0, az_01=329, cno_01=22, svid_02=10, elv_02=69.0, az_02=312, cno_02=50, svid_03=12, elv_03=18.0, az_03=113, cno_03=33, svid_04=15, elv_04=18.0, az_04=80, cno_04=38, signalID=1)>000: 2447 5047 5356 2c34 2c31 2c31 332c 3032  | b'$GPGSV,4,1,13,02' |
016: 2c30 372c 3332 392c 3232 2c31 302c 3639  | b',07,329,22,10,69' |
032: 2c33 3132 2c35 302c 3132 2c31 382c 3131  | b',312,50,12,18,11' |
048: 332c 3333 2c31 352c 3138 2c30 3830 2c33  | b'3,33,15,18,080,3' |
064: 382c 312a 3632 0d0a                      | b'8,1*62\r\n' |
<NMEA(GPGSV, numMsg=4, msgNum=2, numSV=13, svid_01=18, elv_01=20.0, az_01=188, cno_01=39, svid_02=21, elv_02=13.0, az_02=323, cno_02=33, svid_03=23, elv_03=69.0, az_03=126, cno_03=46, svid_04=24, elv_04=48.0, az_04=59, cno_04=44, signalID=1)>000: 2447 5047 5356 2c34 2c32 2c31 332c 3138  | b'$GPGSV,4,2,13,18' |
016: 2c32 302c 3138 382c 3339 2c32 312c 3133  | b',20,188,39,21,13' |
032: 2c33 3233 2c33 332c 3233 2c36 392c 3132  | b',323,33,23,69,12' |
048: 362c 3436 2c32 342c 3438 2c30 3539 2c34  | b'6,46,24,48,059,4' |
064: 342c 312a 3643 0d0a                      | b'4,1*6C\r\n' |
<NMEA(GPGSV, numMsg=4, msgNum=3, numSV=13, svid_01=25, elv_01=8.0, az_01=152, cno_01=28, svid_02=28, elv_02=7.0, az_02=212, cno_02=36, svid_03=32, elv_03=37.0, az_03=270, cno_03=48, svid_04=44, elv_04=23.0, az_04=235, cno_04=41, signalID=1)>000: 2447 5047 5356 2c34 2c33 2c31 332c 3235  | b'$GPGSV,4,3,13,25' |
016: 2c30 382c 3135 322c 3238 2c32 382c 3037  | b',08,152,28,28,07' |
032: 2c32 3132 2c33 362c 3332 2c33 372c 3237  | b',212,36,32,37,27' |
048: 302c 3438 2c34 342c 3233 2c32 3335 2c34  | b'0,48,44,23,235,4' |
064: 312c 312a 3637 0d0a                      | b'1,1*67\r\n' |
<NMEA(GPGSV, numMsg=4, msgNum=4, numSV=13, svid_01=46, elv_01=15.0, az_01=246, cno_01=38, signalID=1)>000: 2447 5047 5356 2c34 2c34 2c31 332c 3436  | b'$GPGSV,4,4,13,46' |
016: 2c31 352c 3234 362c 3338 2c31 2a35 420d  | b',15,246,38,1*5B\r' |
032: 0a                                       | b'\n' |
<NMEA(GPGSV, numMsg=3, msgNum=1, numSV=9, svid_01=10, elv_01=69.0, az_01=312, cno_01=42, svid_02=12, elv_02=18.0, az_02=113, cno_02=32, svid_03=15, elv_03=18.0, az_03=80, cno_03=35, svid_04=18, elv_04=20.0, az_04=188, cno_04=32, signalID=6)>000: 2447 5047 5356 2c33 2c31 2c30 392c 3130  | b'$GPGSV,3,1,09,10' |
016: 2c36 392c 3331 322c 3432 2c31 322c 3138  | b',69,312,42,12,18' |
032: 2c31 3133 2c33 322c 3135 2c31 382c 3038  | b',113,32,15,18,08' |
048: 302c 3335 2c31 382c 3230 2c31 3838 2c33  | b'0,35,18,20,188,3' |
064: 322c 362a 3630 0d0a                      | b'2,6*60\r\n' |
<NMEA(GPGSV, numMsg=3, msgNum=2, numSV=9, svid_01=23, elv_01=69.0, az_01=126, cno_01=43, svid_02=24, elv_02=48.0, az_02=59, cno_02=42, svid_03=25, elv_03=8.0, az_03=152, cno_03=28, svid_04=28, elv_04=7.0, az_04=212, cno_04=32, signalID=6)>000: 2447 5047 5356 2c33 2c32 2c30 392c 3233  | b'$GPGSV,3,2,09,23' |
016: 2c36 392c 3132 362c 3433 2c32 342c 3438  | b',69,126,43,24,48' |
032: 2c30 3539 2c34 322c 3235 2c30 382c 3135  | b',059,42,25,08,15' |
048: 322c 3238 2c32 382c 3037 2c32 3132 2c33  | b'2,28,28,07,212,3' |
064: 322c 362a 3639 0d0a                      | b'2,6*69\r\n' |
<NMEA(GPGSV, numMsg=3, msgNum=3, numSV=9, svid_01=32, elv_01=37.0, az_01=270, cno_01=38, signalID=6)>000: 2447 5047 5356 2c33 2c33 2c30 392c 3332  | b'$GPGSV,3,3,09,32' |
016: 2c33 372c 3237 302c 3338 2c36 2a35 310d  | b',37,270,38,6*51\r' |
032: 0a                                       | b'\n' |
<NMEA(GLGSV, numMsg=3, msgNum=1, numSV=10, svid_01=69, elv_01=8.0, az_01=89, cno_01=10, svid_02=70, elv_02=60.0, az_02=42, cno_02=38, svid_03=71, elv_03=43.0, az_03=310, cno_03=48, svid_04=73, elv_04=27.0, az_04=158, cno_04=42, signalID=1)>000: 2447 4c47 5356 2c33 2c31 2c31 302c 3639  | b'$GLGSV,3,1,10,69' |
016: 2c30 382c 3038 392c 3130 2c37 302c 3630  | b',08,089,10,70,60' |
032: 2c30 3432 2c33 382c 3731 2c34 332c 3331  | b',042,38,71,43,31' |
048: 302c 3438 2c37 332c 3237 2c31 3538 2c34  | b'0,48,73,27,158,4' |
064: 322c 312a 3734 0d0a                      | b'2,1*74\r\n' |
<NMEA(GLGSV, numMsg=3, msgNum=2, numSV=10, svid_01=79, elv_01=20.0, az_01=31, cno_01=40, svid_02=80, elv_02=49.0, az_02=89, cno_02=48, svid_03=85, elv_03=16.0, az_03=222, cno_03=40, svid_04=86, elv_04=35.0, az_04=272, cno_04=48, signalID=1)>000: 2447 4c47 5356 2c33 2c32 2c31 302c 3739  | b'$GLGSV,3,2,10,79' |
016: 2c32 302c 3033 312c 3430 2c38 302c 3439  | b',20,031,40,80,49' |
032: 2c30 3839 2c34 382c 3835 2c31 362c 3232  | b',089,48,85,16,22' |
048: 322c 3430 2c38 362c 3335 2c32 3732 2c34  | b'2,40,86,35,272,4' |
064: 382c 312a 3735 0d0a                      | b'8,1*75\r\n' |
<NMEA(GLGSV, numMsg=3, msgNum=3, numSV=10, svid_01=87, elv_01=18.0, az_01=331, cno_01=37, svid_02=, elv_02=, az_02=, cno_02=41, signalID=1)>000: 2447 4c47 5356 2c33 2c33 2c31 302c 3837  | b'$GLGSV,3,3,10,87' |
016: 2c31 382c 3333 312c 3337 2c2c 2c2c 3431  | b',18,331,37,,,,41' |
032: 2c31 2a34 460d 0a                        | b',1*4F\r\n' |
<NMEA(GLGSV, numMsg=1, msgNum=1, numSV=4, svid_01=71, elv_01=43.0, az_01=310, cno_01=38, svid_02=79, elv_02=20.0, az_02=31, cno_02=37, svid_03=80, elv_03=49.0, az_03=89, cno_03=39, svid_04=86, elv_04=35.0, az_04=272, cno_04=39, signalID=3)>000: 2447 4c47 5356 2c31 2c31 2c30 342c 3731  | b'$GLGSV,1,1,04,71' |
016: 2c34 332c 3331 302c 3338 2c37 392c 3230  | b',43,310,38,79,20' |
032: 2c30 3331 2c33 372c 3830 2c34 392c 3038  | b',031,37,80,49,08' |
048: 392c 3339 2c38 362c 3335 2c32 3732 2c33  | b'9,39,86,35,272,3' |
064: 392c 332a 3737 0d0a                      | b'9,3*77\r\n' |
<NMEA(GLGSV, numMsg=1, msgNum=1, numSV=1, svid_01=72, elv_01=3.0, az_01=286, cno_01=, signalID=0)>000: 2447 4c47 5356 2c31 2c31 2c30 312c 3732  | b'$GLGSV,1,1,01,72' |
016: 2c30 332c 3238 362c 2c30 2a34 320d 0a    | b',03,286,,0*42\r\n' |
<NMEA(GAGSV, numMsg=2, msgNum=2, numSV=8, svid_01=24, elv_01=9.0, az_01=151, cno_01=29, svid_02=31, elv_02=25.0, az_02=105, cno_02=36, svid_03=34, elv_03=42.0, az_03=290, cno_03=40, svid_04=36, elv_04=40.0, az_04=216, cno_04=40, signalID=2)>000: 2447 4147 5356 2c32 2c32 2c30 382c 3234  | b'$GAGSV,2,2,08,24' |
016: 2c30 392c 3135 312c 3239 2c33 312c 3235  | b',09,151,29,31,25' |
032: 2c31 3035 2c33 362c 3334 2c34 322c 3239  | b',105,36,34,42,29' |
048: 302c 3430 2c33 362c 3430 2c32 3136 2c34  | b'0,40,36,40,216,4' |
064: 302c 322a 3735 0d0a                      | b'0,2*75\r\n' |
<NMEA(GAGSV, numMsg=2, msgNum=1, numSV=8, svid_01=4, elv_01=20.0, az_01=73, cno_01=37, svid_02=5, elv_02=47.0, az_02=275, cno_02=45, svid_03=9, elv_03=68.0, az_03=42, cno_03=46, svid_04=11, elv_04=7.0, az_04=178, cno_04=27, signalID=7)>000: 2447 4147 5356 2c32 2c31 2c30 382c 3034  | b'$GAGSV,2,1,08,04' |
016: 2c32 302c 3037 332c 3337 2c30 352c 3437  | b',20,073,37,05,47' |
032: 2c32 3735 2c34 352c 3039 2c36 382c 3034  | b',275,45,09,68,04' |
048: 322c 3436 2c31 312c 3037 2c31 3738 2c32  | b'2,46,11,07,178,2' |
064: 372c 372a 3736 0d0a                      | b'7,7*76\r\n' |
<NMEA(GAGSV, numMsg=2, msgNum=2, numSV=8, svid_01=24, elv_01=9.0, az_01=151, cno_01=29, svid_02=31, elv_02=25.0, az_02=105, cno_02=37, svid_03=34, elv_03=42.0, az_03=290, cno_03=44, svid_04=36, elv_04=40.0, az_04=216, cno_04=43, signalID=7)>000: 2447 4147 5356 2c32 2c32 2c30 382c 3234  | b'$GAGSV,2,2,08,24' |
016: 2c30 392c 3135 312c 3239 2c33 312c 3235  | b',09,151,29,31,25' |
032: 2c31 3035 2c33 372c 3334 2c34 322c 3239  | b',105,37,34,42,29' |
