<NMEA(GPGSV, numMsg=4, msgNum=3, numSV=13, svid_01=25, elv_01=6.0, az_01=153, cno_01=34, svid_02=28, elv_02=6.0, az_02=212, cno_02=33, svid_03=32, elv_03=36.0, az_03=270, cno_03=45, svid_04=44, elv_04=23.0, az_04=235, cno_04=42, signalID=1)>000: 2447 5047 5356 2c34 2c33 2c31 332c 3235  | b'$GPGSV,4,3,13,25' |
016: 2c30 362c 3135 332c 3334 2c32 382c 3036  | b',06,153,34,28,06' |
032: 2c32 3132 2c33 332c 3332 2c33 362c 3237  | b',212,33,32,36,27' |
048: 302c 3435 2c34 342c 3233 2c32 3335 2c34  | b'0,45,44,23,235,4' |
064: 322c 312a 3645 0d0a                      | b'2,1*6E\r\n' |
<NMEA(GPGSV, numMsg=4, msgNum=4, numSV=13, svid_01=46, elv_01=15.0, az_01=246, cno_01=36, signalID=1)>000: 2447 5047 5356 2c34 2c34 2c31 332c 3436  | b'$GPGSV,4,4,13,46' |
016: 2c31 352c 3234 362c 3336 2c31 2a35 350d  | b',15,246,36,1*55\r' |
032: 0a                                       | b'\n' |
<NMEA(GPGSV, numMsg=3, msgNum=1, numSV=9, svid_01=10, elv_01=67.0, az_01=312, cno_01=42, svid_02=12, elv_02=17.0, az_02=114, cno_02=34, svid_03=15, elv_03=19.0, az_03=79, cno_03=34, svid_04=18, elv_04=22.0, az_04=188, cno_04=33, signalID=6)>000: 2447 5047 5356 2c33 2c31 2c30 392c 3130  | b'$GPGSV,3,1,09,10' |
016: 2c36 372c 3331 322c 3432 2c31 322c 3137  | b',67,312,42,12,17' |
032: 2c31 3134 2c33 342c 3135 2c31 392c 3037  | b',114,34,15,19,07' |
048: 392c 3334 2c31 382c 3232 2c31 3838 2c33  | b'9,34,18,22,188,3' |
064: 332c 362a 3635 0d0a                      | b'3,6*65\r\n' |
<NMEA(GPGSV, numMsg=3, msgNum=2, numSV=9, svid_01=23, elv_01=71.0, az_01=124, cno_01=43, svid_02=24, elv_02=50.0, az_02=60, cno_02=42, svid_03=25, elv_03=6.0, az_03=153, cno_03=27, svid_04=28, elv_04=6.0, az_04=212, cno_04=26, signalID=6)>000: 2447 5047 5356 2c33 2c32 2c30 392c 3233  | b'$GPGSV,3,2,09,23' |
016: 2c37 312c 3132 342c 3433 2c32 342c 3530  | b',71,124,43,24,50' |
032: 2c30 3630 2c34 322c 3235 2c30 362c 3135  | b',060,42,25,06,15' |
048: 332c 3237 2c32 382c 3036 2c32 3132 2c32  | b'3,27,28,06,212,2' |
064: 362c 362a 3635 0d0a                      | b'6,6*65\r\n' |
<NMEA(GPGSV, numMsg=3, msgNum=3, numSV=9, svid_01=32, elv_01=36.0, az_01=270, cno_01=38, signalID=6)>000: 2447 5047 5356 2c33 2c33 2c30 392c 3332  | b'$GPGSV,3,3,09,32' |
016: 2c33 362c 3237 302c 3338 2c36 2a35 300d  | b',36,270,38,6*50\r' |
032: 0a                                       | b'\n' |
<NMEA(GPGSV, numMsg=1, msgNum=1, numSV=1, svid_01=22, elv_01=0.0, az_01=20, cno_01=, signalID=0)>000: 2447 5047 5356 2c31 2c31 2c30 312c 3232  | b'$GPGSV,1,1,01,22' |
016: 2c30 302c 3032 302c 2c30 2a35 360d 0a    | b',00,020,,0*56\r\n' |
<NMEA(GLGSV, numMsg=3, msgNum=1, numSV=10, svid_01=69, elv_01=10.0, az_01=88, cno_01=36, svid_02=70, elv_02=60.0, az_02=38, cno_02=40, svid_03=71, elv_03=42.0, az_03=307, cno_03=50, svid_04=73, elv_04=25.0, az_04=159, cno_04=45, signalID=1)>000: 2447 4c47 5356 2c33 2c31 2c31 302c 3639  | b'$GLGSV,3,1,10,69' |
016: 2c31 302c 3038 382c 3336 2c37 302c 3630  | b',10,088,36,70,60' |
032: 2c30 3338 2c34 302c 3731 2c34 322c 3330  | b',038,40,71,42,30' |
048: 372c 3530 2c37 332c 3235 2c31 3539 2c34  | b'7,50,73,25,159,4' |
064: 352c 312a 3730 0d0a                      | b'5,1*70\r\n' |
<NMEA(GLGSV, numMsg=3, msgNum=2, numSV=10, svid_01=79, elv_01=22.0, az_01=32, cno_01=45, svid_02=80, elv_02=49.0, az_02=92, cno_02=49, svid_03=85, elv_03=18.0, az_03=223, cno_03=41, svid_04=86, elv_04=36.0, az_04=274, cno_04=48, signalID=1)>000: 2447 4c47 5356 2c33 2c32 2c31 302c 3739  | b'$GLGSV,3,2,10,79' |
016: 2c32 322c 3033 322c 3435 2c38 302c 3439  | b',22,032,45,80,49' |
032: 2c30 3932 2c34 392c 3835 2c31 382c 3232  | b',092,49,85,18,22' |
048: 332c 3431 2c38 362c 3336 2c32 3734 2c34  | b'3,41,86,36,274,4' |
064: 382c 312a 3731 0d0a                      | b'8,1*71\r\n' |
<NMEA(GLGSV, numMsg=3, msgNum=3, numSV=10, svid_01=87, elv_01=17.0, az_01=333, cno_01=39, svid_02=, elv_02=, az_02=, cno_02=44, signalID=1)>000: 2447 4c47 5356 2c33 2c33 2c31 302c 3837  | b'$GLGSV,3,3,10,87' |
016: 2c31 372c 3333 332c 3339 2c2c 2c2c 3434  | b',17,333,39,,,,44' |
032: 2c31 2a34 390d 0a                        | b',1*49\r\n' |
<NMEA(GLGSV, numMsg=1, msgNum=1, numSV=1, svid_01=72, elv_01=1.0, az_01=284, cno_01=, signalID=0)>000: 2447 4c47 5356 2c31 2c31 2c30 312c 3732  | b'$GLGSV,1,1,01,72' |
016: 2c30 312c 3238 342c 2c30 2a34 320d 0a    | b',01,284,,0*42\r\n' |
<NMEA(GAGSV, numMsg=3, msgNum=1, numSV=9, svid_01=4, elv_01=21.0, az_01=72, cno_01=35, svid_02=5, elv_02=47.0, az_02=274, cno_02=40, svid_03=9, elv_03=69.0, az_03=40, cno_03=42, svid_04=11, elv_04=7.0, az_04=178, cno_04=20, signalID=2)>000: 2447 4147 5356 2c33 2c31 2c30 392c 3034  | b'$GAGSV,3,1,09,04' |
016: 2c32 312c 3037 322c 3335 2c30 352c 3437  | b',21,072,35,05,47' |
032: 2c32 3734 2c34 302c 3039 2c36 392c 3034  | b',274,40,09,69,04' |
048: 302c 3432 2c31 312c 3037 2c31 3738 2c32  | b'0,42,11,07,178,2' |
064: 302c 322a 3735 0d0a                      | b'0,2*75\r\n' |
<NMEA(GAGSV, numMsg=3, msgNum=2, numSV=9, svid_01=15, elv_01=7.0, az_01=331, cno_01=30, svid_02=24, elv_02=8.0, az_02=152, cno_02=30, svid_03=31, elv_03=25.0, az_03=105, cno_03=38, svid_04=34, elv_04=41.0, az_04=291, cno_04=39, signalID=2)>000: 2447 4147 5356 2c33 2c32 2c30 392c 3135  | b'$GAGSV,3,2,09,15' |
016: 2c30 372c 3333 312c 3330 2c32 342c 3038  | b',07,331,30,24,08' |
032: 2c31 3532 2c33 302c 3331 2c32 352c 3130  | b',152,30,31,25,10' |
048: 352c 3338 2c33 342c 3431 2c32 3931 2c33  | b'5,38,34,41,291,3' |
064: 392c 322a 3743 0d0a                      | b'9,2*7C\r\n' |
<NMEA(GAGSV, numMsg=3, msgNum=3, numSV=9, svid_01=36, elv_01=41.0, az_01=217, cno_01=37, signalID=2)>000: 2447 4147 5356 2c33 2c33 2c30 392c 3336  | b'$GAGSV,3,3,09,36' |
016: 2c34 312c 3231 372c 3337 2c32 2a34 460d  | b',41,217,37,2*4F\r' |
032: 0a                                       | b'\n' |
<NMEA(GNRMC, time=19:34:34.500000, status=A, lat=43.8827775183, NS=N, lon=-72.158164925, EW=W, spd=0.006, cog=, date=2023-09-05, mv=, mvEW=, posMode=R, navStatus=V)>000: 2447 4e52 4d43 2c31 3933 3433 342e 3530  | b'$GNRMC,193434.50' |
016: 2c41 2c34 3335 322e 3936 3636 3531 312c  | b',A,4352.9666511,' |
032: 4e2c 3037 3230 392e 3438 3938 3935 352c  | b'N,07209.4898955,' |
048: 572c 302e 3030 362c 2c30 3530 3932 332c  | b'W,0.006,,050923,' |
064: 2c2c 522c 562a 3131 0d0a                 | b',,R,V*11\r\n' |
<NMEA(GNVTG, cogt=, cogtUnit=T, cogm=, cogmUnit=M, sogn=0.006, sognUnit=N, sogk=0.012, sogkUnit=K, posMode=D)>000: 2447 4e56 5447 2c2c 542c 2c4d 2c30 2e30  | b'$GNVTG,,T,,M,0.0' |
016: 3036 2c4e 2c30 2e30 3132 2c4b 2c44 2a33  | b'06,N,0.012,K,D*3' |
032: 440d 0a                                  | b'D\r\n' |
<NMEA(GNGGA, time=19:34:34.500000, lat=43.8827775183, NS=N, lon=-72.158164925, EW=W, quality=4, numSV=12, HDOP=0.55, alt=142.418, altUnit=M, sep=-32.547, sepUnit=M, diffAge=, diffStation=0)>000: 2447 4e47 4741 2c31 3933 3433 342e 3530  | b'$GNGGA,193434.50' |
016: 2c34 3335 322e 3936 3636 3531 312c 4e2c  | b',4352.9666511,N,' |
032: 3037 3230 392e 3438 3938 3935 352c 572c  | b'07209.4898955,W,' |
048: 342c 3132 2c30 2e35 352c 3134 322e 3431  | b'4,12,0.55,142.41' |
064: 382c 4d2c 2d33 322e 3534 372c 4d2c 2c30  | b'8,M,-32.547,M,,0' |
080: 3030 302a 3739 0d0a                      | b'000*79\r\n' |
<NMEA(GNGSA, opMode=A, navMode=3, svid_01=46, svid_02=21, svid_03=44, svid_04=24, svid_05=18, svid_06=10, svid_07=12, svid_08=23, svid_09=15, svid_10=32, svid_11=, svid_12=, PDOP=1.02, HDOP=0.55, VDOP=0.86, systemId=1)>000: 2447 4e47 5341 2c41 2c33 2c34 362c 3231  | b'$GNGSA,A,3,46,21' |
016: 2c34 342c 3234 2c31 382c 3130 2c31 322c  | b',44,24,18,10,12,' |
032: 3233 2c31 352c 3332 2c2c 2c31 2e30 322c  | b'23,15,32,,,1.02,' |
048: 302e 3535 2c30 2e38 362c 312a 3034 0d0a  | b'0.55,0.86,1*04\r\n' |
<NMEA(GNGSA, opMode=A, navMode=3, svid_01=87, svid_02=85, svid_03=80, svid_04=71, svid_05=73, svid_06=70, svid_07=79, svid_08=, svid_09=, svid_10=, svid_11=, svid_12=, PDOP=1.02, HDOP=0.55, VDOP=0.86, systemId=2)>000: 2447 4e47 5341 2c41 2c33 2c38 372c 3835  | b'$GNGSA,A,3,87,85' |
016: 2c38 302c 3731 2c37 332c 3730 2c37 392c  | b',80,71,73,70,79,' |
032: 2c2c 2c2c 2c31 2e30 322c 302e 3535 2c30  | b',,,,,1.02,0.55,0' |
048: 2e38 362c 322a 3045 0d0a                 | b'.86,2*0E\r\n' |
<NMEA(GNGSA, opMode=A, navMode=3, svid_01=36, svid_02=5, svid_03=31, svid_04=34, svid_05=4, svid_06=9, svid_07=, svid_08=, svid_09=, svid_10=, svid_11=, svid_12=, PDOP=1.02, HDOP=0.55, VDOP=0.86, systemId=3)>000: 2447 4e47 5341 2c41 2c33 2c33 362c 3035  | b'$GNGSA,A,3,36,05' |
016: 2c33 312c 3334 2c30 342c 3039 2c2c 2c2c  | b',31,34,04,09,,,,' |
032: 2c2c 2c31 2e30 322c 302e 3535 2c30 2e38  | b',,,1.02,0.55,0.8' |
048: 362c 332a 3036 0d0a                      | b'6,3*06\r\n' |
<NMEA(GNGSA, opMode=A, navMode=3, svid_01=37, svid_02=32, svid_03=29, svid_04=20, svid_05=23, svid_06=35, svid_07=, svid_08=, svid_09=, svid_10=, svid_11=, svid_12=, PDOP=1.02, HDOP=0.55, VDOP=0.86, systemId=4)>000: 2447 4e47 5341 2c41 2c33 2c33 372c 3332  | b'$GNGSA,A,3,37,32' |
016: 2c32 392c 3230 2c32 332c 3335 2c2c 2c2c  | b',29,20,23,35,,,,' |
032: 2c2c 2c31 2e30 322c 302e 3535 2c30 2e38  | b',,,1.02,0.55,0.8' |
048: 362c 342a 3032 0d0a                      | b'6,4*02\r\n' |
<NMEA(GPGSV, numMsg=4, msgNum=2, numSV=13, svid_01=18, elv_01=22.0, az_01=188, cno_01=43, svid_02=21, elv_02=11.0, az_02=324, cno_02=37, svid_03=23, elv_03=71.0, az_03=124, cno_03=48, svid_04=24, elv_04=50.0, az_04=60, cno_04=48, signalID=1)>000: 2447 5047 5356 2c34 2c32 2c31 332c 3138  | b'$GPGSV,4,2,13,18' |
016: 2c32 322c 3138 382c 3433 2c32 312c 3131  | b',22,188,43,21,11' |
032: 2c33 3234 2c33 372c 3233 2c37 312c 3132  | b',324,37,23,71,12' |
048: 342c 3438 2c32 342c 3530 2c30 3630 2c34  | b'4,48,24,50,060,4' |
064: 382c 312a 3638 0d0a                      | b'8,1*68\r\n' |
<NMEA(GPGSV, numMsg=4, msgNum=3, numSV=13, svid_01=25, elv_01=6.0, az_01=153, cno_01=34, svid_02=28, elv_02=6.0, az_02=212, cno_02=33, svid_03=32, elv_03=36.0, az_03=270, cno_03=45, svid_04=44, elv_04=23.0, az_04=235, cno_04=42, signalID=1)>000: 2447 5047 5356 2c34 2c33 2c31 332c 3235  | b'$GPGSV,4,3,13,25' |
016: 2c30 362c 3135 332c 3334 2c32 382c 3036  | b',06,153,34,28,06' |
032: 2c32 3132 2c33 332c 3332 2c33 362c 3237  | b',212,33,32,36,27' |
048: 302c 3435 2c34 342c 3233 2c32 3335 2c34  | b'0,45,44,23,235,4' |
064: 322c 312a 3645 0d0a                      | b'2,1*6E\r\n' |
<NMEA(GPGSV, numMsg=4, msgNum=4, numSV=13, svid_01=46, elv_01=15.0, az_01=246, cno_01=36, signalID=1)>000: 2447 5047 5356 2c34 2c34 2c31 332c 3436  | b'$GPGSV,4,4,13,46' |
016: 2c31 352c 3234 362c 3336 2c31 2a35 350d  | b',15,246,36,1*55\r' |
032: 0a                                       | b'\n' |
<NMEA(GPGSV, numMsg=3, msgNum=1, numSV=9, svid_01=10, elv_01=67.0, az_01=312, cno_01=42, svid_02=12, elv_02=17.0, az_02=114, cno_02=34, svid_03=15, elv_03=19.0, az_03=79, cno_03=34, svid_04=18, elv_04=22.0, az_04=188, cno_04=33, signalID=6)>000: 2447 5047 5356 2c33 2c31 2c30 392c 3130  | b'$GPGSV,3,1,09,10' |
016: 2c36 372c 3331 322c 3432 2c31 322c 3137  | b',67,312,42,12,17' |
032: 2c31 3134 2c33 342c 3135 2c31 392c 3037  | b',114,34,15,19,07' |
048: 392c 3334 2c31 382c 3232 2c31 3838 2c33  | b'9,34,18,22,188,3' |
064: 332c 362a 3635 0d0a                      | b'3,6*65\r\n' |
<NMEA(GPGSV, numMsg=3, msgNum=2, numSV=9, svid_01=23, elv_01=71.0, az_01=124, cno_01=43, svid_02=24, elv_02=50.0, az_02=60, cno_02=42, svid_03=25, elv_03=6.0, az_03=153, cno_03=27, svid_04=28, elv_04=6.0, az_04=212, cno_04=26, signalID=6)>000: 2447 5047 5356 2c33 2c32 2c30 392c 3233  | b'$GPGSV,3,2,09,23' |
016: 2c37 312c 3132 342c 3433 2c32 342c 3530  | b',71,124,43,24,50' |
032: 2c30 3630 2c34 322c 3235 2c30 362c 3135  | b',060,42,25,06,15' |
048: 332c 3237 2c32 382c 3036 2c32 3132 2c32  | b'3,27,28,06,212,2' |
064: 362c 362a 3635 0d0a                      | b'6,6*65\r\n' |
<NMEA(GPGSV, numMsg=3, msgNum=3, numSV=9, svid_01=32, elv_01=36.0, az_01=270, cno_01=38, signalID=6)>000: 2447 5047 5356 2c33 2c33 2c30 392c 3332  | b'$GPGSV,3,3,09,32' |
016: 2c33 362c 3237 302c 3338 2c36 2a35 300d  | b',36,270,38,6*50\r' |
032: 0a                                       | b'\n' |
<NMEA(GPGSV, numMsg=1, msgNum=1, numSV=1, svid_01=22, elv_01=0.0, az_01=20, cno_01=, signalID=0)>000: 2447 5047 5356 2c31 2c31 2c30 312c 3232  | b'$GPGSV,1,1,01,22' |
016: 2c30 302c 3032 302c 2c30 2a35 360d 0a    | b',00,020,,0*56\r\n' |
<NMEA(GLGSV, numMsg=3, msgNum=1, numSV=10, svid_01=69, elv_01=10.0, az_01=88, cno_01=36, svid_02=70, elv_02=60.0, az_02=38, cno_02=40, svid_03=71, elv_03=42.0, az_03=307, cno_03=50, svid_04=73, elv_04=25.0, az_04=159, cno_04=45, signalID=1)>000: 2447 4c47 5356 2c33 2c31 2c31 302c 3639  | b'$GLGSV,3,1,10,69' |
016: 2c31 302c 3038 382c 3336 2c37 302c 3630  | b',10,088,36,70,60' |
032: 2c30 3338 2c34 302c 3731 2c34 322c 3330  | b',038,40,71,42,30' |
048: 372c 3530 2c37 332c 3235 2c31 3539 2c34  | b'7,50,73,25,159,4' |
064: 352c 312a 3730 0d0a                      | b'5,1*70\r\n' |
<NMEA(GLGSV, numMsg=3, msgNum=2, numSV=10, svid_01=79, elv_01=22.0, az_01=32, cno_01=45, svid_02=80, elv_02=49.0, az_02=92, cno_02=49, svid_03=85, elv_03=18.0, az_03=223, cno_03=41, svid_04=86, elv_04=36.0, az_04=274, cno_04=47, signalID=1)>000: 2447 4c47 5356 2c33 2c32 2c31 302c 3739  | b'$GLGSV,3,2,10,79' |
016: 2c32 322c 3033 322c 3435 2c38 302c 3439  | b',22,032,45,80,49' |
032: 2c30 3932 2c34 392c 3835 2c31 382c 3232  | b',092,49,85,18,22' |
048: 332c 3431 2c38 362c 3336 2c32 3734 2c34  | b'3,41,86,36,274,4' |
064: 372c 312a 3745 0d0a                      | b'7,1*7E\r\n' |
<NMEA(GLGSV, numMsg=2, msgNum=1, numSV=6, svid_01=71, elv_01=42.0, az_01=307, cno_01=37, svid_02=73, elv_02=25.0, az_02=159, cno_02=31, svid_03=79, elv_03=22.0, az_03=32, cno_03=34, svid_04=80, elv_04=49.0, az_04=92, cno_04=40, signalID=3)>000: 2447 4c47 5356 2c32 2c31 2c30 362c 3731  | b'$GLGSV,2,1,06,71' |
016: 2c34 322c 3330 372c 3337 2c37 332c 3235  | b',42,307,37,73,25' |
032: 2c31 3539 2c33 312c 3739 2c32 322c 3033  | b',159,31,79,22,03' |
048: 322c 3334 2c38 302c 3439 2c30 3932 2c34  | b'2,34,80,49,092,4' |
064: 302c 332a 3731 0d0a                      | b'0,3*71\r\n' |
<NMEA(GLGSV, numMsg=2, msgNum=2, numSV=6, svid_01=85, elv_01=18.0, az_01=223, cno_01=31, svid_02=86, elv_02=36.0, az_02=274, cno_02=36, signalID=3)>000: 2447 4c47 5356 2c32 2c32 2c30 362c 3835  | b'$GLGSV,2,2,06,85' |
016: 2c31 382c 3232 332c 3331 2c38 362c 3336  | b',18,223,31,86,36' |
032: 2c32 3734 2c33 362c 332a 3736 0d0a       | b',274,36,3*76\r\n' |
<NMEA(GLGSV, numMsg=1, msgNum=1, numSV=1, svid_01=72, elv_01=1.0, az_01=284, cno_01=, signalID=0)>000: 2447 4c47 5356 2c31 2c31 2c30 312c 3732  | b'$GLGSV,1,1,01,72' |
016: 2c30 312c 3238 342c 2c30 2a34 320d 0a    | b',01,284,,0*42\r\n' |
<NMEA(GAGSV, numMsg=3, msgNum=1, numSV=9, svid_01=4, elv_01=21.0, az_01=72, cno_01=35, svid_02=5, elv_02=47.0, az_02=274, cno_02=40, svid_03=9, elv_03=69.0, az_03=40, cno_03=42, svid_04=11, elv_04=7.0, az_04=178, cno_04=20, signalID=2)>000: 2447 4147 5356 2c33 2c31 2c30 392c 3034  | b'$GAGSV,3,1,09,04' |
016: 2c32 312c 3037 322c 3335 2c30 352c 3437  | b',21,072,35,05,47' |
032: 2c32 3734 2c34 302c 3039 2c36 392c 3034  | b',274,40,09,69,04' |
048: 302c 3432 2c31 312c 3037 2c31 3738 2c32  | b'0,42,11,07,178,2' |
064: 302c 322a 3735 0d0a                      | b'0,2*75\r\n' |
<NMEA(GAGSV, numMsg=3, msgNum=2, numSV=9, svid_01=15, elv_01=7.0, az_01=331, cno_01=30, svid_02=24, elv_02=8.0, az_02=152, cno_02=30, svid_03=31, elv_03=25.0, az_03=105, cno_03=38, svid_04=34, elv_04=41.0, az_04=291, cno_04=39, signalID=2)>000: 2447 4147 5356 2c33 2c32 2c30 392c 3135  | b'$GAGSV,3,2,09,15' |
016: 2c30 372c 3333 312c 3330 2c32 342c 3038  | b',07,331,30,24,08' |
032: 2c31 3532 2c33 302c 3331 2c32 352c 3130  | b',152,30,31,25,10' |
048: 352c 3338 2c33 342c 3431 2c32 3931 2c33  | b'5,38,34,41,291,3' |
064: 392c 322a 3743 0d0a                      | b'9,2*7C\r\n' |
<NMEA(GAGSV, numMsg=3, msgNum=3, numSV=9, svid_01=36, elv_01=41.0, az_01=217, cno_01=37, signalID=2)>000: 2447 4147 5356 2c33 2c33 2c30 392c 3336  | b'$GAGSV,3,3,09,36' |
016: 2c34 312c 3231 372c 3337 2c32 2a34 460d  | b',41,217,37,2*4F\r' |
032: 0a                                       | b'\n' |
<NMEA(GBGSV, numMsg=2, msgNum=1, numSV=8, svid_01=20, elv_01=61.0, az_01=311, cno_01=52, svid_02=23, elv_02=40.0, az_02=67, cno_02=48, svid_03=25, elv_03=5.0, az_03=33, cno_03=35, svid_04=29, elv_04=18.0, az_04=261, cno_04=41, signalID=1)>000: 2447 4247 5356 2c32 2c31 2c30 382c 3230  | b'$GBGSV,2,1,08,20' |
016: 2c36 312c 3331 312c 3532 2c32 332c 3430  | b',61,311,52,23,40' |
032: 2c30 3637 2c34 382c 3235 2c30 352c 3033  | b',067,48,25,05,03' |
048: 332c 3335 2c32 392c 3138 2c32 3631 2c34  | b'3,35,29,18,261,4' |
064: 312c 312a 3732 0d0a                      | b'1,1*72\r\n' |
<NMEA(GBGSV, numMsg=2, msgNum=2, numSV=8, svid_01=30, elv_01=3.0, az_01=212, cno_01=30, svid_02=32, elv_02=53.0, az_02=88, cno_02=50, svid_03=35, elv_03=11.0, az_03=316, cno_03=36, svid_04=37, elv_04=45.0, az_04=145, cno_04=47, signalID=1)>000: 2447 4247 5356 2c32 2c32 2c30 382c 3330  | b'$GBGSV,2,2,08,30' |
016: 2c30 332c 3231 322c 3330 2c33 322c 3533  | b',03,212,30,32,53' |
032: 2c30 3838 2c35 302c 3335 2c31 312c 3331  | b',088,50,35,11,31' |
048: 362c 3336 2c33 372c 3435 2c31 3435 2c34  | b'6,36,37,45,145,4' |
064: 372c 312a 3746 0d0a                      | b'7,1*7F\r\n' |
<NMEA(GBGSV, numMsg=2, msgNum=1, numSV=6, svid_01=19, elv_01=14.0, az_01=291, cno_01=10, svid_02=20, elv_02=61.0, az_02=311, cno_02=7, svid_03=25, elv_03=5.0, az_03=33, cno_03=9, svid_04=32, elv_04=53.0, az_04=88, cno_04=7, signalID=3)>000: 2447 4247 5356 2c32 2c31 2c30 362c 3139  | b'$GBGSV,2,1,06,19' |
016: 2c31 342c 3239 312c 3130 2c32 302c 3631  | b',14,291,10,20,61' |
032: 2c33 3131 2c30 372c 3235 2c30 352c 3033  | b',311,07,25,05,03' |
048: 332c 3039 2c33 322c 3533 2c30 3838 2c30  | b'3,09,32,53,088,0' |
064: 372c 332a 3744 0d0a                      | b'7,3*7D\r\n' |
<NMEA(GNGLL, lat=43.8827775183, NS=N, lon=-72.158164925, EW=W, time=19:34:34.500000, status=A, posMode=D)>000: 2447 4e47 4c4c 2c34 3335 322e 3936 3636  | b'$GNGLL,4352.9666' |
016: 3531 312c 4e2c 3037 3230 392e 3438 3938  | b'511,N,07209.4898' |
032: 3935 352c 572c 3139 3334 3334 2e35 302c  | b'955,W,193434.50,' |
048: 412c 442a 3646 0d0a                      | b'A,D*6F\r\n' |
<NMEA(GNRMC, time=19:34:34.750000, status=A, lat=43.88277752, NS=N, lon=-72.1581649217, EW=W, spd=0.006, cog=, date=2023-09-05, mv=, mvEW=, posMode=R, navStatus=V)>000: 2447 4e52 4d43 2c31 3933 3433 342e 3735  | b'$GNRMC,193434.75' |
016: 2c41 2c34 3335 322e 3936 3636 3531 322c  | b',A,4352.9666512,' |
032: 4e2c 3037 3230 392e 3438 3938 3935 332c  | b'N,07209.4898953,' |
048: 572c 302e 3030 362c 2c30 3530 3932 332c  | b'W,0.006,,050923,' |
064: 2c2c 522c 562a 3133 0d0a                 | b',,R,V*13\r\n' |
<NMEA(GNVTG, cogt=, cogtUnit=T, cogm=, cogmUnit=M, sogn=0.006, sognUnit=N, sogk=0.012, sogkUnit=K, posMode=D)>000: 2447 4e56 5447 2c2c 542c 2c4d 2c30 2e30  | b'$GNVTG,,T,,M,0.0' |
016: 3036 2c4e 2c30 2e30 3132 2c4b 2c44 2a33  | b'06,N,0.012,K,D*3' |
032: 440d 0a                                  | b'D\r\n' |
<NMEA(GNGGA, time=19:34:34.750000, lat=43.88277752, NS=N, lon=-72.1581649217, EW=W, quality=4, numSV=12, HDOP=0.55, alt=142.419, altUnit=M, sep=-32.547, sepUnit=M, diffAge=, diffStation=0)>000: 2447 4e47 4741 2c31 3933 3433 342e 3735  | b'$GNGGA,193434.75' |
016: 2c34 3335 322e 3936 3636 3531 322c 4e2c  | b',4352.9666512,N,' |
032: 3037 3230 392e 3438 3938 3935 332c 572c  | b'07209.4898953,W,' |
048: 342c 3132 2c30 2e35 352c 3134 322e 3431  | b'4,12,0.55,142.41' |
064: 392c 4d2c 2d33 322e 3534 372c 4d2c 2c30  | b'9,M,-32.547,M,,0' |
080: 3030 302a 3741 0d0a                      | b'000*7A\r\n' |
<NMEA(GNGSA, opMode=A, navMode=3, svid_01=46, svid_02=21, svid_03=44, svid_04=24, svid_05=18, svid_06=10, svid_07=12, svid_08=23, svid_09=15, svid_10=32, svid_11=, svid_12=, PDOP=1.02, HDOP=0.55, VDOP=0.86, systemId=1)>000: 2447 4e47 5341 2c41 2c33 2c34 362c 3231  | b'$GNGSA,A,3,46,21' |
016: 2c34 342c 3234 2c31 382c 3130 2c31 322c  | b',44,24,18,10,12,' |
032: 3233 2c31 352c 3332 2c2c 2c31 2e30 322c  | b'23,15,32,,,1.02,' |
048: 302e 3535 2c30 2e38 362c 312a 3034 0d0a  | b'0.55,0.86,1*04\r\n' |
<NMEA(GNGSA, opMode=A, navMode=3, svid_01=87, svid_02=85, svid_03=80, svid_04=71, svid_05=73, svid_06=70, svid_07=79, svid_08=, svid_09=, svid_10=, svid_11=, svid_12=, PDOP=1.02, HDOP=0.55, VDOP=0.86, systemId=2)>000: 2447 4e47 5341 2c41 2c33 2c38 372c 3835  | b'$GNGSA,A,3,87,85' |
016: 2c38 302c 3731 2c37 332c 3730 2c37 392c  | b',80,71,73,70,79,' |
032: 2c2c 2c2c 2c31 2e30 322c 302e 3535 2c30  | b',,,,,1.02,0.55,0' |
048: 2e38 362c 322a 3045 0d0a                 | b'.86,2*0E\r\n' |
<NMEA(GNGSA, opMode=A, navMode=3, svid_01=36, svid_02=5, svid_03=31, svid_04=34, svid_05=4, svid_06=9, svid_07=, svid_08=, svid_09=, svid_10=, svid_11=, svid_12=, PDOP=1.02, HDOP=0.55, VDOP=0.86, systemId=3)>000: 2447 4e47 5341 2c41 2c33 2c33 362c 3035  | b'$GNGSA,A,3,36,05' |
016: 2c33 312c 3334 2c30 342c 3039 2c2c 2c2c  | b',31,34,04,09,,,,' |
032: 2c2c 2c31 2e30 322c 302e 3535 2c30 2e38  | b',,,1.02,0.55,0.8' |
048: 362c 332a 3036 0d0a                      | b'6,3*06\r\n' |
<NMEA(GNGSA, opMode=A, navMode=3, svid_01=37, svid_02=32, svid_03=29, svid_04=20, svid_05=23, svid_06=35, svid_07=, svid_08=, svid_09=, svid_10=, svid_11=, svid_12=, PDOP=1.02, HDOP=0.55, VDOP=0.86, systemId=4)>000: 2447 4e47 5341 2c41 2c33 2c33 372c 3332  | b'$GNGSA,A,3,37,32' |
016: 2c32 392c 3230 2c32 332c 3335 2c2c 2c2c  | b',29,20,23,35,,,,' |
032: 2c2c 2c31 2e30 322c 302e 3535 2c30 2e38  | b',,,1.02,0.55,0.8' |
048: 362c 342a 3032 0d0a                      | b'6,4*02\r\n' |
<NMEA(GPGSV, numMsg=4, msgNum=3, numSV=13, svid_01=25, elv_01=6.0, az_01=153, cno_01=34, svid_02=28, elv_02=6.0, az_02=212, cno_02=34, svid_03=32, elv_03=36.0, az_03=270, cno_03=45, svid_04=44, elv_04=23.0, az_04=235, cno_04=42, signalID=1)>000: 2447 5047 5356 2c34 2c33 2c31 332c 3235  | b'$GPGSV,4,3,13,25' |
016: 2c30 362c 3135 332c 3334 2c32 382c 3036  | b',06,153,34,28,06' |
032: 2c32 3132 2c33 342c 3332 2c33 362c 3237  | b',212,34,32,36,27' |
048: 302c 3435 2c34 342c 3233 2c32 3335 2c34  | b'0,45,44,23,235,4' |
064: 322c 312a 3639 0d0a                      | b'2,1*69\r\n' |
<NMEA(GPGSV, numMsg=4, msgNum=4, numSV=13, svid_01=46, elv_01=15.0, az_01=246, cno_01=36, signalID=1)>000: 2447 5047 5356 2c34 2c34 2c31 332c 3436  | b'$GPGSV,4,4,13,46' |
016: 2c31 352c 3234 362c 3336 2c31 2a35 350d  | b',15,246,36,1*55\r' |
032: 0a                                       | b'\n' |
<NMEA(GPGSV, numMsg=3, msgNum=2, numSV=9, svid_01=23, elv_01=71.0, az_01=124, cno_01=43, svid_02=24, elv_02=50.0, az_02=60, cno_02=42, svid_03=25, elv_03=6.0, az_03=153, cno_03=28, svid_04=28, elv_04=6.0, az_04=212, cno_04=27, signalID=6)>000: 2447 5047 5356 2c33 2c32 2c30 392c 3233  | b'$GPGSV,3,2,09,23' |
016: 2c37 312c 3132 342c 3433 2c32 342c 3530  | b',71,124,43,24,50' |
032: 2c30 3630 2c34 322c 3235 2c30 362c 3135  | b',060,42,25,06,15' |
048: 332c 3238 2c32 382c 3036 2c32 3132 2c32  | b'3,28,28,06,212,2' |
064: 372c 362a 3642 0d0a                      | b'7,6*6B\r\n' |
<NMEA(GPGSV, numMsg=3, msgNum=3, numSV=9, svid_01=32, elv_01=36.0, az_01=270, cno_01=38, signalID=6)>000: 2447 5047 5356 2c33 2c33 2c30 392c 3332  | b'$GPGSV,3,3,09,32' |
016: 2c33 362c 3237 302c 3338 2c36 2a35 300d  | b',36,270,38,6*50\r' |
032: 0a                                       | b'\n' |
<NMEA(GPGSV, numMsg=1, msgNum=1, numSV=1, svid_01=22, elv_01=0.0, az_01=20, cno_01=, signalID=0)>000: 2447 5047 5356 2c31 2c31 2c30 312c 3232  | b'$GPGSV,1,1,01,22' |
016: 2c30 302c 3032 302c 2c30 2a35 360d 0a    | b',00,020,,0*56\r\n' |
<NMEA(GLGSV, numMsg=3, msgNum=1, numSV=10, svid_01=69, elv_01=10.0, az_01=88, cno_01=36, svid_02=70, elv_02=60.0, az_02=38, cno_02=40, svid_03=71, elv_03=42.0, az_03=307, cno_03=50, svid_04=73, elv_04=25.0, az_04=159, cno_04=44, signalID=1)>000: 2447 4c47 5356 2c33 2c31 2c31 302c 3639  | b'$GLGSV,3,1,10,69' |
016: 2c31 302c 3038 382c 3336 2c37 302c 3630  | b',10,088,36,70,60' |
032: 2c30 3338 2c34 302c 3731 2c34 322c 3330  | b',038,40,71,42,30' |
048: 372c 3530 2c37 332c 3235 2c31 3539 2c34  | b'7,50,73,25,159,4' |
064: 342c 312a 3731 0d0a                      | b'4,1*71\r\n' |
<NMEA(GLGSV, numMsg=3, msgNum=2, numSV=10, svid_01=79, elv_01=22.0, az_01=32, cno_01=45, svid_02=80, elv_02=49.0, az_02=92, cno_02=49, svid_03=85, elv_03=18.0, az_03=223, cno_03=41, svid_04=86, elv_04=36.0, az_04=274, cno_04=47, signalID=1)>000: 2447 4c47 5356 2c33 2c32 2c31 302c 3739  | b'$GLGSV,3,2,10,79' |
016: 2c32 322c 3033 322c 3435 2c38 302c 3439  | b',22,032,45,80,49' |
032: 2c30 3932 2c34 392c 3835 2c31 382c 3232  | b',092,49,85,18,22' |
048: 332c 3431 2c38 362c 3336 2c32 3734 2c34  | b'3,41,86,36,274,4' |
064: 372c 312a 3745 0d0a                      | b'7,1*7E\r\n' |
<NMEA(GLGSV, numMsg=3, msgNum=3, numSV=10, svid_01=87, elv_01=17.0, az_01=333, cno_01=39, svid_02=, elv_02=, az_02=, cno_02=43, signalID=1)>000: 2447 4c47 5356 2c33 2c33 2c31 302c 3837  | b'$GLGSV,3,3,10,87' |
016: 2c31 372c 3333 332c 3339 2c2c 2c2c 3433  | b',17,333,39,,,,43' |
032: 2c31 2a34 450d 0a                        | b',1*4E\r\n' |
<NMEA(GLGSV, numMsg=2, msgNum=1, numSV=6, svid_01=71, elv_01=42.0, az_01=307, cno_01=37, svid_02=73, elv_02=25.0, az_02=159, cno_02=32, svid_03=79, elv_03=22.0, az_03=32, cno_03=35, svid_04=80, elv_04=49.0, az_04=92, cno_04=40, signalID=3)>000: 2447 4c47 5356 2c32 2c31 2c30 362c 3731  | b'$GLGSV,2,1,06,71' |
016: 2c34 322c 3330 372c 3337 2c37 332c 3235  | b',42,307,37,73,25' |
032: 2c31 3539 2c33 322c 3739 2c32 322c 3033  | b',159,32,79,22,03' |
048: 322c 3335 2c38 302c 3439 2c30 3932 2c34  | b'2,35,80,49,092,4' |
064: 302c 332a 3733 0d0a                      | b'0,3*73\r\n' |
<NMEA(GLGSV, numMsg=2, msgNum=2, numSV=6, svid_01=85, elv_01=18.0, az_01=223, cno_01=31, svid_02=86, elv_02=36.0, az_02=274, cno_02=36, signalID=3)>000: 2447 4c47 5356 2c32 2c32 2c30 362c 3835  | b'$GLGSV,2,2,06,85' |
016: 2c31 382c 3232 332c 3331 2c38 362c 3336  | b',18,223,31,86,36' |
032: 2c32 3734 2c33 362c 332a 3736 0d0a       | b',274,36,3*76\r\n' |
<NMEA(GLGSV, numMsg=1, msgNum=1, numSV=1, svid_01=72, elv_01=1.0, az_01=284, cno_01=, signalID=0)>000: 2447 4c47 5356 2c31 2c31 2c30 312c 3732  | b'$GLGSV,1,1,01,72' |
016: 2c30 312c 3238 342c 2c30 2a34 320d 0a    | b',01,284,,0*42\r\n' |
<NMEA(GAGSV, numMsg=3, msgNum=1, numSV=9, svid_01=4, elv_01=21.0, az_01=72, cno_01=35, svid_02=5, elv_02=47.0, az_02=274, cno_02=40, svid_03=9, elv_03=69.0, az_03=40, cno_03=42, svid_04=11, elv_04=7.0, az_04=178, cno_04=20, signalID=2)>000: 2447 4147 5356 2c33 2c31 2c30 392c 3034  | b'$GAGSV,3,1,09,04' |
016: 2c32 312c 3037 322c 3335 2c30 352c 3437  | b',21,072,35,05,47' |
032: 2c32 3734 2c34 302c 3039 2c36 392c 3034  | b',274,40,09,69,04' |
048: 302c 3432 2c31 312c 3037 2c31 3738 2c32  | b'0,42,11,07,178,2' |
064: 302c 322a 3735 0d0a                      | b'0,2*75\r\n' |
<NMEA(GAGSV, numMsg=3, msgNum=2, numSV=9, svid_01=15, elv_01=7.0, az_01=331, cno_01=31, svid_02=24, elv_02=8.0, az_02=152, cno_02=30, svid_03=31, elv_03=25.0, az_03=105, cno_03=38, svid_04=34, elv_04=41.0, az_04=291, cno_04=39, signalID=2)>000: 2447 4147 5356 2c33 2c32 2c30 392c 3135  | b'$GAGSV,3,2,09,15' |
016: 2c30 372c 3333 312c 3331 2c32 342c 3038  | b',07,331,31,24,08' |
032: 2c31 3532 2c33 302c 3331 2c32 352c 3130  | b',152,30,31,25,10' |
048: 352c 3338 2c33 342c 3431 2c32 3931 2c33  | b'5,38,34,41,291,3' |
064: 392c 322a 3744 0d0a                      | b'9,2*7D\r\n' |
<NMEA(GAGSV, numMsg=3, msgNum=3, numSV=9, svid_01=36, elv_01=41.0, az_01=217, cno_01=37, signalID=2)>000: 2447 4147 5356 2c33 2c33 2c30 392c 3336  | b'$GAGSV,3,3,09,36' |
016: 2c34 312c 3231 372c 3337 2c32 2a34 460d  | b',41,217,37,2*4F\r' |
032: 0a                                       | b'\n' |
<NMEA(GAGSV, numMsg=2, msgNum=1, numSV=8, svid_01=4, elv_01=21.0, az_01=72, cno_01=38, svid_02=5, elv_02=47.0, az_02=274, cno_02=46, svid_03=9, elv_03=69.0, az_03=40, cno_03=48, svid_04=11, elv_04=7.0, az_04=178, cno_04=29, signalID=7)>000: 2447 4147 5356 2c32 2c31 2c30 382c 3034  | b'$GAGSV,2,1,08,04' |
016: 2c32 312c 3037 322c 3338 2c30 352c 3437  | b',21,072,38,05,47' |
032: 2c32 3734 2c34 362c 3039 2c36 392c 3034  | b',274,46,09,69,04' |
048: 302c 3438 2c31 312c 3037 2c31 3738 2c32  | b'0,48,11,07,178,2' |
064: 392c 372a 3738 0d0a                      | b'9,7*78\r\n' |
<NMEA(GAGSV, numMsg=2, msgNum=2, numSV=8, svid_01=24, elv_01=8.0, az_01=152, cno_01=36, svid_02=31, elv_02=25.0, az_02=105, cno_02=41, svid_03=34, elv_03=41.0, az_03=291, cno_03=47, svid_04=36, elv_04=41.0, az_04=217, cno_04=45, signalID=7)>000: 2447 4147 5356 2c32 2c32 2c30 382c 3234  | b'$GAGSV,2,2,08,24' |
016: 2c30 382c 3135 322c 3336 2c33 312c 3235  | b',08,152,36,31,25' |
032: 2c31 3035 2c34 312c 3334 2c34 312c 3239  | b',105,41,34,41,29' |
048: 312c 3437 2c33 362c 3431 2c32 3137 2c34  | b'1,47,36,41,217,4' |
064: 352c 372a 3743 0d0a                      | b'5,7*7C\r\n' |
<NMEA(GBGSV, numMsg=2, msgNum=1, numSV=8, svid_01=20, elv_01=61.0, az_01=311, cno_01=52, svid_02=23, elv_02=40.0, az_02=67, cno_02=48, svid_03=25, elv_03=5.0, az_03=33, cno_03=35, svid_04=29, elv_04=18.0, az_04=261, cno_04=41, signalID=1)>000: 2447 4247 5356 2c32 2c31 2c30 382c 3230  | b'$GBGSV,2,1,08,20' |
016: 2c36 312c 3331 312c 3532 2c32 332c 3430  | b',61,311,52,23,40' |
032: 2c30 3637 2c34 382c 3235 2c30 352c 3033  | b',067,48,25,05,03' |
048: 332c 3335 2c32 392c 3138 2c32 3631 2c34  | b'3,35,29,18,261,4' |
064: 312c 312a 3732 0d0a                      | b'1,1*72\r\n' |
<NMEA(GBGSV, numMsg=2, msgNum=2, numSV=8, svid_01=30, elv_01=3.0, az_01=212, cno_01=30, svid_02=32, elv_02=53.0, az_02=88, cno_02=50, svid_03=35, elv_03=11.0, az_03=316, cno_03=35, svid_04=37, elv_04=45.0, az_04=145, cno_04=47, signalID=1)>000: 2447 4247 5356 2c32 2c32 2c30 382c 3330  | b'$GBGSV,2,2,08,30' |
016: 2c30 332c 3231 322c 3330 2c33 322c 3533  | b',03,212,30,32,53' |
032: 2c30 3838 2c35 302c 3335 2c31 312c 3331  | b',088,50,35,11,31' |
048: 362c 3335 2c33 372c 3435 2c31 3435 2c34  | b'6,35,37,45,145,4' |
064: 372c 312a 3743 0d0a                      | b'7,1*7C\r\n' |
<NMEA(GBGSV, numMsg=2, msgNum=1, numSV=6, svid_01=19, elv_01=14.0, az_01=291, cno_01=10, svid_02=20, elv_02=61.0, az_02=311, cno_02=8, svid_03=25, elv_03=5.0, az_03=33, cno_03=9, svid_04=32, elv_04=53.0, az_04=88, cno_04=7, signalID=3)>000: 2447 4247 5356 2c32 2c31 2c30 362c 3139  | b'$GBGSV,2,1,06,19' |
016: 2c31 342c 3239 312c 3130 2c32 302c 3631  | b',14,291,10,20,61' |
032: 2c33 3131 2c30 382c 3235 2c30 352c 3033  | b',311,08,25,05,03' |
048: 332c 3039 2c33 322c 3533 2c30 3838 2c30  | b'3,09,32,53,088,0' |
064: 372c 332a 3732 0d0a                      | b'7,3*72\r\n' |
<NMEA(GBGSV, numMsg=2, msgNum=2, numSV=6, svid_01=35, elv_01=11.0, az_01=316, cno_01=8, svid_02=37, elv_02=45.0, az_02=145, cno_02=8, signalID=3)>000: 2447 4247 5356 2c32 2c32 2c30 362c 3335  | b'$GBGSV,2,2,06,35' |
016: 2c31 312c 3331 362c 3038 2c33 372c 3435  | b',11,316,08,37,45' |
032: 2c31 3435 2c30 382c 332a 3735 0d0a       | b',145,08,3*75\r\n' |
<NMEA(GNGLL, lat=43.88277752, NS=N, lon=-72.1581649217, EW=W, time=19:34:34.750000, status=A, posMode=D)>000: 2447 4e47 4c4c 2c34 3335 322e 3936 3636  | b'$GNGLL,4352.9666' |
016: 3531 322c 4e2c 3037 3230 392e 3438 3938  | b'512,N,07209.4898' |
032: 3935 332c 572c 3139 3334 3334 2e37 352c  | b'953,W,193434.75,' |
048: 412c 442a 3644 0d0a                      | b'A,D*6D\r\n' |
<NMEA(GNRMC, time=19:34:35, status=A, lat=43.8827775133, NS=N, lon=-72.1581649133, EW=W, spd=0.005, cog=, date=2023-09-05, mv=, mvEW=, posMode=R, navStatus=V)>000: 2447 4e52 4d43 2c31 3933 3433 352e 3030  | b'$GNRMC,193435.00' |
016: 2c41 2c34 3335 322e 3936 3636 3530 382c  | b',A,4352.9666508,' |
032: 4e2c 3037 3230 392e 3438 3938 3934 382c  | b'N,07209.4898948,' |
048: 572c 302e 3030 352c 2c30 3530 3932 332c  | b'W,0.005,,050923,' |
064: 2c2c 522c 562a 3132 0d0a                 | b',,R,V*12\r\n' |
<NMEA(GNVTG, cogt=, cogtUnit=T, cogm=, cogmUnit=M, sogn=0.005, sognUnit=N, sogk=0.01, sogkUnit=K, posMode=D)>000: 2447 4e56 5447 2c2c 542c 2c4d 2c30 2e30  | b'$GNVTG,,T,,M,0.0' |
016: 3035 2c4e 2c30 2e30 3130 2c4b 2c44 2a33  | b'05,N,0.010,K,D*3' |
032: 430d 0a                                  | b'C\r\n' |
<NMEA(GNGGA, time=19:34:35, lat=43.8827775133, NS=N, lon=-72.1581649133, EW=W, quality=4, numSV=12, HDOP=0.55, alt=142.418, altUnit=M, sep=-32.547, sepUnit=M, diffAge=, diffStation=0)>000: 2447 4e47 4741 2c31 3933 3433 352e 3030  | b'$GNGGA,193435.00' |
016: 2c34 3335 322e 3936 3636 3530 382c 4e2c  | b',4352.9666508,N,' |
032: 3037 3230 392e 3438 3938 3934 382c 572c  | b'07209.4898948,W,' |
048: 342c 3132 2c30 2e35 352c 3134 322e 3431  | b'4,12,0.55,142.41' |
064: 382c 4d2c 2d33 322e 3534 372c 4d2c 2c30  | b'8,M,-32.547,M,,0' |
080: 3030 302a 3739 0d0a                      | b'000*79\r\n' |
<NMEA(GNGSA, opMode=A, navMode=3, svid_01=46, svid_02=21, svid_03=44, svid_04=24, svid_05=18, svid_06=10, svid_07=12, svid_08=23, svid_09=15, svid_10=32, svid_11=, svid_12=, PDOP=1.02, HDOP=0.55, VDOP=0.86, systemId=1)>000: 2447 4e47 5341 2c41 2c33 2c34 362c 3231  | b'$GNGSA,A,3,46,21' |
016: 2c34 342c 3234 2c31 382c 3130 2c31 322c  | b',44,24,18,10,12,' |
032: 3233 2c31 352c 3332 2c2c 2c31 2e30 322c  | b'23,15,32,,,1.02,' |
048: 302e 3535 2c30 2e38 362c 312a 3034 0d0a  | b'0.55,0.86,1*04\r\n' |
<NMEA(GNGSA, opMode=A, navMode=3, svid_01=87, svid_02=85, svid_03=80, svid_04=71, svid_05=73, svid_06=70, svid_07=79, svid_08=, svid_09=, svid_10=, svid_11=, svid_12=, PDOP=1.02, HDOP=0.55, VDOP=0.86, systemId=2)>000: 2447 4e47 5341 2c41 2c33 2c38 372c 3835  | b'$GNGSA,A,3,87,85' |
016: 2c38 302c 3731 2c37 332c 3730 2c37 392c  | b',80,71,73,70,79,' |
032: 2c2c 2c2c 2c31 2e30 322c 302e 3535 2c30  | b',,,,,1.02,0.55,0' |
048: 2e38 362c 322a 3045 0d0a                 | b'.86,2*0E\r\n' |
<NMEA(GNGSA, opMode=A, navMode=3, svid_01=36, svid_02=5, svid_03=31, svid_04=34, svid_05=4, svid_06=9, svid_07=, svid_08=, svid_09=, svid_10=, svid_11=, svid_12=, PDOP=1.02, HDOP=0.55, VDOP=0.86, systemId=3)>000: 2447 4e47 5341 2c41 2c33 2c33 362c 3035  | b'$GNGSA,A,3,36,05' |
016: 2c33 312c 3334 2c30 342c 3039 2c2c 2c2c  | b',31,34,04,09,,,,' |
032: 2c2c 2c31 2e30 322c 302e 3535 2c30 2e38  | b',,,1.02,0.55,0.8' |
048: 362c 332a 3036 0d0a                      | b'6,3*06\r\n' |
<NMEA(GNGSA, opMode=A, navMode=3, svid_01=37, svid_02=32, svid_03=29, svid_04=20, svid_05=23, svid_06=35, svid_07=, svid_08=, svid_09=, svid_10=, svid_11=, svid_12=, PDOP=1.02, HDOP=0.55, VDOP=0.86, systemId=4)>000: 2447 4e47 5341 2c41 2c33 2c33 372c 3332  | b'$GNGSA,A,3,37,32' |
016: 2c32 392c 3230 2c32 332c 3335 2c2c 2c2c  | b',29,20,23,35,,,,' |
032: 2c2c 2c31 2e30 322c 302e 3535 2c30 2e38  | b',,,1.02,0.55,0.8' |
048: 362c 342a 3032 0d0a                      | b'6,4*02\r\n' |
<NMEA(GPGSV, numMsg=4, msgNum=1, numSV=13, svid_01=2, elv_01=5.0, az_01=330, cno_01=33, svid_02=10, elv_02=67.0, az_02=312, cno_02=52, svid_03=12, elv_03=17.0, az_03=114, cno_03=39, svid_04=15, elv_04=19.0, az_04=79, cno_04=39, signalID=1)>000: 2447 5047 5356 2c34 2c31 2c31 332c 3032  | b'$GPGSV,4,1,13,02' |
016: 2c30 352c 3333 302c 3333 2c31 302c 3637  | b',05,330,33,10,67' |
032: 2c33 3132 2c35 322c 3132 2c31 372c 3131  | b',312,52,12,17,11' |
048: 342c 3339 2c31 352c 3139 2c30 3739 2c33  | b'4,39,15,19,079,3' |
064: 392c 312a 3630 0d0a                      | b'9,1*60\r\n' |
<NMEA(GPGSV, numMsg=4, msgNum=2, numSV=13, svid_01=18, elv_01=22.0, az_01=188, cno_01=43, svid_02=21, elv_02=11.0, az_02=324, cno_02=37, svid_03=23, elv_03=71.0, az_03=124, cno_03=48, svid_04=24, elv_04=50.0, az_04=60, cno_04=48, signalID=1)>000: 2447 5047 5356 2c34 2c32 2c31 332c 3138  | b'$GPGSV,4,2,13,18' |
016: 2c32 322c 3138 382c 3433 2c32 312c 3131  | b',22,188,43,21,11' |
032: 2c33 3234 2c33 372c 3233 2c37 312c 3132  | b',324,37,23,71,12' |
048: 342c 3438 2c32 342c 3530 2c30 3630 2c34  | b'4,48,24,50,060,4' |
064: 382c 312a 3638 0d0a                      | b'8,1*68\r\n' |
<NMEA(GPGSV, numMsg=4, msgNum=3, numSV=13, svid_01=25, elv_01=6.0, az_01=153, cno_01=34, svid_02=28, elv_02=6.0, az_02=212, cno_02=34, svid_03=32, elv_03=36.0, az_03=270, cno_03=45, svid_04=44, elv_04=23.0, az_04=235, cno_04=42, signalID=1)>000: 2447 5047 5356 2c34 2c33 2c31 332c 3235  | b'$GPGSV,4,3,13,25' |
016: 2c30 362c 3135 332c 3334 2c32 382c 3036  | b',06,153,34,28,06' |
032: 2c32 3132 2c33 342c 3332 2c33 362c 3237  | b',212,34,32,36,27' |
048: 302c 3435 2c34 342c 3233 2c32 3335 2c34  | b'0,45,44,23,235,4' |
064: 322c 312a 3639 0d0a                      | b'2,1*69\r\n' |
<NMEA(GPGSV, numMsg=4, msgNum=4, numSV=13, svid_01=46, elv_01=15.0, az_01=246, cno_01=36, signalID=1)>000: 2447 5047 5356 2c34 2c34 2c31 332c 3436  | b'$GPGSV,4,4,13,46' |
016: 2c31 352c 3234 362c 3336 2c31 2a35 350d  | b',15,246,36,1*55\r' |
032: 0a                                       | b'\n' |
<NMEA(GPGSV, numMsg=3, msgNum=1, numSV=9, svid_01=10, elv_01=67.0, az_01=312, cno_01=42, svid_02=12, elv_02=17.0, az_02=114, cno_02=34, svid_03=15, elv_03=19.0, az_03=79, cno_03=34, svid_04=18, elv_04=22.0, az_04=188, cno_04=33, signalID=6)>000: 2447 5047 5356 2c33 2c31 2c30 392c 3130  | b'$GPGSV,3,1,09,10' |
016: 2c36 372c 3331 322c 3432 2c31 322c 3137  | b',67,312,42,12,17' |
032: 2c31 3134 2c33 342c 3135 2c31 392c 3037  | b',114,34,15,19,07' |
048: 392c 3334 2c31 382c 3232 2c31 3838 2c33  | b'9,34,18,22,188,3' |
064: 332c 362a 3635 0d0a                      | b'3,6*65\r\n' |
<NMEA(GPGSV, numMsg=3, msgNum=2, numSV=9, svid_01=23, elv_01=71.0, az_01=124, cno_01=43, svid_02=24, elv_02=50.0, az_02=60, cno_02=42, svid_03=25, elv_03=6.0, az_03=153, cno_03=28, svid_04=28, elv_04=6.0, az_04=212, cno_04=26, signalID=6)>000: 2447 5047 5356 2c33 2c32 2c30 392c 3233  | b'$GPGSV,3,2,09,23' |
016: 2c37 312c 3132 342c 3433 2c32 342c 3530  | b',71,124,43,24,50' |
032: 2c30 3630 2c34 322c 3235 2c30 362c 3135  | b',060,42,25,06,15' |
048: 332c 3238 2c32 382c 3036 2c32 3132 2c32  | b'3,28,28,06,212,2' |
064: 362c 362a 3641 0d0a                      | b'6,6*6A\r\n' |
<NMEA(GPGSV, numMsg=3, msgNum=3, numSV=9, svid_01=32, elv_01=36.0, az_01=270, cno_01=38, signalID=6)>000: 2447 5047 5356 2c33 2c33 2c30 392c 3332  | b'$GPGSV,3,3,09,32' |
016: 2c33 362c 3237 302c 3338 2c36 2a35 300d  | b',36,270,38,6*50\r' |
032: 0a                                       | b'\n' |
<NMEA(GPGSV, numMsg=1, msgNum=1, numSV=1, svid_01=22, elv_01=0.0, az_01=20, cno_01=, signalID=0)>000: 2447 5047 5356 2c31 2c31 2c30 312c 3232  | b'$GPGSV,1,1,01,22' |
016: 2c30 302c 3032 302c 2c30 2a35 360d 0a    | b',00,020,,0*56\r\n' |
<NMEA(GLGSV, numMsg=3, msgNum=1, numSV=10, svid_01=69, elv_01=10.0, az_01=88, cno_01=36, svid_02=70, elv_02=60.0, az_02=38, cno_02=40, svid_03=71, elv_03=42.0, az_03=307, cno_03=50, svid_04=73, elv_04=25.0, az_04=159, cno_04=44, signalID=1)>000: 2447 4c47 5356 2c33 2c31 2c31 302c 3639  | b'$GLGSV,3,1,10,69' |
016: 2c31 302c 3038 382c 3336 2c37 302c 3630  | b',10,088,36,70,60' |
032: 2c30 3338 2c34 302c 3731 2c34 322c 3330  | b',038,40,71,42,30' |
048: 372c 3530 2c37 332c 3235 2c31 3539 2c34  | b'7,50,73,25,159,4' |
064: 342c 312a 3731 0d0a                      | b'4,1*71\r\n' |
<NMEA(GLGSV, numMsg=3, msgNum=2, numSV=10, svid_01=79, elv_01=22.0, az_01=32, cno_01=45, svid_02=80, elv_02=49.0, az_02=92, cno_02=49, svid_03=85, elv_03=18.0, az_03=223, cno_03=42, svid_04=86, elv_04=36.0, az_04=274, cno_04=47, signalID=1)>000: 2447 4c47 5356 2c33 2c32 2c31 302c 3739  | b'$GLGSV,3,2,10,79' |
016: 2c32 322c 3033 322c 3435 2c38 302c 3439  | b',22,032,45,80,49' |
032: 2c30 3932 2c34 392c 3835 2c31 382c 3232  | b',092,49,85,18,22' |
048: 332c 3432 2c38 362c 3336 2c32 3734 2c34  | b'3,42,86,36,274,4' |
064: 372c 312a 3744 0d0a                      | b'7,1*7D\r\n' |
<NMEA(GLGSV, numMsg=3, msgNum=3, numSV=10, svid_01=87, elv_01=17.0, az_01=333, cno_01=39, svid_02=, elv_02=, az_02=, cno_02=43, signalID=1)>000: 2447 4c47 5356 2c33 2c33 2c31 302c 3837  | b'$GLGSV,3,3,10,87' |
016: 2c31 372c 3333 332c 3339 2c2c 2c2c 3433  | b',17,333,39,,,,43' |
032: 2c31 2a34 450d 0a                        | b',1*4E\r\n' |
<NMEA(GLGSV, numMsg=2, msgNum=1, numSV=6, svid_01=71, elv_01=42.0, az_01=307, cno_01=37, svid_02=73, elv_02=25.0, az_02=159, cno_02=32, svid_03=79, elv_03=22.0, az_03=32, cno_03=35, svid_04=80, elv_04=49.0, az_04=92, cno_04=40, signalID=3)>000: 2447 4c47 5356 2c32 2c31 2c30 362c 3731  | b'$GLGSV,2,1,06,71' |
016: 2c34 322c 3330 372c 3337 2c37 332c 3235  | b',42,307,37,73,25' |
032: 2c31 3539 2c33 322c 3739 2c32 322c 3033  | b',159,32,79,22,03' |
048: 322c 3335 2c38 302c 3439 2c30 3932 2c34  | b'2,35,80,49,092,4' |
064: 302c 332a 3733 0d0a                      | b'0,3*73\r\n' |
<NMEA(GLGSV, numMsg=2, msgNum=2, numSV=6, svid_01=85, elv_01=18.0, az_01=223, cno_01=32, svid_02=86, elv_02=36.0, az_02=274, cno_02=37, signalID=3)>000: 2447 4c47 5356 2c32 2c32 2c30 362c 3835  | b'$GLGSV,2,2,06,85' |
016: 2c31 382c 3232 332c 3332 2c38 362c 3336  | b',18,223,32,86,36' |
032: 2c32 3734 2c33 372c 332a 3734 0d0a       | b',274,37,3*74\r\n' |
<NMEA(GNTXT, numMsg=1, msgNum=1, msgType=0, text=txbuf alloc)>000: 2447 4e54 5854 2c30 312c 3031 2c30 302c  | b'$GNTXT,01,01,00,' |
016: 7478 6275 6620 616c 6c6f 632a 3631 0d0a  | b'txbuf alloc*61\r\n' |
<NMEA(GNRMC, time=19:34:35.250000, status=A, lat=43.8827775167, NS=N, lon=-72.1581648933, EW=W, spd=0.009, cog=, date=2023-09-05, mv=, mvEW=, posMode=R, navStatus=V)>000: 2447 4e52 4d43 2c31 3933 3433 352e 3235  | b'$GNRMC,193435.25' |
016: 2c41 2c34 3335 322e 3936 3636 3531 302c  | b',A,4352.9666510,' |
032: 4e2c 3037 3230 392e 3438 3938 3933 362c  | b'N,07209.4898936,' |
048: 572c 302e 3030 392c 2c30 3530 3932 332c  | b'W,0.009,,050923,' |
064: 2c2c 522c 562a 3139 0d0a                 | b',,R,V*19\r\n' |
<NMEA(GNVTG, cogt=, cogtUnit=T, cogm=, cogmUnit=M, sogn=0.009, sognUnit=N, sogk=0.016, sogkUnit=K, posMode=D)>000: 2447 4e56 5447 2c2c 542c 2c4d 2c30 2e30  | b'$GNVTG,,T,,M,0.0' |
016: 3039 2c4e 2c30 2e30 3136 2c4b 2c44 2a33  | b'09,N,0.016,K,D*3' |
032: 360d 0a                                  | b'6\r\n' |
<NMEA(GNGGA, time=19:34:35.250000, lat=43.8827775167, NS=N, lon=-72.1581648933, EW=W, quality=4, numSV=12, HDOP=0.55, alt=142.418, altUnit=M, sep=-32.547, sepUnit=M, diffAge=, diffStation=0)>000: 2447 4e47 4741 2c31 3933 3433 352e 3235  | b'$GNGGA,193435.25' |
016: 2c34 3335 322e 3936 3636 3531 302c 4e2c  | b',4352.9666510,N,' |
032: 3037 3230 392e 3438 3938 3933 362c 572c  | b'07209.4898936,W,' |
048: 342c 3132 2c30 2e35 352c 3134 322e 3431  | b'4,12,0.55,142.41' |
064: 382c 4d2c 2d33 322e 3534 372c 4d2c 2c30  | b'8,M,-32.547,M,,0' |
080: 3030 302a 3745 0d0a                      | b'000*7E\r\n' |
<NMEA(GNGSA, opMode=A, navMode=3, svid_01=46, svid_02=21, svid_03=44, svid_04=24, svid_05=18, svid_06=10, svid_07=12, svid_08=23, svid_09=15, svid_10=32, svid_11=, svid_12=, PDOP=1.02, HDOP=0.55, VDOP=0.86, systemId=1)>000: 2447 4e47 5341 2c41 2c33 2c34 362c 3231  | b'$GNGSA,A,3,46,21' |
016: 2c34 342c 3234 2c31 382c 3130 2c31 322c  | b',44,24,18,10,12,' |
032: 3233 2c31 352c 3332 2c2c 2c31 2e30 322c  | b'23,15,32,,,1.02,' |
048: 302e 3535 2c30 2e38 362c 312a 3034 0d0a  | b'0.55,0.86,1*04\r\n' |
<NMEA(GNRMC, time=19:34:35.500000, status=A, lat=43.8827776267, NS=N, lon=-72.158164905, EW=W, spd=0.009, cog=, date=2023-09-05, mv=, mvEW=, posMode=R, navStatus=V)>000: 2447 4e52 4d43 2c31 3933 3433 352e 3530  | b'$GNRMC,193435.50' |
016: 2c41 2c34 3335 322e 3936 3636 3537 362c  | b',A,4352.9666576,' |
032: 4e2c 3037 3230 392e 3438 3938 3934 332c  | b'N,07209.4898943,' |
048: 572c 302e 3030 392c 2c30 3530 3932 332c  | b'W,0.009,,050923,' |
064: 2c2c 522c 562a 3139 0d0a                 | b',,R,V*19\r\n' |
<NMEA(GNVTG, cogt=, cogtUnit=T, cogm=, cogmUnit=M, sogn=0.009, sognUnit=N, sogk=0.018, sogkUnit=K, posMode=D)>000: 2447 4e56 5447 2c2c 542c 2c4d 2c30 2e30  | b'$GNVTG,,T,,M,0.0' |
016: 3039 2c4e 2c30 2e30 3138 2c4b 2c44 2a33  | b'09,N,0.018,K,D*3' |
032: 380d 0a                                  | b'8\r\n' |
<NMEA(GNGGA, time=19:34:35.500000, lat=43.8827776267, NS=N, lon=-72.158164905, EW=W, quality=4, numSV=12, HDOP=0.58, alt=142.416, altUnit=M, sep=-32.547, sepUnit=M, diffAge=, diffStation=0)>000: 2447 4e47 4741 2c31 3933 3433 352e 3530  | b'$GNGGA,193435.50' |
016: 2c34 3335 322e 3936 3636 3537 362c 4e2c  | b',4352.9666576,N,' |
032: 3037 3230 392e 3438 3938 3934 332c 572c  | b'07209.4898943,W,' |
048: 342c 3132 2c30 2e35 382c 3134 322e 3431  | b'4,12,0.58,142.41' |
064: 362c 4d2c 2d33 322e 3534 372c 4d2c 2c30  | b'6,M,-32.547,M,,0' |
080: 3030 302a 3744 0d0a                      | b'000*7D\r\n' |
<NMEA(GNGSA, opMode=A, navMode=3, svid_01=46, svid_02=21, svid_03=44, svid_04=24, svid_05=18, svid_06=10, svid_07=12, svid_08=23, svid_09=15, svid_10=32, svid_11=, svid_12=, PDOP=1.05, HDOP=0.58, VDOP=0.88, systemId=1)>000: 2447 4e47 5341 2c41 2c33 2c34 362c 3231  | b'$GNGSA,A,3,46,21' |
016: 2c34 342c 3234 2c31 382c 3130 2c31 322c  | b',44,24,18,10,12,' |
032: 3233 2c31 352c 3332 2c2c 2c31 2e30 352c  | b'23,15,32,,,1.05,' |
048: 302e 3538 2c30 2e38 382c 312a 3030 0d0a  | b'0.58,0.88,1*00\r\n' |
<NMEA(GNGSA, opMode=A, navMode=3, svid_01=87, svid_02=85, svid_03=80, svid_04=71, svid_05=73, svid_06=70, svid_07=79, svid_08=, svid_09=, svid_10=, svid_11=, svid_12=, PDOP=1.05, HDOP=0.58, VDOP=0.88, systemId=2)>000: 2447 4e47 5341 2c41 2c33 2c38 372c 3835  | b'$GNGSA,A,3,87,85' |
016: 2c38 302c 3731 2c37 332c 3730 2c37 392c  | b',80,71,73,70,79,' |
032: 2c2c 2c2c 2c31 2e30 352c 302e 3538 2c30  | b',,,,,1.05,0.58,0' |
048: 2e38 382c 322a 3041 0d0a                 | b'.88,2*0A\r\n' |
<NMEA(GNGSA, opMode=A, navMode=3, svid_01=36, svid_02=5, svid_03=31, svid_04=34, svid_05=4, svid_06=9, svid_07=, svid_08=, svid_09=, svid_10=, svid_11=, svid_12=, PDOP=1.05, HDOP=0.58, VDOP=0.88, systemId=3)>000: 2447 4e47 5341 2c41 2c33 2c33 362c 3035  | b'$GNGSA,A,3,36,05' |
016: 2c33 312c 3334 2c30 342c 3039 2c2c 2c2c  | b',31,34,04,09,,,,' |
032: 2c2c 2c31 2e30 352c 302e 3538 2c30 2e38  | b',,,1.05,0.58,0.8' |
048: 382c 332a 3032 0d0a                      | b'8,3*02\r\n' |
<NMEA(GPGSV, numMsg=4, msgNum=2, numSV=13, svid_01=18, elv_01=22.0, az_01=188, cno_01=43, svid_02=21, elv_02=11.0, az_02=324, cno_02=37, svid_03=23, elv_03=71.0, az_03=124, cno_03=48, svid_04=24, elv_04=50.0, az_04=60, cno_04=48, signalID=1)>000: 2447 5047 5356 2c34 2c32 2c31 332c 3138  | b'$GPGSV,4,2,13,18' |
016: 2c32 322c 3138 382c 3433 2c32 312c 3131  | b',22,188,43,21,11' |
032: 2c33 3234 2c33 372c 3233 2c37 312c 3132  | b',324,37,23,71,12' |
048: 342c 3438 2c32 342c 3530 2c30 3630 2c34  | b'4,48,24,50,060,4' |
064: 382c 312a 3638 0d0a                      | b'8,1*68\r\n' |
<NMEA(GPGSV, numMsg=4, msgNum=3, numSV=13, svid_01=25, elv_01=6.0, az_01=153, cno_01=34, svid_02=28, elv_02=6.0, az_02=212, cno_02=34, svid_03=32, elv_03=36.0, az_03=270, cno_03=45, svid_04=44, elv_04=23.0, az_04=235, cno_04=42, signalID=1)>000: 2447 5047 5356 2c34 2c33 2c31 332c 3235  | b'$GPGSV,4,3,13,25' |
016: 2c30 362c 3135 332c 3334 2c32 382c 3036  | b',06,153,34,28,06' |
032: 2c32 3132 2c33 342c 3332 2c33 362c 3237  | b',212,34,32,36,27' |
048: 302c 3435 2c34 342c 3233 2c32 3335 2c34  | b'0,45,44,23,235,4' |
064: 322c 312a 3639 0d0a                      | b'2,1*69\r\n' |
<NMEA(GPGSV, numMsg=4, msgNum=4, numSV=13, svid_01=46, elv_01=15.0, az_01=246, cno_01=36, signalID=1)>000: 2447 5047 5356 2c34 2c34 2c31 332c 3436  | b'$GPGSV,4,4,13,46' |
016: 2c31 352c 3234 362c 3336 2c31 2a35 350d  | b',15,246,36,1*55\r' |
032: 0a                                       | b'\n' |
<NMEA(GPGSV, numMsg=3, msgNum=1, numSV=9, svid_01=10, elv_01=67.0, az_01=312, cno_01=42, svid_02=12, elv_02=17.0, az_02=114, cno_02=34, svid_03=15, elv_03=19.0, az_03=79, cno_03=34, svid_04=18, elv_04=22.0, az_04=188, cno_04=33, signalID=6)>000: 2447 5047 5356 2c33 2c31 2c30 392c 3130  | b'$GPGSV,3,1,09,10' |
016: 2c36 372c 3331 322c 3432 2c31 322c 3137  | b',67,312,42,12,17' |
032: 2c31 3134 2c33 342c 3135 2c31 392c 3037  | b',114,34,15,19,07' |
048: 392c 3334 2c31 382c 3232 2c31 3838 2c33  | b'9,34,18,22,188,3' |
064: 332c 362a 3635 0d0a                      | b'3,6*65\r\n' |
<NMEA(GPGSV, numMsg=3, msgNum=2, numSV=9, svid_01=23, elv_01=71.0, az_01=124, cno_01=43, svid_02=24, elv_02=50.0, az_02=60, cno_02=42, svid_03=25, elv_03=6.0, az_03=153, cno_03=28, svid_04=28, elv_04=6.0, az_04=212, cno_04=26, signalID=6)>000: 2447 5047 5356 2c33 2c32 2c30 392c 3233  | b'$GPGSV,3,2,09,23' |
016: 2c37 312c 3132 342c 3433 2c32 342c 3530  | b',71,124,43,24,50' |
032: 2c30 3630 2c34 322c 3235 2c30 362c 3135  | b',060,42,25,06,15' |
048: 332c 3238 2c32 382c 3036 2c32 3132 2c32  | b'3,28,28,06,212,2' |
064: 362c 362a 3641 0d0a                      | b'6,6*6A\r\n' |
<NMEA(GPGSV, numMsg=3, msgNum=3, numSV=9, svid_01=32, elv_01=36.0, az_01=270, cno_01=38, signalID=6)>000: 2447 5047 5356 2c33 2c33 2c30 392c 3332  | b'$GPGSV,3,3,09,32' |
016: 2c33 362c 3237 302c 3338 2c36 2a35 300d  | b',36,270,38,6*50\r' |
032: 0a                                       | b'\n' |
<NMEA(GPGSV, numMsg=1, msgNum=1, numSV=1, svid_01=22, elv_01=0.0, az_01=20, cno_01=, signalID=0)>000: 2447 5047 5356 2c31 2c31 2c30 312c 3232  | b'$GPGSV,1,1,01,22' |
016: 2c30 302c 3032 302c 2c30 2a35 360d 0a    | b',00,020,,0*56\r\n' |
<NMEA(GLGSV, numMsg=3, msgNum=1, numSV=10, svid_01=69, elv_01=10.0, az_01=88, cno_01=36, svid_02=70, elv_02=60.0, az_02=38, cno_02=40, svid_03=71, elv_03=42.0, az_03=307, cno_03=50, svid_04=73, elv_04=25.0, az_04=159, cno_04=44, signalID=1)>000: 2447 4c47 5356 2c33 2c31 2c31 302c 3639  | b'$GLGSV,3,1,10,69' |
016: 2c31 302c 3038 382c 3336 2c37 302c 3630  | b',10,088,36,70,60' |
032: 2c30 3338 2c34 302c 3731 2c34 322c 3330  | b',038,40,71,42,30' |
048: 372c 3530 2c37 332c 3235 2c31 3539 2c34  | b'7,50,73,25,159,4' |
064: 342c 312a 3731 0d0a                      | b'4,1*71\r\n' |
<NMEA(GLGSV, numMsg=3, msgNum=2, numSV=10, svid_01=79, elv_01=22.0, az_01=32, cno_01=45, svid_02=80, elv_02=49.0, az_02=92, cno_02=49, svid_03=85, elv_03=18.0, az_03=223, cno_03=41, svid_04=86, elv_04=36.0, az_04=274, cno_04=47, signalID=1)>000: 2447 4c47 5356 2c33 2c32 2c31 302c 3739  | b'$GLGSV,3,2,10,79' |
016: 2c32 322c 3033 322c 3435 2c38 302c 3439  | b',22,032,45,80,49' |
032: 2c30 3932 2c34 392c 3835 2c31 382c 3232  | b',092,49,85,18,22' |
048: 332c 3431 2c38 362c 3336 2c32 3734 2c34  | b'3,41,86,36,274,4' |
064: 372c 312a 3745 0d0a                      | b'7,1*7E\r\n' |
<NMEA(GLGSV, numMsg=3, msgNum=3, numSV=10, svid_01=87, elv_01=17.0, az_01=333, cno_01=39, svid_02=, elv_02=, az_02=, cno_02=42, signalID=1)>000: 2447 4c47 5356 2c33 2c33 2c31 302c 3837  | b'$GLGSV,3,3,10,87' |
016: 2c31 372c 3333 332c 3339 2c2c 2c2c 3432  | b',17,333,39,,,,42' |
032: 2c31 2a34 460d 0a                        | b',1*4F\r\n' |
<NMEA(GLGSV, numMsg=2, msgNum=1, numSV=6, svid_01=71, elv_01=42.0, az_01=307, cno_01=37, svid_02=73, elv_02=25.0, az_02=159, cno_02=32, svid_03=79, elv_03=22.0, az_03=32, cno_03=35, svid_04=80, elv_04=49.0, az_04=92, cno_04=40, signalID=3)>000: 2447 4c47 5356 2c32 2c31 2c30 362c 3731  | b'$GLGSV,2,1,06,71' |
016: 2c34 322c 3330 372c 3337 2c37 332c 3235  | b',42,307,37,73,25' |
032: 2c31 3539 2c33 322c 3739 2c32 322c 3033  | b',159,32,79,22,03' |
048: 322c 3335 2c38 302c 3439 2c30 3932 2c34  | b'2,35,80,49,092,4' |
064: 302c 332a 3733 0d0a                      | b'0,3*73\r\n' |
<NMEA(GLGSV, numMsg=2, msgNum=2, numSV=6, svid_01=85, elv_01=18.0, az_01=223, cno_01=32, svid_02=86, elv_02=36.0, az_02=274, cno_02=37, signalID=3)>000: 2447 4c47 5356 2c32 2c32 2c30 362c 3835  | b'$GLGSV,2,2,06,85' |
016: 2c31 382c 3232 332c 3332 2c38 362c 3336  | b',18,223,32,86,36' |
032: 2c32 3734 2c33 372c 332a 3734 0d0a       | b',274,37,3*74\r\n' |
<NMEA(GLGSV, numMsg=1, msgNum=1, numSV=1, svid_01=72, elv_01=1.0, az_01=284, cno_01=, signalID=0)>000: 2447 4c47 5356 2c31 2c31 2c30 312c 3732  | b'$GLGSV,1,1,01,72' |
016: 2c30 312c 3238 342c 2c30 2a34 320d 0a    | b',01,284,,0*42\r\n' |
<NMEA(GAGSV, numMsg=3, msgNum=1, numSV=9, svid_01=4, elv_01=21.0, az_01=72, cno_01=35, svid_02=5, elv_02=47.0, az_02=274, cno_02=40, svid_03=9, elv_03=69.0, az_03=40, cno_03=42, svid_04=11, elv_04=7.0, az_04=178, cno_04=20, signalID=2)>000: 2447 4147 5356 2c33 2c31 2c30 392c 3034  | b'$GAGSV,3,1,09,04' |
016: 2c32 312c 3037 322c 3335 2c30 352c 3437  | b',21,072,35,05,47' |
032: 2c32 3734 2c34 302c 3039 2c36 392c 3034  | b',274,40,09,69,04' |
048: 302c 3432 2c31 312c 3037 2c31 3738 2c32  | b'0,42,11,07,178,2' |
064: 302c 322a 3735 0d0a                      | b'0,2*75\r\n' |
<NMEA(GAGSV, numMsg=3, msgNum=2, numSV=9, svid_01=15, elv_01=7.0, az_01=331, cno_01=31, svid_02=24, elv_02=8.0, az_02=152, cno_02=30, svid_03=31, elv_03=25.0, az_03=105, cno_03=38, svid_04=34, elv_04=41.0, az_04=291, cno_04=39, signalID=2)>000: 2447 4147 5356 2c33 2c32 2c30 392c 3135  | b'$GAGSV,3,2,09,15' |
016: 2c30 372c 3333 312c 3331 2c32 342c 3038  | b',07,331,31,24,08' |
032: 2c31 3532 2c33 302c 3331 2c32 352c 3130  | b',152,30,31,25,10' |
048: 352c 3338 2c33 342c 3431 2c32 3931 2c33  | b'5,38,34,41,291,3' |
064: 392c 322a 3744 0d0a                      | b'9,2*7D\r\n' |
<NMEA(GAGSV, numMsg=3, msgNum=3, numSV=9, svid_01=36, elv_01=41.0, az_01=217, cno_01=37, signalID=2)>000: 2447 4147 5356 2c33 2c33 2c30 392c 3336  | b'$GAGSV,3,3,09,36' |
016: 2c34 312c 3231 372c 3337 2c32 2a34 460d  | b',41,217,37,2*4F\r' |
032: 0a                                       | b'\n' |
<NMEA(GAGSV, numMsg=2, msgNum=1, numSV=8, svid_01=4, elv_01=21.0, az_01=72, cno_01=38, svid_02=5, elv_02=47.0, az_02=274, cno_02=46, svid_03=9, elv_03=69.0, az_03=40, cno_03=48, svid_04=11, elv_04=7.0, az_04=178, cno_04=29, signalID=7)>000: 2447 4147 5356 2c32 2c31 2c30 382c 3034  | b'$GAGSV,2,1,08,04' |
016: 2c32 312c 3037 322c 3338 2c30 352c 3437  | b',21,072,38,05,47' |
032: 2c32 3734 2c34 362c 3039 2c36 392c 3034  | b',274,46,09,69,04' |
048: 302c 3438 2c31 312c 3037 2c31 3738 2c32  | b'0,48,11,07,178,2' |
064: 392c 372a 3738 0d0a                      | b'9,7*78\r\n' |
<NMEA(GAGSV, numMsg=2, msgNum=2, numSV=8, svid_01=24, elv_01=8.0, az_01=152, cno_01=36, svid_02=31, elv_02=25.0, az_02=105, cno_02=41, svid_03=34, elv_03=41.0, az_03=291, cno_03=47, svid_04=36, elv_04=41.0, az_04=217, cno_04=45, signalID=7)>000: 2447 4147 5356 2c32 2c32 2c30 382c 3234  | b'$GAGSV,2,2,08,24' |
016: 2c30 382c 3135 322c 3336 2c33 312c 3235  | b',08,152,36,31,25' |
032: 2c31 3035 2c34 312c 3334 2c34 312c 3239  | b',105,41,34,41,29' |
048: 312c 3437 2c33 362c 3431 2c32 3137 2c34  | b'1,47,36,41,217,4' |
064: 352c 372a 3743 0d0a                      | b'5,7*7C\r\n' |
<NMEA(GBGSV, numMsg=2, msgNum=2, numSV=8, svid_01=30, elv_01=3.0, az_01=212, cno_01=31, svid_02=32, elv_02=53.0, az_02=88, cno_02=49, svid_03=35, elv_03=11.0, az_03=316, cno_03=35, svid_04=37, elv_04=45.0, az_04=145, cno_04=47, signalID=1)>000: 2447 4247 5356 2c32 2c32 2c30 382c 3330  | b'$GBGSV,2,2,08,30' |
016: 2c30 332c 3231 322c 3331 2c33 322c 3533  | b',03,212,31,32,53' |
032: 2c30 3838 2c34 392c 3335 2c31 312c 3331  | b',088,49,35,11,31' |
048: 362c 3335 2c33 372c 3435 2c31 3435 2c34  | b'6,35,37,45,145,4' |
064: 372c 312a 3735 0d0a                      | b'7,1*75\r\n' |
<NMEA(GBGSV, numMsg=2, msgNum=1, numSV=6, svid_01=19, elv_01=14.0, az_01=291, cno_01=9, svid_02=20, elv_02=61.0, az_02=311, cno_02=8, svid_03=25, elv_03=5.0, az_03=33, cno_03=10, svid_04=32, elv_04=53.0, az_04=88, cno_04=8, signalID=3)>000: 2447 4247 5356 2c32 2c31 2c30 362c 3139  | b'$GBGSV,2,1,06,19' |
016: 2c31 342c 3239 312c 3039 2c32 302c 3631  | b',14,291,09,20,61' |
032: 2c33 3131 2c30 382c 3235 2c30 352c 3033  | b',311,08,25,05,03' |
048: 332c 3130 2c33 322c 3533 2c30 3838 2c30  | b'3,10,32,53,088,0' |
064: 382c 332a 3744 0d0a                      | b'8,3*7D\r\n' |
<NMEA(GBGSV, numMsg=2, msgNum=2, numSV=6, svid_01=35, elv_01=11.0, az_01=316, cno_01=8, svid_02=37, elv_02=45.0, az_02=145, cno_02=9, signalID=3)>000: 2447 4247 5356 2c32 2c32 2c30 362c 3335  | b'$GBGSV,2,2,06,35' |
016: 2c31 312c 3331 362c 3038 2c33 372c 3435  | b',11,316,08,37,45' |
032: 2c31 3435 2c30 392c 332a 3734 0d0a       | b',145,09,3*74\r\n' |
<NMEA(GNGLL, lat=43.8827776267, NS=N, lon=-72.158164905, EW=W, time=19:34:35.500000, status=A, posMode=D)>000: 2447 4e47 4c4c 2c34 3335 322e 3936 3636  | b'$GNGLL,4352.9666' |
016: 3537 362c 4e2c 3037 3230 392e 3438 3938  | b'576,N,07209.4898' |
032: 3934 332c 572c 3139 3334 3335 2e35 302c  | b'943,W,193435.50,' |
048: 412c 442a 3638 0d0a                      | b'A,D*68\r\n' |
<NMEA(GNRMC, time=19:34:35.750000, status=A, lat=43.8827776267, NS=N, lon=-72.1581648867, EW=W, spd=0.005, cog=, date=2023-09-05, mv=, mvEW=, posMode=R, navStatus=V)>000: 2447 4e52 4d43 2c31 3933 3433 352e 3735  | b'$GNRMC,193435.75' |
016: 2c41 2c34 3335 322e 3936 3636 3537 362c  | b',A,4352.9666576,' |
032: 4e2c 3037 3230 392e 3438 3938 3933 322c  | b'N,07209.4898932,' |
048: 572c 302e 3030 352c 2c30 3530 3932 332c  | b'W,0.005,,050923,' |
064: 2c2c 522c 562a 3134 0d0a                 | b',,R,V*14\r\n' |
<NMEA(GNVTG, cogt=, cogtUnit=T, cogm=, cogmUnit=M, sogn=0.005, sognUnit=N, sogk=0.009, sogkUnit=K, posMode=D)>000: 2447 4e56 5447 2c2c 542c 2c4d 2c30 2e30  | b'$GNVTG,,T,,M,0.0' |
016: 3035 2c4e 2c30 2e30 3039 2c4b 2c44 2a33  | b'05,N,0.009,K,D*3' |
032: 340d 0a                                  | b'4\r\n' |
<NMEA(GNGGA, time=19:34:35.750000, lat=43.8827776267, NS=N, lon=-72.1581648867, EW=W, quality=4, numSV=12, HDOP=0.58, alt=142.414, altUnit=M, sep=-32.547, sepUnit=M, diffAge=, diffStation=0)>000: 2447 4e47 4741 2c31 3933 3433 352e 3735  | b'$GNGGA,193435.75' |
016: 2c34 3335 322e 3936 3636 3537 362c 4e2c  | b',4352.9666576,N,' |
032: 3037 3230 392e 3438 3938 3933 322c 572c  | b'07209.4898932,W,' |
048: 342c 3132 2c30 2e35 382c 3134 322e 3431  | b'4,12,0.58,142.41' |
064: 342c 4d2c 2d33 322e 3534 372c 4d2c 2c30  | b'4,M,-32.547,M,,0' |
080: 3030 302a 3745 0d0a                      | b'000*7E\r\n' |
<NMEA(GNGSA, opMode=A, navMode=3, svid_01=46, svid_02=21, svid_03=44, svid_04=24, svid_05=18, svid_06=10, svid_07=12, svid_08=23, svid_09=15, svid_10=32, svid_11=, svid_12=, PDOP=1.05, HDOP=0.58, VDOP=0.88, systemId=1)>000: 2447 4e47 5341 2c41 2c33 2c34 362c 3231  | b'$GNGSA,A,3,46,21' |
016: 2c34 342c 3234 2c31 382c 3130 2c31 322c  | b',44,24,18,10,12,' |
032: 3233 2c31 352c 3332 2c2c 2c31 2e30 352c  | b'23,15,32,,,1.05,' |
048: 302e 3538 2c30 2e38 382c 312a 3030 0d0a  | b'0.58,0.88,1*00\r\n' |
<NMEA(GNGSA, opMode=A, navMode=3, svid_01=87, svid_02=85, svid_03=80, svid_04=71, svid_05=73, svid_06=70, svid_07=79, svid_08=, svid_09=, svid_10=, svid_11=, svid_12=, PDOP=1.05, HDOP=0.58, VDOP=0.88, systemId=2)>000: 2447 4e47 5341 2c41 2c33 2c38 372c 3835  | b'$GNGSA,A,3,87,85' |
016: 2c38 302c 3731 2c37 332c 3730 2c37 392c  | b',80,71,73,70,79,' |
032: 2c2c 2c2c 2c31 2e30 352c 302e 3538 2c30  | b',,,,,1.05,0.58,0' |
048: 2e38 382c 322a 3041 0d0a                 | b'.88,2*0A\r\n' |
<NMEA(GNGSA, opMode=A, navMode=3, svid_01=36, svid_02=5, svid_03=31, svid_04=34, svid_05=4, svid_06=9, svid_07=, svid_08=, svid_09=, svid_10=, svid_11=, svid_12=, PDOP=1.05, HDOP=0.58, VDOP=0.88, systemId=3)>000: 2447 4e47 5341 2c41 2c33 2c33 362c 3035  | b'$GNGSA,A,3,36,05' |
016: 2c33 312c 3334 2c30 342c 3039 2c2c 2c2c  | b',31,34,04,09,,,,' |
032: 2c2c 2c31 2e30 352c 302e 3538 2c30 2e38  | b',,,1.05,0.58,0.8' |
048: 382c 332a 3032 0d0a                      | b'8,3*02\r\n' |
<NMEA(GNGSA, opMode=A, navMode=3, svid_01=37, svid_02=32, svid_03=29, svid_04=20, svid_05=23, svid_06=35, svid_07=, svid_08=, svid_09=, svid_10=, svid_11=, svid_12=, PDOP=1.05, HDOP=0.58, VDOP=0.88, systemId=4)>000: 2447 4e47 5341 2c41 2c33 2c33 372c 3332  | b'$GNGSA,A,3,37,32' |
016: 2c32 392c 3230 2c32 332c 3335 2c2c 2c2c  | b',29,20,23,35,,,,' |
