<NMEA(GBGSV, numMsg=1, msgNum=1, numSV=2, svid_01=20, elv_01=69.0, az_01=323, cno_01=7, svid_02=29, elv_02=12.0, az_02=254, cno_02=8, signalID=3)>000: 2447 4247 5356 2c31 2c31 2c30 322c 3230  | b'$GBGSV,1,1,02,20' |
016: 2c36 392c 3332 332c 3037 2c32 392c 3132  | b',69,323,07,29,12' |
032: 2c32 3534 2c30 382c 332a 3744 0d0a       | b',254,08,3*7D\r\n' |
<NMEA(GNGLL, lat=43.8825588867, NS=N, lon=-72.1575839367, EW=W, time=19:57:18.250000, status=A, posMode=D)>000: 2447 4e47 4c4c 2c34 3335 322e 3935 3335  | b'$GNGLL,4352.9535' |
016: 3333 322c 4e2c 3037 3230 392e 3435 3530  | b'332,N,07209.4550' |
032: 3336 322c 572c 3139 3537 3138 2e32 352c  | b'362,W,195718.25,' |
048: 412c 442a 3633 0d0a                      | b'A,D*63\r\n' |
<NMEA(GNRMC, time=19:57:18.500000, status=A, lat=43.8825583083, NS=N, lon=-72.1575838083, EW=W, spd=0.507, cog=172.08, date=2023-09-05, mv=, mvEW=, posMode=R, navStatus=V)>000: 2447 4e52 4d43 2c31 3935 3731 382e 3530  | b'$GNRMC,195718.50' |
016: 2c41 2c34 3335 322e 3935 3334 3938 352c  | b',A,4352.9534985,' |
032: 4e2c 3037 3230 392e 3435 3530 3238 352c  | b'N,07209.4550285,' |
048: 572c 302e 3530 372c 3137 322e 3038 2c30  | b'W,0.507,172.08,0' |
064: 3530 3932 332c 2c2c 522c 562a 3036 0d0a  | b'50923,,,R,V*06\r\n' |
<NMEA(GNVTG, cogt=172.08, cogtUnit=T, cogm=, cogmUnit=M, sogn=0.507, sognUnit=N, sogk=0.94, sogkUnit=K, posMode=D)>000: 2447 4e56 5447 2c31 3732 2e30 382c 542c  | b'$GNVTG,172.08,T,' |
016: 2c4d 2c30 2e35 3037 2c4e 2c30 2e39 3430  | b',M,0.507,N,0.940' |
032: 2c4b 2c44 2a32 350d 0a                   | b',K,D*25\r\n' |
<NMEA(GNGGA, time=19:57:18.500000, lat=43.8825583083, NS=N, lon=-72.1575838083, EW=W, quality=4, numSV=12, HDOP=0.59, alt=142.448, altUnit=M, sep=-32.546, sepUnit=M, diffAge=, diffStation=0)>000: 2447 4e47 4741 2c31 3935 3731 382e 3530  | b'$GNGGA,195718.50' |
016: 2c34 3335 322e 3935 3334 3938 352c 4e2c  | b',4352.9534985,N,' |
032: 3037 3230 392e 3435 3530 3238 352c 572c  | b'07209.4550285,W,' |
048: 342c 3132 2c30 2e35 392c 3134 322e 3434  | b'4,12,0.59,142.44' |
064: 382c 4d2c 2d33 322e 3534 362c 4d2c 2c30  | b'8,M,-32.546,M,,0' |
080: 3030 302a 3730 0d0a                      | b'000*70\r\n' |
<NMEA(GNGSA, opMode=A, navMode=3, svid_01=46, svid_02=21, svid_03=44, svid_04=24, svid_05=25, svid_06=28, svid_07=10, svid_08=12, svid_09=23, svid_10=15, svid_11=32, svid_12=, PDOP=1.1, HDOP=0.59, VDOP=0.93, systemId=1)>000: 2447 4e47 5341 2c41 2c33 2c34 362c 3231  | b'$GNGSA,A,3,46,21' |
016: 2c34 342c 3234 2c32 352c 3238 2c31 302c  | b',44,24,25,28,10,' |
032: 3132 2c32 332c 3135 2c33 322c 2c31 2e31  | b'12,23,15,32,,1.1' |
048: 302c 302e 3539 2c30 2e39 332c 312a 3042  | b'0,0.59,0.93,1*0B' |
064: 0d0a                                     | b'\r\n' |
<NMEA(GNGSA, opMode=A, navMode=3, svid_01=87, svid_02=80, svid_03=71, svid_04=73, svid_05=70, svid_06=79, svid_07=, svid_08=, svid_09=, svid_10=, svid_11=, svid_12=, PDOP=1.1, HDOP=0.59, VDOP=0.93, systemId=2)>000: 2447 4e47 5341 2c41 2c33 2c38 372c 3830  | b'$GNGSA,A,3,87,80' |
016: 2c37 312c 3733 2c37 302c 3739 2c2c 2c2c  | b',71,73,70,79,,,,' |
032: 2c2c 2c31 2e31 302c 302e 3539 2c30 2e39  | b',,,1.10,0.59,0.9' |
048: 332c 322a 3038 0d0a                      | b'3,2*08\r\n' |
<NMEA(GNGSA, opMode=A, navMode=3, svid_01=36, svid_02=5, svid_03=31, svid_04=34, svid_05=4, svid_06=24, svid_07=9, svid_08=, svid_09=, svid_10=, svid_11=, svid_12=, PDOP=1.1, HDOP=0.59, VDOP=0.93, systemId=3)>000: 2447 4e47 5341 2c41 2c33 2c33 362c 3035  | b'$GNGSA,A,3,36,05' |
016: 2c33 312c 3334 2c30 342c 3234 2c30 392c  | b',31,34,04,24,09,' |
032: 2c2c 2c2c 2c31 2e31 302c 302e 3539 2c30  | b',,,,,1.10,0.59,0' |
048: 2e39 332c 332a 3042 0d0a                 | b'.93,3*0B\r\n' |
<NMEA(GNGSA, opMode=A, navMode=3, svid_01=37, svid_02=19, svid_03=32, svid_04=29, svid_05=20, svid_06=23, svid_07=35, svid_08=, svid_09=, svid_10=, svid_11=, svid_12=, PDOP=1.1, HDOP=0.59, VDOP=0.93, systemId=4)>000: 2447 4e47 5341 2c41 2c33 2c33 372c 3139  | b'$GNGSA,A,3,37,19' |
016: 2c33 322c 3239 2c32 302c 3233 2c33 352c  | b',32,29,20,23,35,' |
032: 2c2c 2c2c 2c31 2e31 302c 302e 3539 2c30  | b',,,,,1.10,0.59,0' |
048: 2e39 332c 342a 3031 0d0a                 | b'.93,4*01\r\n' |
<NMEA(GPGSV, numMsg=4, msgNum=1, numSV=13, svid_01=2, elv_01=12.0, az_01=324, cno_01=37, svid_02=10, elv_02=77.0, az_02=307, cno_02=53, svid_03=12, elv_03=24.0, az_03=106, cno_03=44, svid_04=15, elv_04=12.0, az_04=85, cno_04=38, signalID=1)>000: 2447 5047 5356 2c34 2c31 2c31 332c 3032  | b'$GPGSV,4,1,13,02' |
016: 2c31 322c 3332 342c 3337 2c31 302c 3737  | b',12,324,37,10,77' |
032: 2c33 3037 2c35 332c 3132 2c32 342c 3130  | b',307,53,12,24,10' |
048: 362c 3434 2c31 352c 3132 2c30 3835 2c33  | b'6,44,15,12,085,3' |
064: 382c 312a 3633 0d0a                      | b'8,1*63\r\n' |
<NMEA(GPGSV, numMsg=4, msgNum=2, numSV=13, svid_01=18, elv_01=12.0, az_01=186, cno_01=34, svid_02=21, elv_02=17.0, az_02=318, cno_02=41, svid_03=23, elv_03=60.0, az_03=135, cno_03=48, svid_04=24, elv_04=41.0, az_04=54, cno_04=45, signalID=1)>000: 2447 5047 5356 2c34 2c32 2c31 332c 3138  | b'$GPGSV,4,2,13,18' |
016: 2c31 322c 3138 362c 3334 2c32 312c 3137  | b',12,186,34,21,17' |
032: 2c33 3138 2c34 312c 3233 2c36 302c 3133  | b',318,41,23,60,13' |
048: 352c 3438 2c32 342c 3431 2c30 3534 2c34  | b'5,48,24,41,054,4' |
064: 352c 312a 3637 0d0a                      | b'5,1*67\r\n' |
<NMEA(GPGSV, numMsg=4, msgNum=3, numSV=13, svid_01=25, elv_01=14.0, az_01=147, cno_01=37, svid_02=28, elv_02=16.0, az_02=215, cno_02=37, svid_03=32, elv_03=44.0, az_03=278, cno_03=49, svid_04=44, elv_04=23.0, az_04=235, cno_04=43, signalID=1)>000: 2447 5047 5356 2c34 2c33 2c31 332c 3235  | b'$GPGSV,4,3,13,25' |
016: 2c31 342c 3134 372c 3337 2c32 382c 3136  | b',14,147,37,28,16' |
032: 2c32 3135 2c33 372c 3332 2c34 342c 3237  | b',215,37,32,44,27' |
048: 382c 3439 2c34 342c 3233 2c32 3335 2c34  | b'8,49,44,23,235,4' |
064: 332c 312a 3639 0d0a                      | b'3,1*69\r\n' |
<NMEA(GPGSV, numMsg=4, msgNum=4, numSV=13, svid_01=46, elv_01=15.0, az_01=246, cno_01=41, signalID=1)>000: 2447 5047 5356 2c34 2c34 2c31 332c 3436  | b'$GPGSV,4,4,13,46' |
016: 2c31 352c 3234 362c 3431 2c31 2a35 350d  | b',15,246,41,1*55\r' |
032: 0a                                       | b'\n' |
<NMEA(GPGSV, numMsg=3, msgNum=1, numSV=9, svid_01=10, elv_01=77.0, az_01=307, cno_01=42, svid_02=12, elv_02=24.0, az_02=106, cno_02=35, svid_03=15, elv_03=12.0, az_03=85, cno_03=30, svid_04=18, elv_04=12.0, az_04=186, cno_04=26, signalID=6)>000: 2447 5047 5356 2c33 2c31 2c30 392c 3130  | b'$GPGSV,3,1,09,10' |
016: 2c37 372c 3330 372c 3432 2c31 322c 3234  | b',77,307,42,12,24' |
032: 2c31 3036 2c33 352c 3135 2c31 322c 3038  | b',106,35,15,12,08' |
048: 352c 3330 2c31 382c 3132 2c31 3836 2c32  | b'5,30,18,12,186,2' |
064: 362c 362a 3637 0d0a                      | b'6,6*67\r\n' |
<NMEA(GPGSV, numMsg=3, msgNum=2, numSV=9, svid_01=23, elv_01=60.0, az_01=135, cno_01=41, svid_02=24, elv_02=41.0, az_02=54, cno_02=39, svid_03=25, elv_03=14.0, az_03=147, cno_03=33, svid_04=28, elv_04=16.0, az_04=215, cno_04=34, signalID=6)>000: 2447 5047 5356 2c33 2c32 2c30 392c 3233  | b'$GPGSV,3,2,09,23' |
016: 2c36 302c 3133 352c 3431 2c32 342c 3431  | b',60,135,41,24,41' |
032: 2c30 3534 2c33 392c 3235 2c31 342c 3134  | b',054,39,25,14,14' |
048: 372c 3333 2c32 382c 3136 2c32 3135 2c33  | b'7,33,28,16,215,3' |
064: 342c 362a 3641 0d0a                      | b'4,6*6A\r\n' |
<NMEA(GNRMC, time=19:57:19, status=A, lat=43.88255831, NS=N, lon=-72.1575827817, EW=W, spd=0.602, cog=81.95, date=2023-09-05, mv=, mvEW=, posMode=R, navStatus=V)>000: 2447 4e52 4d43 2c31 3935 3731 392e 3030  | b'$GNRMC,195719.00' |
016: 2c41 2c34 3335 322e 3935 3334 3938 362c  | b',A,4352.9534986,' |
032: 4e2c 3037 3230 392e 3435 3439 3636 392c  | b'N,07209.4549669,' |
048: 572c 302e 3630 322c 3831 2e39 352c 3035  | b'W,0.602,81.95,05' |
064: 3039 3233 2c2c 2c52 2c56 2a33 300d 0a    | b'0923,,,R,V*30\r\n' |
<NMEA(GNVTG, cogt=81.95, cogtUnit=T, cogm=, cogmUnit=M, sogn=0.602, sognUnit=N, sogk=1.115, sogkUnit=K, posMode=D)>000: 2447 4e56 5447 2c38 312e 3935 2c54 2c2c  | b'$GNVTG,81.95,T,,' |
016: 4d2c 302e 3630 322c 4e2c 312e 3131 352c  | b'M,0.602,N,1.115,' |
032: 4b2c 442a 3133 0d0a                      | b'K,D*13\r\n' |
<NMEA(GNGGA, time=19:57:19, lat=43.88255831, NS=N, lon=-72.1575827817, EW=W, quality=4, numSV=12, HDOP=0.59, alt=142.454, altUnit=M, sep=-32.546, sepUnit=M, diffAge=, diffStation=0)>000: 2447 4e47 4741 2c31 3935 3731 392e 3030  | b'$GNGGA,195719.00' |
016: 2c34 3335 322e 3935 3334 3938 362c 4e2c  | b',4352.9534986,N,' |
032: 3037 3230 392e 3435 3439 3636 392c 572c  | b'07209.4549669,W,' |
048: 342c 3132 2c30 2e35 392c 3134 322e 3435  | b'4,12,0.59,142.45' |
064: 342c 4d2c 2d33 322e 3534 362c 4d2c 2c30  | b'4,M,-32.546,M,,0' |
080: 3030 302a 3734 0d0a                      | b'000*74\r\n' |
<NMEA(GNGSA, opMode=A, navMode=3, svid_01=46, svid_02=21, svid_03=44, svid_04=24, svid_05=25, svid_06=28, svid_07=10, svid_08=12, svid_09=23, svid_10=15, svid_11=32, svid_12=, PDOP=1.1, HDOP=0.59, VDOP=0.93, systemId=1)>000: 2447 4e47 5341 2c41 2c33 2c34 362c 3231  | b'$GNGSA,A,3,46,21' |
016: 2c34 342c 3234 2c32 352c 3238 2c31 302c  | b',44,24,25,28,10,' |
032: 3132 2c32 332c 3135 2c33 322c 2c31 2e31  | b'12,23,15,32,,1.1' |
048: 302c 302e 3539 2c30 2e39 332c 312a 3042  | b'0,0.59,0.93,1*0B' |
064: 0d0a                                     | b'\r\n' |
<NMEA(GNGSA, opMode=A, navMode=3, svid_01=87, svid_02=80, svid_03=71, svid_04=73, svid_05=70, svid_06=79, svid_07=, svid_08=, svid_09=, svid_10=, svid_11=, svid_12=, PDOP=1.1, HDOP=0.59, VDOP=0.93, systemId=2)>000: 2447 4e47 5341 2c41 2c33 2c38 372c 3830  | b'$GNGSA,A,3,87,80' |
016: 2c37 312c 3733 2c37 302c 3739 2c2c 2c2c  | b',71,73,70,79,,,,' |
032: 2c2c 2c31 2e31 302c 302e 3539 2c30 2e39  | b',,,1.10,0.59,0.9' |
048: 332c 322a 3038 0d0a                      | b'3,2*08\r\n' |
<NMEA(GNGSA, opMode=A, navMode=3, svid_01=36, svid_02=5, svid_03=31, svid_04=34, svid_05=4, svid_06=24, svid_07=9, svid_08=, svid_09=, svid_10=, svid_11=, svid_12=, PDOP=1.1, HDOP=0.59, VDOP=0.93, systemId=3)>000: 2447 4e47 5341 2c41 2c33 2c33 362c 3035  | b'$GNGSA,A,3,36,05' |
016: 2c33 312c 3334 2c30 342c 3234 2c30 392c  | b',31,34,04,24,09,' |
032: 2c2c 2c2c 2c31 2e31 302c 302e 3539 2c30  | b',,,,,1.10,0.59,0' |
048: 2e39 332c 332a 3042 0d0a                 | b'.93,3*0B\r\n' |
<NMEA(GNGSA, opMode=A, navMode=3, svid_01=37, svid_02=19, svid_03=32, svid_04=29, svid_05=20, svid_06=23, svid_07=35, svid_08=, svid_09=, svid_10=, svid_11=, svid_12=, PDOP=1.1, HDOP=0.59, VDOP=0.93, systemId=4)>000: 2447 4e47 5341 2c41 2c33 2c33 372c 3139  | b'$GNGSA,A,3,37,19' |
016: 2c33 322c 3239 2c32 302c 3233 2c33 352c  | b',32,29,20,23,35,' |
032: 2c2c 2c2c 2c31 2e31 302c 302e 3539 2c30  | b',,,,,1.10,0.59,0' |
048: 2e39 332c 342a 3031 0d0a                 | b'.93,4*01\r\n' |
<NMEA(GPGSV, numMsg=4, msgNum=1, numSV=13, svid_01=2, elv_01=12.0, az_01=324, cno_01=38, svid_02=10, elv_02=77.0, az_02=307, cno_02=52, svid_03=12, elv_03=24.0, az_03=106, cno_03=44, svid_04=15, elv_04=12.0, az_04=85, cno_04=40, signalID=1)>000: 2447 5047 5356 2c34 2c31 2c31 332c 3032  | b'$GPGSV,4,1,13,02' |
016: 2c31 322c 3332 342c 3338 2c31 302c 3737  | b',12,324,38,10,77' |
032: 2c33 3037 2c35 322c 3132 2c32 342c 3130  | b',307,52,12,24,10' |
048: 362c 3434 2c31 352c 3132 2c30 3835 2c34  | b'6,44,15,12,085,4' |
064: 302c 312a 3632 0d0a                      | b'0,1*62\r\n' |
<NMEA(GPGSV, numMsg=4, msgNum=2, numSV=13, svid_01=18, elv_01=12.0, az_01=186, cno_01=37, svid_02=21, elv_02=17.0, az_02=318, cno_02=39, svid_03=23, elv_03=60.0, az_03=135, cno_03=48, svid_04=24, elv_04=41.0, az_04=54, cno_04=46, signalID=1)>000: 2447 5047 5356 2c34 2c32 2c31 332c 3138  | b'$GPGSV,4,2,13,18' |
016: 2c31 322c 3138 362c 3337 2c32 312c 3137  | b',12,186,37,21,17' |
032: 2c33 3138 2c33 392c 3233 2c36 302c 3133  | b',318,39,23,60,13' |
048: 352c 3438 2c32 342c 3431 2c30 3534 2c34  | b'5,48,24,41,054,4' |
064: 362c 312a 3638 0d0a                      | b'6,1*68\r\n' |
<NMEA(GPGSV, numMsg=4, msgNum=3, numSV=13, svid_01=25, elv_01=14.0, az_01=147, cno_01=38, svid_02=28, elv_02=16.0, az_02=215, cno_02=38, svid_03=32, elv_03=44.0, az_03=278, cno_03=48, svid_04=44, elv_04=23.0, az_04=235, cno_04=41, signalID=1)>000: 2447 5047 5356 2c34 2c33 2c31 332c 3235  | b'$GPGSV,4,3,13,25' |
016: 2c31 342c 3134 372c 3338 2c32 382c 3136  | b',14,147,38,28,16' |
032: 2c32 3135 2c33 382c 3332 2c34 342c 3237  | b',215,38,32,44,27' |
048: 382c 3438 2c34 342c 3233 2c32 3335 2c34  | b'8,48,44,23,235,4' |
064: 312c 312a 3641 0d0a                      | b'1,1*6A\r\n' |
<NMEA(GPGSV, numMsg=4, msgNum=4, numSV=13, svid_01=46, elv_01=15.0, az_01=246, cno_01=41, signalID=1)>000: 2447 5047 5356 2c34 2c34 2c31 332c 3436  | b'$GPGSV,4,4,13,46' |
016: 2c31 352c 3234 362c 3431 2c31 2a35 350d  | b',15,246,41,1*55\r' |
032: 0a                                       | b'\n' |
<NMEA(GPGSV, numMsg=3, msgNum=1, numSV=9, svid_01=10, elv_01=77.0, az_01=307, cno_01=42, svid_02=12, elv_02=24.0, az_02=106, cno_02=35, svid_03=15, elv_03=12.0, az_03=85, cno_03=30, svid_04=18, elv_04=12.0, az_04=186, cno_04=26, signalID=6)>000: 2447 5047 5356 2c33 2c31 2c30 392c 3130  | b'$GPGSV,3,1,09,10' |
016: 2c37 372c 3330 372c 3432 2c31 322c 3234  | b',77,307,42,12,24' |
032: 2c31 3036 2c33 352c 3135 2c31 322c 3038  | b',106,35,15,12,08' |
048: 352c 3330 2c31 382c 3132 2c31 3836 2c32  | b'5,30,18,12,186,2' |
064: 362c 362a 3637 0d0a                      | b'6,6*67\r\n' |
<NMEA(GPGSV, numMsg=3, msgNum=3, numSV=9, svid_01=32, elv_01=44.0, az_01=278, cno_01=40, signalID=6)>000: 2447 5047 5356 2c33 2c33 2c30 392c 3332  | b'$GPGSV,3,3,09,32' |
016: 2c34 342c 3237 382c 3430 2c36 2a35 320d  | b',44,278,40,6*52\r' |
032: 0a                                       | b'\n' |
<NMEA(GLGSV, numMsg=3, msgNum=1, numSV=10, svid_01=70, elv_01=55.0, az_01=62, cno_01=39, svid_02=71, elv_02=51.0, az_02=322, cno_02=51, svid_03=72, elv_03=9.0, az_03=293, cno_03=35, svid_04=73, elv_04=38.0, az_04=154, cno_04=48, signalID=1)>000: 2447 4c47 5356 2c33 2c31 2c31 302c 3730  | b'$GLGSV,3,1,10,70' |
016: 2c35 352c 3036 322c 3339 2c37 312c 3531  | b',55,062,39,71,51' |
032: 2c33 3232 2c35 312c 3732 2c30 392c 3239  | b',322,51,72,09,29' |
048: 332c 3335 2c37 332c 3338 2c31 3534 2c34  | b'3,35,73,38,154,4' |
064: 382c 312a 3736 0d0a                      | b'8,1*76\r\n' |
<NMEA(GLGSV, numMsg=3, msgNum=2, numSV=10, svid_01=74, elv_01=2.0, az_01=181, cno_01=18, svid_02=79, elv_02=13.0, az_02=25, cno_02=41, svid_03=80, elv_03=50.0, az_03=73, cno_03=50, svid_04=85, elv_04=8.0, az_04=218, cno_04=34, signalID=1)>000: 2447 4c47 5356 2c33 2c32 2c31 302c 3734  | b'$GLGSV,3,2,10,74' |
016: 2c30 322c 3138 312c 3138 2c37 392c 3133  | b',02,181,18,79,13' |
032: 2c30 3235 2c34 312c 3830 2c35 302c 3037  | b',025,41,80,50,07' |
048: 332c 3530 2c38 352c 3038 2c32 3138 2c33  | b'3,50,85,08,218,3' |
064: 342c 312a 3733 0d0a                      | b'4,1*73\r\n' |
<NMEA(GLGSV, numMsg=3, msgNum=3, numSV=10, svid_01=86, elv_01=30.0, az_01=261, cno_01=46, svid_02=87, elv_02=22.0, az_02=322, cno_02=43, signalID=1)>000: 2447 4c47 5356 2c33 2c33 2c31 302c 3836  | b'$GLGSV,3,3,10,86' |
016: 2c33 302c 3236 312c 3436 2c38 372c 3232  | b',30,261,46,87,22' |
032: 2c33 3232 2c34 332c 312a 3738 0d0a       | b',322,43,1*78\r\n' |
<NMEA(GLGSV, numMsg=2, msgNum=1, numSV=5, svid_01=71, elv_01=51.0, az_01=322, cno_01=38, svid_02=73, elv_02=38.0, az_02=154, cno_02=34, svid_03=79, elv_03=13.0, az_03=25, cno_03=34, svid_04=80, elv_04=50.0, az_04=73, cno_04=39, signalID=3)>000: 2447 4c47 5356 2c32 2c31 2c30 352c 3731  | b'$GLGSV,2,1,05,71' |
016: 2c35 312c 3332 322c 3338 2c37 332c 3338  | b',51,322,38,73,38' |
032: 2c31 3534 2c33 342c 3739 2c31 332c 3032  | b',154,34,79,13,02' |
048: 352c 3334 2c38 302c 3530 2c30 3733 2c33  | b'5,34,80,50,073,3' |
064: 392c 332a 3731 0d0a                      | b'9,3*71\r\n' |
<NMEA(GLGSV, numMsg=2, msgNum=2, numSV=5, svid_01=86, elv_01=30.0, az_01=261, cno_01=34, signalID=3)>000: 2447 4c47 5356 2c32 2c32 2c30 352c 3836  | b'$GLGSV,2,2,05,86' |
016: 2c33 302c 3236 312c 3334 2c33 2a34 300d  | b',30,261,34,3*40\r' |
032: 0a                                       | b'\n' |
<NMEA(GLGSV, numMsg=1, msgNum=1, numSV=1, svid_01=69, elv_01=2.0, az_01=97, cno_01=, signalID=0)>000: 2447 4c47 5356 2c31 2c31 2c30 312c 3639  | b'$GLGSV,1,1,01,69' |
016: 2c30 322c 3039 372c 2c30 2a34 420d 0a    | b',02,097,,0*4B\r\n' |
<NMEA(GAGSV, numMsg=2, msgNum=2, numSV=8, svid_01=24, elv_01=15.0, az_01=149, cno_01=35, svid_02=31, elv_02=30.0, az_02=98, cno_02=39, svid_03=34, elv_03=41.0, az_03=279, cno_03=40, svid_04=36, elv_04=32.0, az_04=212, cno_04=37, signalID=2)>000: 2447 4147 5356 2c32 2c32 2c30 382c 3234  | b'$GAGSV,2,2,08,24' |
016: 2c31 352c 3134 392c 3335 2c33 312c 3330  | b',15,149,35,31,30' |
032: 2c30 3938 2c33 392c 3334 2c34 312c 3237  | b',098,39,34,41,27' |
048: 392c 3430 2c33 362c 3332 2c32 3132 2c33  | b'9,40,36,32,212,3' |
064: 372c 322a 3737 0d0a                      | b'7,2*77\r\n' |
<NMEA(GAGSV, numMsg=2, msgNum=1, numSV=8, svid_01=4, elv_01=15.0, az_01=78, cno_01=38, svid_02=5, elv_02=53.0, az_02=283, cno_02=47, svid_03=9, elv_03=63.0, az_03=53, cno_03=48, svid_04=15, elv_04=13.0, az_04=327, cno_04=35, signalID=7)>000: 2447 4147 5356 2c32 2c31 2c30 382c 3034  | b'$GAGSV,2,1,08,04' |
016: 2c31 352c 3037 382c 3338 2c30 352c 3533  | b',15,078,38,05,53' |
032: 2c32 3833 2c34 372c 3039 2c36 332c 3035  | b',283,47,09,63,05' |
048: 332c 3438 2c31 352c 3133 2c33 3237 2c33  | b'3,48,15,13,327,3' |
064: 352c 372a 3735 0d0a                      | b'5,7*75\r\n' |
<NMEA(GAGSV, numMsg=2, msgNum=2, numSV=8, svid_01=24, elv_01=15.0, az_01=149, cno_01=37, svid_02=31, elv_02=30.0, az_02=98, cno_02=42, svid_03=34, elv_03=41.0, az_03=279, cno_03=45, svid_04=36, elv_04=32.0, az_04=212, cno_04=44, signalID=7)>000: 2447 4147 5356 2c32 2c32 2c30 382c 3234  | b'$GAGSV,2,2,08,24' |
016: 2c31 352c 3134 392c 3337 2c33 312c 3330  | b',15,149,37,31,30' |
032: 2c30 3938 2c34 322c 3334 2c34 312c 3237  | b',098,42,34,41,27' |
048: 392c 3435 2c33 362c 3332 2c32 3132 2c34  | b'9,45,36,32,212,4' |
064: 342c 372a 3744 0d0a                      | b'4,7*7D\r\n' |
<NMEA(GAGSV, numMsg=1, msgNum=1, numSV=2, svid_01=3, elv_01=4.0, az_01=267, cno_01=, svid_02=11, elv_02=0.0, az_02=177, cno_02=, signalID=0)>000: 2447 4147 5356 2c31 2c31 2c30 322c 3033  | b'$GAGSV,1,1,02,03' |
016: 2c30 342c 3236 372c 2c31 312c 3030 2c31  | b',04,267,,11,00,1' |
032: 3737 2c2c 302a 3733 0d0a                 | b'77,,0*73\r\n' |
<NMEA(GBGSV, numMsg=2, msgNum=1, numSV=7, svid_01=19, elv_01=21.0, az_01=297, cno_01=43, svid_02=20, elv_02=69.0, az_02=323, cno_02=52, svid_03=23, elv_03=36.0, az_03=58, cno_03=47, svid_04=29, elv_04=12.0, az_04=254, cno_04=42, signalID=1)>000: 2447 4247 5356 2c32 2c31 2c30 372c 3139  | b'$GBGSV,2,1,07,19' |
016: 2c32 312c 3239 372c 3433 2c32 302c 3639  | b',21,297,43,20,69' |
032: 2c33 3233 2c35 322c 3233 2c33 362c 3035  | b',323,52,23,36,05' |
048: 382c 3437 2c32 392c 3132 2c32 3534 2c34  | b'8,47,29,12,254,4' |
064: 322c 312a 3744 0d0a                      | b'2,1*7D\r\n' |
<NMEA(GBGSV, numMsg=2, msgNum=2, numSV=7, svid_01=32, elv_01=46.0, az_01=98, cno_01=48, svid_02=35, elv_02=11.0, az_02=308, cno_02=40, svid_03=37, elv_03=53.0, az_03=136, cno_03=49, signalID=1)>000: 2447 4247 5356 2c32 2c32 2c30 372c 3332  | b'$GBGSV,2,2,07,32' |
016: 2c34 362c 3039 382c 3438 2c33 352c 3131  | b',46,098,48,35,11' |
032: 2c33 3038 2c34 302c 3337 2c35 332c 3133  | b',308,40,37,53,13' |
048: 362c 3439 2c31 2a34 440d 0a              | b'6,49,1*4D\r\n' |
<NMEA(GBGSV, numMsg=1, msgNum=1, numSV=2, svid_01=20, elv_01=69.0, az_01=323, cno_01=7, svid_02=29, elv_02=12.0, az_02=254, cno_02=8, signalID=3)>000: 2447 4247 5356 2c31 2c31 2c30 322c 3230  | b'$GBGSV,1,1,02,20' |
016: 2c36 392c 3332 332c 3037 2c32 392c 3132  | b',69,323,07,29,12' |
032: 2c32 3534 2c30 382c 332a 3744 0d0a       | b',254,08,3*7D\r\n' |
<NMEA(GNGLL, lat=43.88255831, NS=N, lon=-72.1575827817, EW=W, time=19:57:19, status=A, posMode=D)>000: 2447 4e47 4c4c 2c34 3335 322e 3935 3334  | b'$GNGLL,4352.9534' |
016: 3938 362c 4e2c 3037 3230 392e 3435 3439  | b'986,N,07209.4549' |
032: 3636 392c 572c 3139 3537 3139 2e30 302c  | b'669,W,195719.00,' |
048: 412c 442a 3637 0d0a                      | b'A,D*67\r\n' |
<NMEA(GNTXT, numMsg=1, msgNum=1, msgType=0, text=txbuf alloc)>000: 2447 4e54 5854 2c30 312c 3031 2c30 302c  | b'$GNTXT,01,01,00,' |
016: 7478 6275 6620 616c 6c6f 632a 3631 0d0a  | b'txbuf alloc*61\r\n' |
<NMEA(GNRMC, time=19:57:19.250000, status=A, lat=43.8825578283, NS=N, lon=-72.15758242, EW=W, spd=0.464, cog=152.11, date=2023-09-05, mv=, mvEW=, posMode=R, navStatus=V)>000: 2447 4e52 4d43 2c31 3935 3731 392e 3235  | b'$GNRMC,195719.25' |
016: 2c41 2c34 3335 322e 3935 3334 3639 372c  | b',A,4352.9534697,' |
032: 4e2c 3037 3230 392e 3435 3439 3435 322c  | b'N,07209.4549452,' |
048: 572c 302e 3436 342c 3135 322e 3131 2c30  | b'W,0.464,152.11,0' |
064: 3530 3932 332c 2c2c 522c 562a 3033 0d0a  | b'50923,,,R,V*03\r\n' |
<NMEA(GNVTG, cogt=152.11, cogtUnit=T, cogm=, cogmUnit=M, sogn=0.464, sognUnit=N, sogk=0.86, sogkUnit=K, posMode=D)>000: 2447 4e56 5447 2c31 3532 2e31 312c 542c  | b'$GNVTG,152.11,T,' |
016: 2c4d 2c30 2e34 3634 2c4e 2c30 2e38 3630  | b',M,0.464,N,0.860' |
032: 2c4b 2c44 2a32 380d 0a                   | b',K,D*28\r\n' |
<NMEA(GNGSA, opMode=A, navMode=3, svid_01=46, svid_02=21, svid_03=44, svid_04=24, svid_05=25, svid_06=28, svid_07=10, svid_08=12, svid_09=23, svid_10=15, svid_11=32, svid_12=, PDOP=1.1, HDOP=0.59, VDOP=0.93, systemId=1)>000: 2447 4e47 5341 2c41 2c33 2c34 362c 3231  | b'$GNGSA,A,3,46,21' |
016: 2c34 342c 3234 2c32 352c 3238 2c31 302c  | b',44,24,25,28,10,' |
032: 3132 2c32 332c 3135 2c33 322c 2c31 2e31  | b'12,23,15,32,,1.1' |
048: 302c 302e 3539 2c30 2e39 332c 312a 3042  | b'0,0.59,0.93,1*0B' |
064: 0d0a                                     | b'\r\n' |
<NMEA(GNGSA, opMode=A, navMode=3, svid_01=87, svid_02=80, svid_03=71, svid_04=73, svid_05=70, svid_06=79, svid_07=, svid_08=, svid_09=, svid_10=, svid_11=, svid_12=, PDOP=1.1, HDOP=0.59, VDOP=0.93, systemId=2)>000: 2447 4e47 5341 2c41 2c33 2c38 372c 3830  | b'$GNGSA,A,3,87,80' |
016: 2c37 312c 3733 2c37 302c 3739 2c2c 2c2c  | b',71,73,70,79,,,,' |
032: 2c2c 2c31 2e31 302c 302e 3539 2c30 2e39  | b',,,1.10,0.59,0.9' |
048: 332c 322a 3038 0d0a                      | b'3,2*08\r\n' |
<NMEA(GNGSA, opMode=A, navMode=3, svid_01=36, svid_02=5, svid_03=31, svid_04=34, svid_05=4, svid_06=24, svid_07=9, svid_08=, svid_09=, svid_10=, svid_11=, svid_12=, PDOP=1.1, HDOP=0.59, VDOP=0.93, systemId=3)>000: 2447 4e47 5341 2c41 2c33 2c33 362c 3035  | b'$GNGSA,A,3,36,05' |
016: 2c33 312c 3334 2c30 342c 3234 2c30 392c  | b',31,34,04,24,09,' |
032: 2c2c 2c2c 2c31 2e31 302c 302e 3539 2c30  | b',,,,,1.10,0.59,0' |
048: 2e39 332c 332a 3042 0d0a                 | b'.93,3*0B\r\n' |
<NMEA(GNGSA, opMode=A, navMode=3, svid_01=37, svid_02=19, svid_03=32, svid_04=29, svid_05=20, svid_06=23, svid_07=35, svid_08=, svid_09=, svid_10=, svid_11=, svid_12=, PDOP=1.1, HDOP=0.59, VDOP=0.93, systemId=4)>000: 2447 4e47 5341 2c41 2c33 2c33 372c 3139  | b'$GNGSA,A,3,37,19' |
016: 2c33 322c 3239 2c32 302c 3233 2c33 352c  | b',32,29,20,23,35,' |
032: 2c2c 2c2c 2c31 2e31 302c 302e 3539 2c30  | b',,,,,1.10,0.59,0' |
048: 2e39 332c 342a 3031 0d0a                 | b'.93,4*01\r\n' |
<NMEA(GPGSV, numMsg=4, msgNum=1, numSV=13, svid_01=2, elv_01=12.0, az_01=324, cno_01=36, svid_02=10, elv_02=77.0, az_02=307, cno_02=50, svid_03=12, elv_03=24.0, az_03=106, cno_03=42, svid_04=15, elv_04=12.0, az_04=85, cno_04=37, signalID=1)>000: 2447 5047 5356 2c34 2c31 2c31 332c 3032  | b'$GPGSV,4,1,13,02' |
016: 2c31 322c 3332 342c 3336 2c31 302c 3737  | b',12,324,36,10,77' |
032: 2c33 3037 2c35 302c 3132 2c32 342c 3130  | b',307,50,12,24,10' |
048: 362c 3432 2c31 352c 3132 2c30 3835 2c33  | b'6,42,15,12,085,3' |
064: 372c 312a 3638 0d0a                      | b'7,1*68\r\n' |
<NMEA(GPGSV, numMsg=4, msgNum=2, numSV=13, svid_01=18, elv_01=12.0, az_01=186, cno_01=34, svid_02=21, elv_02=17.0, az_02=318, cno_02=36, svid_03=23, elv_03=60.0, az_03=135, cno_03=45, svid_04=24, elv_04=41.0, az_04=54, cno_04=44, signalID=1)>000: 2447 5047 5356 2c34 2c32 2c31 332c 3138  | b'$GPGSV,4,2,13,18' |
016: 2c31 322c 3138 362c 3334 2c32 312c 3137  | b',12,186,34,21,17' |
032: 2c33 3138 2c33 362c 3233 2c36 302c 3133  | b',318,36,23,60,13' |
048: 352c 3435 2c32 342c 3431 2c30 3534 2c34  | b'5,45,24,41,054,4' |
064: 342c 312a 3642 0d0a                      | b'4,1*6B\r\n' |
<NMEA(GPGSV, numMsg=4, msgNum=3, numSV=13, svid_01=25, elv_01=14.0, az_01=147, cno_01=35, svid_02=28, elv_02=16.0, az_02=215, cno_02=38, svid_03=32, elv_03=44.0, az_03=278, cno_03=47, svid_04=44, elv_04=23.0, az_04=235, cno_04=39, signalID=1)>000: 2447 5047 5356 2c34 2c33 2c31 332c 3235  | b'$GPGSV,4,3,13,25' |
016: 2c31 342c 3134 372c 3335 2c32 382c 3136  | b',14,147,35,28,16' |
032: 2c32 3135 2c33 382c 3332 2c34 342c 3237  | b',215,38,32,44,27' |
048: 382c 3437 2c34 342c 3233 2c32 3335 2c33  | b'8,47,44,23,235,3' |
064: 392c 312a 3637 0d0a                      | b'9,1*67\r\n' |
<NMEA(GPGSV, numMsg=4, msgNum=4, numSV=13, svid_01=46, elv_01=15.0, az_01=246, cno_01=39, signalID=1)>000: 2447 5047 5356 2c34 2c34 2c31 332c 3436  | b'$GPGSV,4,4,13,46' |
016: 2c31 352c 3234 362c 3339 2c31 2a35 410d  | b',15,246,39,1*5A\r' |
032: 0a                                       | b'\n' |
<NMEA(GPGSV, numMsg=3, msgNum=1, numSV=9, svid_01=10, elv_01=77.0, az_01=307, cno_01=42, svid_02=12, elv_02=24.0, az_02=106, cno_02=36, svid_03=15, elv_03=12.0, az_03=85, cno_03=31, svid_04=18, elv_04=12.0, az_04=186, cno_04=25, signalID=6)>000: 2447 5047 5356 2c33 2c31 2c30 392c 3130  | b'$GPGSV,3,1,09,10' |
016: 2c37 372c 3330 372c 3432 2c31 322c 3234  | b',77,307,42,12,24' |
032: 2c31 3036 2c33 362c 3135 2c31 322c 3038  | b',106,36,15,12,08' |
048: 352c 3331 2c31 382c 3132 2c31 3836 2c32  | b'5,31,18,12,186,2' |
064: 352c 362a 3636 0d0a                      | b'5,6*66\r\n' |
<NMEA(GLGSV, numMsg=3, msgNum=1, numSV=10, svid_01=70, elv_01=55.0, az_01=62, cno_01=37, svid_02=71, elv_02=51.0, az_02=322, cno_02=49, svid_03=72, elv_03=9.0, az_03=293, cno_03=35, svid_04=73, elv_04=38.0, az_04=154, cno_04=46, signalID=1)>000: 2447 4c47 5356 2c33 2c31 2c31 302c 3730  | b'$GLGSV,3,1,10,70' |
016: 2c35 352c 3036 322c 3337 2c37 312c 3531  | b',55,062,37,71,51' |
032: 2c33 3232 2c34 392c 3732 2c30 392c 3239  | b',322,49,72,09,29' |
048: 332c 3335 2c37 332c 3338 2c31 3534 2c34  | b'3,35,73,38,154,4' |
064: 362c 312a 3746 0d0a                      | b'6,1*7F\r\n' |
<NMEA(GLGSV, numMsg=3, msgNum=2, numSV=10, svid_01=74, elv_01=2.0, az_01=181, cno_01=17, svid_02=79, elv_02=13.0, az_02=25, cno_02=39, svid_03=80, elv_03=50.0, az_03=71, cno_03=47, svid_04=85, elv_04=8.0, az_04=218, cno_04=34, signalID=1)>000: 2447 4c47 5356 2c33 2c32 2c31 302c 3734  | b'$GLGSV,3,2,10,74' |
016: 2c30 322c 3138 312c 3137 2c37 392c 3133  | b',02,181,17,79,13' |
032: 2c30 3235 2c33 392c 3830 2c35 302c 3037  | b',025,39,80,50,07' |
048: 312c 3437 2c38 352c 3038 2c32 3138 2c33  | b'1,47,85,08,218,3' |
064: 342c 312a 3737 0d0a                      | b'4,1*77\r\n' |
<NMEA(GLGSV, numMsg=3, msgNum=3, numSV=10, svid_01=86, elv_01=30.0, az_01=261, cno_01=45, svid_02=87, elv_02=22.0, az_02=322, cno_02=40, signalID=1)>000: 2447 4c47 5356 2c33 2c33 2c31 302c 3836  | b'$GLGSV,3,3,10,86' |
016: 2c33 302c 3236 312c 3435 2c38 372c 3232  | b',30,261,45,87,22' |
032: 2c33 3232 2c34 302c 312a 3738 0d0a       | b',322,40,1*78\r\n' |
<NMEA(GLGSV, numMsg=2, msgNum=1, numSV=5, svid_01=71, elv_01=51.0, az_01=322, cno_01=38, svid_02=73, elv_02=38.0, az_02=154, cno_02=34, svid_03=79, elv_03=13.0, az_03=25, cno_03=33, svid_04=80, elv_04=50.0, az_04=71, cno_04=39, signalID=3)>000: 2447 4c47 5356 2c32 2c31 2c30 352c 3731  | b'$GLGSV,2,1,05,71' |
016: 2c35 312c 3332 322c 3338 2c37 332c 3338  | b',51,322,38,73,38' |
032: 2c31 3534 2c33 342c 3739 2c31 332c 3032  | b',154,34,79,13,02' |
048: 352c 3333 2c38 302c 3530 2c30 3731 2c33  | b'5,33,80,50,071,3' |
064: 392c 332a 3734 0d0a                      | b'9,3*74\r\n' |
<NMEA(GLGSV, numMsg=2, msgNum=2, numSV=5, svid_01=86, elv_01=30.0, az_01=261, cno_01=34, signalID=3)>000: 2447 4c47 5356 2c32 2c32 2c30 352c 3836  | b'$GLGSV,2,2,05,86' |
016: 2c33 302c 3236 312c 3334 2c33 2a34 300d  | b',30,261,34,3*40\r' |
032: 0a                                       | b'\n' |
<NMEA(GLGSV, numMsg=1, msgNum=1, numSV=1, svid_01=69, elv_01=2.0, az_01=97, cno_01=, signalID=0)>000: 2447 4c47 5356 2c31 2c31 2c30 312c 3639  | b'$GLGSV,1,1,01,69' |
016: 2c30 322c 3039 372c 2c30 2a34 420d 0a    | b',02,097,,0*4B\r\n' |
<NMEA(GAGSV, numMsg=2, msgNum=1, numSV=8, svid_01=4, elv_01=15.0, az_01=78, cno_01=34, svid_02=5, elv_02=53.0, az_02=283, cno_02=41, svid_03=9, elv_03=63.0, az_03=53, cno_03=43, svid_04=15, elv_04=13.0, az_04=327, cno_04=35, signalID=2)>000: 2447 4147 5356 2c32 2c31 2c30 382c 3034  | b'$GAGSV,2,1,08,04' |
016: 2c31 352c 3037 382c 3334 2c30 352c 3533  | b',15,078,34,05,53' |
032: 2c32 3833 2c34 312c 3039 2c36 332c 3035  | b',283,41,09,63,05' |
048: 332c 3433 2c31 352c 3133 2c33 3237 2c33  | b'3,43,15,13,327,3' |
064: 352c 322a 3731 0d0a                      | b'5,2*71\r\n' |
<NMEA(GAGSV, numMsg=2, msgNum=2, numSV=8, svid_01=24, elv_01=15.0, az_01=149, cno_01=35, svid_02=31, elv_02=30.0, az_02=98, cno_02=39, svid_03=34, elv_03=41.0, az_03=279, cno_03=40, svid_04=36, elv_04=32.0, az_04=212, cno_04=37, signalID=2)>000: 2447 4147 5356 2c32 2c32 2c30 382c 3234  | b'$GAGSV,2,2,08,24' |
016: 2c31 352c 3134 392c 3335 2c33 312c 3330  | b',15,149,35,31,30' |
032: 2c30 3938 2c33 392c 3334 2c34 312c 3237  | b',098,39,34,41,27' |
048: 392c 3430 2c33 362c 3332 2c32 3132 2c33  | b'9,40,36,32,212,3' |
064: 372c 322a 3737 0d0a                      | b'7,2*77\r\n' |
<NMEA(GAGSV, numMsg=2, msgNum=1, numSV=8, svid_01=4, elv_01=15.0, az_01=78, cno_01=36, svid_02=5, elv_02=53.0, az_02=283, cno_02=46, svid_03=9, elv_03=63.0, az_03=53, cno_03=46, svid_04=15, elv_04=13.0, az_04=327, cno_04=35, signalID=7)>000: 2447 4147 5356 2c32 2c31 2c30 382c 3034  | b'$GAGSV,2,1,08,04' |
016: 2c31 352c 3037 382c 3336 2c30 352c 3533  | b',15,078,36,05,53' |
032: 2c32 3833 2c34 362c 3039 2c36 332c 3035  | b',283,46,09,63,05' |
048: 332c 3436 2c31 352c 3133 2c33 3237 2c33  | b'3,46,15,13,327,3' |
064: 352c 372a 3734 0d0a                      | b'5,7*74\r\n' |
<NMEA(GAGSV, numMsg=2, msgNum=2, numSV=8, svid_01=24, elv_01=15.0, az_01=149, cno_01=37, svid_02=31, elv_02=30.0, az_02=98, cno_02=41, svid_03=34, elv_03=41.0, az_03=279, cno_03=45, svid_04=36, elv_04=32.0, az_04=212, cno_04=41, signalID=7)>000: 2447 4147 5356 2c32 2c32 2c30 382c 3234  | b'$GAGSV,2,2,08,24' |
016: 2c31 352c 3134 392c 3337 2c33 312c 3330  | b',15,149,37,31,30' |
032: 2c30 3938 2c34 312c 3334 2c34 312c 3237  | b',098,41,34,41,27' |
048: 392c 3435 2c33 362c 3332 2c32 3132 2c34  | b'9,45,36,32,212,4' |
064: 312c 372a 3742 0d0a                      | b'1,7*7B\r\n' |
<NMEA(GAGSV, numMsg=1, msgNum=1, numSV=2, svid_01=3, elv_01=4.0, az_01=267, cno_01=, svid_02=11, elv_02=0.0, az_02=177, cno_02=, signalID=0)>000: 2447 4147 5356 2c31 2c31 2c30 322c 3033  | b'$GAGSV,1,1,02,03' |
016: 2c30 342c 3236 372c 2c31 312c 3030 2c31  | b',04,267,,11,00,1' |
032: 3737 2c2c 302a 3733 0d0a                 | b'77,,0*73\r\n' |
<NMEA(GBGSV, numMsg=2, msgNum=1, numSV=7, svid_01=19, elv_01=21.0, az_01=297, cno_01=43, svid_02=20, elv_02=69.0, az_02=323, cno_02=51, svid_03=23, elv_03=36.0, az_03=58, cno_03=47, svid_04=29, elv_04=12.0, az_04=254, cno_04=38, signalID=1)>000: 2447 4247 5356 2c32 2c31 2c30 372c 3139  | b'$GBGSV,2,1,07,19' |
016: 2c32 312c 3239 372c 3433 2c32 302c 3639  | b',21,297,43,20,69' |
032: 2c33 3233 2c35 312c 3233 2c33 362c 3035  | b',323,51,23,36,05' |
048: 382c 3437 2c32 392c 3132 2c32 3534 2c33  | b'8,47,29,12,254,3' |
064: 382c 312a 3733 0d0a                      | b'8,1*73\r\n' |
<NMEA(GBGSV, numMsg=2, msgNum=2, numSV=7, svid_01=32, elv_01=46.0, az_01=98, cno_01=47, svid_02=35, elv_02=11.0, az_02=308, cno_02=38, svid_03=37, elv_03=53.0, az_03=136, cno_03=48, signalID=1)>000: 2447 4247 5356 2c32 2c32 2c30 372c 3332  | b'$GBGSV,2,2,07,32' |
016: 2c34 362c 3039 382c 3437 2c33 352c 3131  | b',46,098,47,35,11' |
032: 2c33 3038 2c33 382c 3337 2c35 332c 3133  | b',308,38,37,53,13' |
048: 362c 3438 2c31 2a34 430d 0a              | b'6,48,1*4C\r\n' |
<NMEA(GNGLL, lat=43.8825578283, NS=N, lon=-72.15758242, EW=W, time=19:57:19.250000, status=A, posMode=D)>000: 2447 4e47 4c4c 2c34 3335 322e 3935 3334  | b'$GNGLL,4352.9534' |
016: 3639 372c 4e2c 3037 3230 392e 3435 3439  | b'697,N,07209.4549' |
032: 3435 322c 572c 3139 3537 3139 2e32 352c  | b'452,W,195719.25,' |
048: 412c 442a 3635 0d0a                      | b'A,D*65\r\n' |
<NMEA(GNRMC, time=19:57:19.500000, status=A, lat=43.8825574733, NS=N, lon=-72.15758234, EW=W, spd=0.299, cog=166.29, date=2023-09-05, mv=, mvEW=, posMode=R, navStatus=V)>000: 2447 4e52 4d43 2c31 3935 3731 392e 3530  | b'$GNRMC,195719.50' |
016: 2c41 2c34 3335 322e 3935 3334 3438 342c  | b',A,4352.9534484,' |
032: 4e2c 3037 3230 392e 3435 3439 3430 342c  | b'N,07209.4549404,' |
048: 572c 302e 3239 392c 3136 362e 3239 2c30  | b'W,0.299,166.29,0' |
064: 3530 3932 332c 2c2c 522c 562a 3041 0d0a  | b'50923,,,R,V*0A\r\n' |
<NMEA(GNVTG, cogt=166.29, cogtUnit=T, cogm=, cogmUnit=M, sogn=0.299, sognUnit=N, sogk=0.554, sogkUnit=K, posMode=D)>000: 2447 4e56 5447 2c31 3636 2e32 392c 542c  | b'$GNVTG,166.29,T,' |
016: 2c4d 2c30 2e32 3939 2c4e 2c30 2e35 3534  | b',M,0.299,N,0.554' |
032: 2c4b 2c44 2a32 410d 0a                   | b',K,D*2A\r\n' |
<NMEA(GNGGA, time=19:57:19.500000, lat=43.8825574733, NS=N, lon=-72.15758234, EW=W, quality=4, numSV=12, HDOP=0.57, alt=142.457, altUnit=M, sep=-32.546, sepUnit=M, diffAge=, diffStation=0)>000: 2447 4e47 4741 2c31 3935 3731 392e 3530  | b'$GNGGA,195719.50' |
016: 2c34 3335 322e 3935 3334 3438 342c 4e2c  | b',4352.9534484,N,' |
032: 3037 3230 392e 3435 3439 3430 342c 572c  | b'07209.4549404,W,' |
048: 342c 3132 2c30 2e35 372c 3134 322e 3435  | b'4,12,0.57,142.45' |
064: 372c 4d2c 2d33 322e 3534 362c 4d2c 2c30  | b'7,M,-32.546,M,,0' |
080: 3030 302a 3741 0d0a                      | b'000*7A\r\n' |
<NMEA(GNGSA, opMode=A, navMode=3, svid_01=46, svid_02=21, svid_03=44, svid_04=24, svid_05=25, svid_06=28, svid_07=10, svid_08=12, svid_09=23, svid_10=15, svid_11=32, svid_12=, PDOP=1.05, HDOP=0.57, VDOP=0.88, systemId=1)>000: 2447 4e47 5341 2c41 2c33 2c34 362c 3231  | b'$GNGSA,A,3,46,21' |
016: 2c34 342c 3234 2c32 352c 3238 2c31 302c  | b',44,24,25,28,10,' |
032: 3132 2c32 332c 3135 2c33 322c 2c31 2e30  | b'12,23,15,32,,1.0' |
048: 352c 302e 3537 2c30 2e38 382c 312a 3042  | b'5,0.57,0.88,1*0B' |
064: 0d0a                                     | b'\r\n' |
<NMEA(GNGSA, opMode=A, navMode=3, svid_01=87, svid_02=80, svid_03=71, svid_04=73, svid_05=70, svid_06=79, svid_07=, svid_08=, svid_09=, svid_10=, svid_11=, svid_12=, PDOP=1.05, HDOP=0.57, VDOP=0.88, systemId=2)>000: 2447 4e47 5341 2c41 2c33 2c38 372c 3830  | b'$GNGSA,A,3,87,80' |
016: 2c37 312c 3733 2c37 302c 3739 2c2c 2c2c  | b',71,73,70,79,,,,' |
032: 2c2c 2c31 2e30 352c 302e 3537 2c30 2e38  | b',,,1.05,0.57,0.8' |
048: 382c 322a 3038 0d0a                      | b'8,2*08\r\n' |
<NMEA(GNGSA, opMode=A, navMode=3, svid_01=36, svid_02=5, svid_03=31, svid_04=34, svid_05=4, svid_06=24, svid_07=9, svid_08=, svid_09=, svid_10=, svid_11=, svid_12=, PDOP=1.05, HDOP=0.57, VDOP=0.88, systemId=3)>000: 2447 4e47 5341 2c41 2c33 2c33 362c 3035  | b'$GNGSA,A,3,36,05' |
016: 2c33 312c 3334 2c30 342c 3234 2c30 392c  | b',31,34,04,24,09,' |
032: 2c2c 2c2c 2c31 2e30 352c 302e 3537 2c30  | b',,,,,1.05,0.57,0' |
048: 2e38 382c 332a 3042 0d0a                 | b'.88,3*0B\r\n' |
<NMEA(GNGSA, opMode=A, navMode=3, svid_01=37, svid_02=19, svid_03=32, svid_04=29, svid_05=20, svid_06=23, svid_07=35, svid_08=, svid_09=, svid_10=, svid_11=, svid_12=, PDOP=1.05, HDOP=0.57, VDOP=0.88, systemId=4)>000: 2447 4e47 5341 2c41 2c33 2c33 372c 3139  | b'$GNGSA,A,3,37,19' |
016: 2c33 322c 3239 2c32 302c 3233 2c33 352c  | b',32,29,20,23,35,' |
032: 2c2c 2c2c 2c31 2e30 352c 302e 3537 2c30  | b',,,,,1.05,0.57,0' |
048: 2e38 382c 342a 3031 0d0a                 | b'.88,4*01\r\n' |
<NMEA(GPGSV, numMsg=4, msgNum=1, numSV=13, svid_01=2, elv_01=12.0, az_01=324, cno_01=35, svid_02=10, elv_02=77.0, az_02=307, cno_02=50, svid_03=12, elv_03=24.0, az_03=106, cno_03=42, svid_04=15, elv_04=12.0, az_04=85, cno_04=37, signalID=1)>000: 2447 5047 5356 2c34 2c31 2c31 332c 3032  | b'$GPGSV,4,1,13,02' |
016: 2c31 322c 3332 342c 3335 2c31 302c 3737  | b',12,324,35,10,77' |
032: 2c33 3037 2c35 302c 3132 2c32 342c 3130  | b',307,50,12,24,10' |
048: 362c 3432 2c31 352c 3132 2c30 3835 2c33  | b'6,42,15,12,085,3' |
064: 372c 312a 3642 0d0a                      | b'7,1*6B\r\n' |
<NMEA(GPGSV, numMsg=4, msgNum=2, numSV=13, svid_01=18, elv_01=12.0, az_01=186, cno_01=33, svid_02=21, elv_02=17.0, az_02=318, cno_02=34, svid_03=23, elv_03=60.0, az_03=135, cno_03=45, svid_04=24, elv_04=41.0, az_04=54, cno_04=43, signalID=1)>000: 2447 5047 5356 2c34 2c32 2c31 332c 3138  | b'$GPGSV,4,2,13,18' |
016: 2c31 322c 3138 362c 3333 2c32 312c 3137  | b',12,186,33,21,17' |
032: 2c33 3138 2c33 342c 3233 2c36 302c 3133  | b',318,34,23,60,13' |
048: 352c 3435 2c32 342c 3431 2c30 3534 2c34  | b'5,45,24,41,054,4' |
064: 332c 312a 3639 0d0a                      | b'3,1*69\r\n' |
<NMEA(GPGSV, numMsg=4, msgNum=3, numSV=13, svid_01=25, elv_01=14.0, az_01=147, cno_01=35, svid_02=28, elv_02=16.0, az_02=215, cno_02=38, svid_03=32, elv_03=44.0, az_03=278, cno_03=47, svid_04=44, elv_04=23.0, az_04=235, cno_04=39, signalID=1)>000: 2447 5047 5356 2c34 2c33 2c31 332c 3235  | b'$GPGSV,4,3,13,25' |
016: 2c31 342c 3134 372c 3335 2c32 382c 3136  | b',14,147,35,28,16' |
032: 2c32 3135 2c33 382c 3332 2c34 342c 3237  | b',215,38,32,44,27' |
048: 382c 3437 2c34 342c 3233 2c32 3335 2c33  | b'8,47,44,23,235,3' |
064: 392c 312a 3637 0d0a                      | b'9,1*67\r\n' |
<NMEA(GPGSV, numMsg=4, msgNum=4, numSV=13, svid_01=46, elv_01=15.0, az_01=246, cno_01=40, signalID=1)>000: 2447 5047 5356 2c34 2c34 2c31 332c 3436  | b'$GPGSV,4,4,13,46' |
016: 2c31 352c 3234 362c 3430 2c31 2a35 340d  | b',15,246,40,1*54\r' |
032: 0a                                       | b'\n' |
<NMEA(GPGSV, numMsg=3, msgNum=1, numSV=9, svid_01=10, elv_01=77.0, az_01=307, cno_01=42, svid_02=12, elv_02=24.0, az_02=106, cno_02=36, svid_03=15, elv_03=12.0, az_03=85, cno_03=31, svid_04=18, elv_04=12.0, az_04=186, cno_04=26, signalID=6)>000: 2447 5047 5356 2c33 2c31 2c30 392c 3130  | b'$GPGSV,3,1,09,10' |
016: 2c37 372c 3330 372c 3432 2c31 322c 3234  | b',77,307,42,12,24' |
032: 2c31 3036 2c33 362c 3135 2c31 322c 3038  | b',106,36,15,12,08' |
048: 352c 3331 2c31 382c 3132 2c31 3836 2c32  | b'5,31,18,12,186,2' |
064: 362c 362a 3635 0d0a                      | b'6,6*65\r\n' |
<NMEA(GPGSV, numMsg=3, msgNum=2, numSV=9, svid_01=23, elv_01=60.0, az_01=135, cno_01=41, svid_02=24, elv_02=41.0, az_02=54, cno_02=41, svid_03=25, elv_03=14.0, az_03=147, cno_03=33, svid_04=28, elv_04=16.0, az_04=215, cno_04=33, signalID=6)>000: 2447 5047 5356 2c33 2c32 2c30 392c 3233  | b'$GPGSV,3,2,09,23' |
016: 2c36 302c 3133 352c 3431 2c32 342c 3431  | b',60,135,41,24,41' |
032: 2c30 3534 2c34 312c 3235 2c31 342c 3134  | b',054,41,25,14,14' |
048: 372c 3333 2c32 382c 3136 2c32 3135 2c33  | b'7,33,28,16,215,3' |
064: 332c 362a 3632 0d0a                      | b'3,6*62\r\n' |
<NMEA(GPGSV, numMsg=3, msgNum=3, numSV=9, svid_01=32, elv_01=44.0, az_01=278, cno_01=40, signalID=6)>000: 2447 5047 5356 2c33 2c33 2c30 392c 3332  | b'$GPGSV,3,3,09,32' |
016: 2c34 342c 3237 382c 3430 2c36 2a35 320d  | b',44,278,40,6*52\r' |
032: 0a                                       | b'\n' |
<NMEA(GLGSV, numMsg=3, msgNum=1, numSV=10, svid_01=70, elv_01=55.0, az_01=62, cno_01=37, svid_02=71, elv_02=51.0, az_02=322, cno_02=50, svid_03=72, elv_03=9.0, az_03=293, cno_03=35, svid_04=73, elv_04=38.0, az_04=154, cno_04=46, signalID=1)>000: 2447 4c47 5356 2c33 2c31 2c31 302c 3730  | b'$GLGSV,3,1,10,70' |
016: 2c35 352c 3036 322c 3337 2c37 312c 3531  | b',55,062,37,71,51' |
032: 2c33 3232 2c35 302c 3732 2c30 392c 3239  | b',322,50,72,09,29' |
048: 332c 3335 2c37 332c 3338 2c31 3534 2c34  | b'3,35,73,38,154,4' |
064: 362c 312a 3737 0d0a                      | b'6,1*77\r\n' |
<NMEA(GLGSV, numMsg=3, msgNum=2, numSV=10, svid_01=74, elv_01=2.0, az_01=181, cno_01=17, svid_02=79, elv_02=13.0, az_02=25, cno_02=41, svid_03=80, elv_03=50.0, az_03=71, cno_03=48, svid_04=85, elv_04=8.0, az_04=218, cno_04=31, signalID=1)>000: 2447 4c47 5356 2c33 2c32 2c31 302c 3734  | b'$GLGSV,3,2,10,74' |
016: 2c30 322c 3138 312c 3137 2c37 392c 3133  | b',02,181,17,79,13' |
032: 2c30 3235 2c34 312c 3830 2c35 302c 3037  | b',025,41,80,50,07' |
048: 312c 3438 2c38 352c 3038 2c32 3138 2c33  | b'1,48,85,08,218,3' |
064: 312c 312a 3732 0d0a                      | b'1,1*72\r\n' |
<NMEA(GLGSV, numMsg=3, msgNum=3, numSV=10, svid_01=86, elv_01=30.0, az_01=261, cno_01=44, svid_02=87, elv_02=22.0, az_02=322, cno_02=40, signalID=1)>000: 2447 4c47 5356 2c33 2c33 2c31 302c 3836  | b'$GLGSV,3,3,10,86' |
016: 2c33 302c 3236 312c 3434 2c38 372c 3232  | b',30,261,44,87,22' |
032: 2c33 3232 2c34 302c 312a 3739 0d0a       | b',322,40,1*79\r\n' |
<NMEA(GLGSV, numMsg=2, msgNum=1, numSV=5, svid_01=71, elv_01=51.0, az_01=322, cno_01=37, svid_02=73, elv_02=38.0, az_02=154, cno_02=34, svid_03=79, elv_03=13.0, az_03=25, cno_03=33, svid_04=80, elv_04=50.0, az_04=71, cno_04=39, signalID=3)>000: 2447 4c47 5356 2c32 2c31 2c30 352c 3731  | b'$GLGSV,2,1,05,71' |
016: 2c35 312c 3332 322c 3337 2c37 332c 3338  | b',51,322,37,73,38' |
032: 2c31 3534 2c33 342c 3739 2c31 332c 3032  | b',154,34,79,13,02' |
048: 352c 3333 2c38 302c 3530 2c30 3731 2c33  | b'5,33,80,50,071,3' |
064: 392c 332a 3742 0d0a                      | b'9,3*7B\r\n' |
<NMEA(GLGSV, numMsg=2, msgNum=2, numSV=5, svid_01=86, elv_01=30.0, az_01=261, cno_01=34, signalID=3)>000: 2447 4c47 5356 2c32 2c32 2c30 352c 3836  | b'$GLGSV,2,2,05,86' |
016: 2c33 302c 3236 312c 3334 2c33 2a34 300d  | b',30,261,34,3*40\r' |
032: 0a                                       | b'\n' |
<NMEA(GLGSV, numMsg=1, msgNum=1, numSV=1, svid_01=69, elv_01=2.0, az_01=97, cno_01=, signalID=0)>000: 2447 4c47 5356 2c31 2c31 2c30 312c 3639  | b'$GLGSV,1,1,01,69' |
016: 2c30 322c 3039 372c 2c30 2a34 420d 0a    | b',02,097,,0*4B\r\n' |
<NMEA(GAGSV, numMsg=2, msgNum=1, numSV=8, svid_01=4, elv_01=15.0, az_01=78, cno_01=35, svid_02=5, elv_02=53.0, az_02=283, cno_02=41, svid_03=9, elv_03=63.0, az_03=53, cno_03=43, svid_04=15, elv_04=13.0, az_04=327, cno_04=35, signalID=2)>000: 2447 4147 5356 2c32 2c31 2c30 382c 3034  | b'$GAGSV,2,1,08,04' |
016: 2c31 352c 3037 382c 3335 2c30 352c 3533  | b',15,078,35,05,53' |
032: 2c32 3833 2c34 312c 3039 2c36 332c 3035  | b',283,41,09,63,05' |
048: 332c 3433 2c31 352c 3133 2c33 3237 2c33  | b'3,43,15,13,327,3' |
064: 352c 322a 3730 0d0a                      | b'5,2*70\r\n' |
<NMEA(GAGSV, numMsg=2, msgNum=2, numSV=8, svid_01=24, elv_01=15.0, az_01=149, cno_01=34, svid_02=31, elv_02=30.0, az_02=98, cno_02=39, svid_03=34, elv_03=41.0, az_03=279, cno_03=40, svid_04=36, elv_04=32.0, az_04=212, cno_04=37, signalID=2)>000: 2447 4147 5356 2c32 2c32 2c30 382c 3234  | b'$GAGSV,2,2,08,24' |
016: 2c31 352c 3134 392c 3334 2c33 312c 3330  | b',15,149,34,31,30' |
032: 2c30 3938 2c33 392c 3334 2c34 312c 3237  | b',098,39,34,41,27' |
048: 392c 3430 2c33 362c 3332 2c32 3132 2c33  | b'9,40,36,32,212,3' |
064: 372c 322a 3736 0d0a                      | b'7,2*76\r\n' |
<NMEA(GAGSV, numMsg=2, msgNum=1, numSV=8, svid_01=4, elv_01=15.0, az_01=78, cno_01=37, svid_02=5, elv_02=53.0, az_02=283, cno_02=46, svid_03=9, elv_03=63.0, az_03=53, cno_03=46, svid_04=15, elv_04=13.0, az_04=327, cno_04=33, signalID=7)>000: 2447 4147 5356 2c32 2c31 2c30 382c 3034  | b'$GAGSV,2,1,08,04' |
016: 2c31 352c 3037 382c 3337 2c30 352c 3533  | b',15,078,37,05,53' |
032: 2c32 3833 2c34 362c 3039 2c36 332c 3035  | b',283,46,09,63,05' |
048: 332c 3436 2c31 352c 3133 2c33 3237 2c33  | b'3,46,15,13,327,3' |
064: 332c 372a 3733 0d0a                      | b'3,7*73\r\n' |
<NMEA(GAGSV, numMsg=2, msgNum=2, numSV=8, svid_01=24, elv_01=15.0, az_01=149, cno_01=38, svid_02=31, elv_02=30.0, az_02=98, cno_02=41, svid_03=34, elv_03=41.0, az_03=279, cno_03=45, svid_04=36, elv_04=32.0, az_04=212, cno_04=40, signalID=7)>000: 2447 4147 5356 2c32 2c32 2c30 382c 3234  | b'$GAGSV,2,2,08,24' |
016: 2c31 352c 3134 392c 3338 2c33 312c 3330  | b',15,149,38,31,30' |
032: 2c30 3938 2c34 312c 3334 2c34 312c 3237  | b',098,41,34,41,27' |
048: 392c 3435 2c33 362c 3332 2c32 3132 2c34  | b'9,45,36,32,212,4' |
064: 302c 372a 3735 0d0a                      | b'0,7*75\r\n' |
<NMEA(GAGSV, numMsg=1, msgNum=1, numSV=2, svid_01=3, elv_01=4.0, az_01=267, cno_01=, svid_02=11, elv_02=0.0, az_02=177, cno_02=, signalID=0)>000: 2447 4147 5356 2c31 2c31 2c30 322c 3033  | b'$GAGSV,1,1,02,03' |
016: 2c30 342c 3236 372c 2c31 312c 3030 2c31  | b',04,267,,11,00,1' |
032: 3737 2c2c 302a 3733 0d0a                 | b'77,,0*73\r\n' |
<NMEA(GBGSV, numMsg=2, msgNum=1, numSV=7, svid_01=19, elv_01=21.0, az_01=297, cno_01=42, svid_02=20, elv_02=69.0, az_02=323, cno_02=51, svid_03=23, elv_03=36.0, az_03=58, cno_03=47, svid_04=29, elv_04=12.0, az_04=254, cno_04=40, signalID=1)>000: 2447 4247 5356 2c32 2c31 2c30 372c 3139  | b'$GBGSV,2,1,07,19' |
016: 2c32 312c 3239 372c 3432 2c32 302c 3639  | b',21,297,42,20,69' |
032: 2c33 3233 2c35 312c 3233 2c33 362c 3035  | b',323,51,23,36,05' |
048: 382c 3437 2c32 392c 3132 2c32 3534 2c34  | b'8,47,29,12,254,4' |
064: 302c 312a 3744 0d0a                      | b'0,1*7D\r\n' |
<NMEA(GBGSV, numMsg=2, msgNum=2, numSV=7, svid_01=32, elv_01=46.0, az_01=98, cno_01=48, svid_02=35, elv_02=11.0, az_02=308, cno_02=39, svid_03=37, elv_03=53.0, az_03=136, cno_03=48, signalID=1)>000: 2447 4247 5356 2c32 2c32 2c30 372c 3332  | b'$GBGSV,2,2,07,32' |
016: 2c34 362c 3039 382c 3438 2c33 352c 3131  | b',46,098,48,35,11' |
032: 2c33 3038 2c33 392c 3337 2c35 332c 3133  | b',308,39,37,53,13' |
048: 362c 3438 2c31 2a34 320d 0a              | b'6,48,1*42\r\n' |
<NMEA(GBGSV, numMsg=1, msgNum=1, numSV=2, svid_01=20, elv_01=69.0, az_01=323, cno_01=8, svid_02=29, elv_02=12.0, az_02=254, cno_02=8, signalID=3)>000: 2447 4247 5356 2c31 2c31 2c30 322c 3230  | b'$GBGSV,1,1,02,20' |
016: 2c36 392c 3332 332c 3038 2c32 392c 3132  | b',69,323,08,29,12' |
032: 2c32 3534 2c30 382c 332a 3732 0d0a       | b',254,08,3*72\r\n' |
<NMEA(GNGLL, lat=43.8825574733, NS=N, lon=-72.15758234, EW=W, time=19:57:19.500000, status=A, posMode=D)>000: 2447 4e47 4c4c 2c34 3335 322e 3935 3334  | b'$GNGLL,4352.9534' |
016: 3438 342c 4e2c 3037 3230 392e 3435 3439  | b'484,N,07209.4549' |
032: 3430 342c 572c 3139 3537 3139 2e35 302c  | b'404,W,195719.50,' |
048: 412c 442a 3634 0d0a                      | b'A,D*64\r\n' |
<NMEA(GNGSA, opMode=A, navMode=3, svid_01=36, svid_02=5, svid_03=31, svid_04=34, svid_05=4, svid_06=24, svid_07=9, svid_08=, svid_09=, svid_10=, svid_11=, svid_12=, PDOP=1.05, HDOP=0.57, VDOP=0.88, systemId=3)>000: 2447 4e47 5341 2c41 2c33 2c33 362c 3035  | b'$GNGSA,A,3,36,05' |
016: 2c33 312c 3334 2c30 342c 3234 2c30 392c  | b',31,34,04,24,09,' |
032: 2c2c 2c2c 2c31 2e30 352c 302e 3537 2c30  | b',,,,,1.05,0.57,0' |
048: 2e38 382c 332a 3042 0d0a                 | b'.88,3*0B\r\n' |
<NMEA(GNRMC, time=19:57:20, status=A, lat=43.8825578533, NS=N, lon=-72.15758125, EW=W, spd=0.311, cog=63.2, date=2023-09-05, mv=, mvEW=, posMode=R, navStatus=V)>000: 2447 4e52 4d43 2c31 3935 3732 302e 3030  | b'$GNRMC,195720.00' |
016: 2c41 2c34 3335 322e 3935 3334 3731 322c  | b',A,4352.9534712,' |
032: 4e2c 3037 3230 392e 3435 3438 3735 302c  | b'N,07209.4548750,' |
048: 572c 302e 3331 312c 3633 2e32 302c 3035  | b'W,0.311,63.20,05' |
064: 3039 3233 2c2c 2c52 2c56 2a33 360d 0a    | b'0923,,,R,V*36\r\n' |
<NMEA(GNVTG, cogt=63.2, cogtUnit=T, cogm=, cogmUnit=M, sogn=0.311, sognUnit=N, sogk=0.577, sogkUnit=K, posMode=D)>000: 2447 4e56 5447 2c36 332e 3230 2c54 2c2c  | b'$GNVTG,63.20,T,,' |
016: 4d2c 302e 3331 312c 4e2c 302e 3537 372c  | b'M,0.311,N,0.577,' |
032: 4b2c 442a 3137 0d0a                      | b'K,D*17\r\n' |
<NMEA(GNGGA, time=19:57:20, lat=43.8825578533, NS=N, lon=-72.15758125, EW=W, quality=4, numSV=12, HDOP=0.57, alt=142.461, altUnit=M, sep=-32.546, sepUnit=M, diffAge=, diffStation=0)>000: 2447 4e47 4741 2c31 3935 3732 302e 3030  | b'$GNGGA,195720.00' |
016: 2c34 3335 322e 3935 3334 3731 322c 4e2c  | b',4352.9534712,N,' |
032: 3037 3230 392e 3435 3438 3735 302c 572c  | b'07209.4548750,W,' |
048: 342c 3132 2c30 2e35 372c 3134 322e 3436  | b'4,12,0.57,142.46' |
064: 312c 4d2c 2d33 322e 3534 362c 4d2c 2c30  | b'1,M,-32.546,M,,0' |
080: 3030 302a 3746 0d0a                      | b'000*7F\r\n' |
<NMEA(GNGSA, opMode=A, navMode=3, svid_01=46, svid_02=21, svid_03=44, svid_04=24, svid_05=25, svid_06=28, svid_07=10, svid_08=12, svid_09=23, svid_10=15, svid_11=32, svid_12=, PDOP=1.05, HDOP=0.57, VDOP=0.88, systemId=1)>000: 2447 4e47 5341 2c41 2c33 2c34 362c 3231  | b'$GNGSA,A,3,46,21' |
016: 2c34 342c 3234 2c32 352c 3238 2c31 302c  | b',44,24,25,28,10,' |
032: 3132 2c32 332c 3135 2c33 322c 2c31 2e30  | b'12,23,15,32,,1.0' |
048: 352c 302e 3537 2c30 2e38 382c 312a 3042  | b'5,0.57,0.88,1*0B' |
064: 0d0a                                     | b'\r\n' |
<NMEA(GNGSA, opMode=A, navMode=3, svid_01=87, svid_02=80, svid_03=71, svid_04=73, svid_05=70, svid_06=79, svid_07=, svid_08=, svid_09=, svid_10=, svid_11=, svid_12=, PDOP=1.05, HDOP=0.57, VDOP=0.88, systemId=2)>000: 2447 4e47 5341 2c41 2c33 2c38 372c 3830  | b'$GNGSA,A,3,87,80' |
016: 2c37 312c 3733 2c37 302c 3739 2c2c 2c2c  | b',71,73,70,79,,,,' |
032: 2c2c 2c31 2e30 352c 302e 3537 2c30 2e38  | b',,,1.05,0.57,0.8' |
048: 382c 322a 3038 0d0a                      | b'8,2*08\r\n' |
<NMEA(GNGSA, opMode=A, navMode=3, svid_01=36, svid_02=5, svid_03=31, svid_04=34, svid_05=4, svid_06=24, svid_07=9, svid_08=, svid_09=, svid_10=, svid_11=, svid_12=, PDOP=1.05, HDOP=0.57, VDOP=0.88, systemId=3)>000: 2447 4e47 5341 2c41 2c33 2c33 362c 3035  | b'$GNGSA,A,3,36,05' |
016: 2c33 312c 3334 2c30 342c 3234 2c30 392c  | b',31,34,04,24,09,' |
032: 2c2c 2c2c 2c31 2e30 352c 302e 3537 2c30  | b',,,,,1.05,0.57,0' |
048: 2e38 382c 332a 3042 0d0a                 | b'.88,3*0B\r\n' |
<NMEA(GNGSA, opMode=A, navMode=3, svid_01=37, svid_02=19, svid_03=32, svid_04=29, svid_05=20, svid_06=23, svid_07=35, svid_08=, svid_09=, svid_10=, svid_11=, svid_12=, PDOP=1.05, HDOP=0.57, VDOP=0.88, systemId=4)>000: 2447 4e47 5341 2c41 2c33 2c33 372c 3139  | b'$GNGSA,A,3,37,19' |
016: 2c33 322c 3239 2c32 302c 3233 2c33 352c  | b',32,29,20,23,35,' |
032: 2c2c 2c2c 2c31 2e30 352c 302e 3537 2c30  | b',,,,,1.05,0.57,0' |
048: 2e38 382c 342a 3031 0d0a                 | b'.88,4*01\r\n' |
<NMEA(GPGSV, numMsg=4, msgNum=1, numSV=13, svid_01=2, elv_01=12.0, az_01=324, cno_01=36, svid_02=10, elv_02=77.0, az_02=307, cno_02=51, svid_03=12, elv_03=24.0, az_03=106, cno_03=40, svid_04=15, elv_04=12.0, az_04=85, cno_04=38, signalID=1)>000: 2447 5047 5356 2c34 2c31 2c31 332c 3032  | b'$GPGSV,4,1,13,02' |
016: 2c31 322c 3332 342c 3336 2c31 302c 3737  | b',12,324,36,10,77' |
032: 2c33 3037 2c35 312c 3132 2c32 342c 3130  | b',307,51,12,24,10' |
048: 362c 3430 2c31 352c 3132 2c30 3835 2c33  | b'6,40,15,12,085,3' |
064: 382c 312a 3634 0d0a                      | b'8,1*64\r\n' |
<NMEA(GPGSV, numMsg=4, msgNum=2, numSV=13, svid_01=18, elv_01=12.0, az_01=186, cno_01=34, svid_02=21, elv_02=17.0, az_02=318, cno_02=37, svid_03=23, elv_03=60.0, az_03=135, cno_03=46, svid_04=24, elv_04=41.0, az_04=54, cno_04=45, signalID=1)>000: 2447 5047 5356 2c34 2c32 2c31 332c 3138  | b'$GPGSV,4,2,13,18' |
016: 2c31 322c 3138 362c 3334 2c32 312c 3137  | b',12,186,34,21,17' |
032: 2c33 3138 2c33 372c 3233 2c36 302c 3133  | b',318,37,23,60,13' |
048: 352c 3436 2c32 342c 3431 2c30 3534 2c34  | b'5,46,24,41,054,4' |
064: 352c 312a 3638 0d0a                      | b'5,1*68\r\n' |
<NMEA(GPGSV, numMsg=4, msgNum=3, numSV=13, svid_01=25, elv_01=14.0, az_01=147, cno_01=36, svid_02=28, elv_02=16.0, az_02=215, cno_02=38, svid_03=32, elv_03=44.0, az_03=278, cno_03=48, svid_04=44, elv_04=23.0, az_04=235, cno_04=41, signalID=1)>000: 2447 5047 5356 2c34 2c33 2c31 332c 3235  | b'$GPGSV,4,3,13,25' |
016: 2c31 342c 3134 372c 3336 2c32 382c 3136  | b',14,147,36,28,16' |
032: 2c32 3135 2c33 382c 3332 2c34 342c 3237  | b',215,38,32,44,27' |
048: 382c 3438 2c34 342c 3233 2c32 3335 2c34  | b'8,48,44,23,235,4' |
064: 312c 312a 3634 0d0a                      | b'1,1*64\r\n' |
<NMEA(GPGSV, numMsg=4, msgNum=4, numSV=13, svid_01=46, elv_01=15.0, az_01=246, cno_01=38, signalID=1)>000: 2447 5047 5356 2c34 2c34 2c31 332c 3436  | b'$GPGSV,4,4,13,46' |
016: 2c31 352c 3234 362c 3338 2c31 2a35 420d  | b',15,246,38,1*5B\r' |
032: 0a                                       | b'\n' |
<NMEA(GPGSV, numMsg=3, msgNum=1, numSV=9, svid_01=10, elv_01=77.0, az_01=307, cno_01=42, svid_02=12, elv_02=24.0, az_02=106, cno_02=35, svid_03=15, elv_03=12.0, az_03=85, cno_03=31, svid_04=18, elv_04=12.0, az_04=186, cno_04=25, signalID=6)>000: 2447 5047 5356 2c33 2c31 2c30 392c 3130  | b'$GPGSV,3,1,09,10' |
016: 2c37 372c 3330 372c 3432 2c31 322c 3234  | b',77,307,42,12,24' |
032: 2c31 3036 2c33 352c 3135 2c31 322c 3038  | b',106,35,15,12,08' |
048: 352c 3331 2c31 382c 3132 2c31 3836 2c32  | b'5,31,18,12,186,2' |
064: 352c 362a 3635 0d0a                      | b'5,6*65\r\n' |
<NMEA(GPGSV, numMsg=3, msgNum=2, numSV=9, svid_01=23, elv_01=60.0, az_01=135, cno_01=41, svid_02=24, elv_02=41.0, az_02=54, cno_02=41, svid_03=25, elv_03=14.0, az_03=147, cno_03=32, svid_04=28, elv_04=16.0, az_04=215, cno_04=34, signalID=6)>000: 2447 5047 5356 2c33 2c32 2c30 392c 3233  | b'$GPGSV,3,2,09,23' |
016: 2c36 302c 3133 352c 3431 2c32 342c 3431  | b',60,135,41,24,41' |
032: 2c30 3534 2c34 312c 3235 2c31 342c 3134  | b',054,41,25,14,14' |
048: 372c 3332 2c32 382c 3136 2c32 3135 2c33  | b'7,32,28,16,215,3' |
064: 342c 362a 3634 0d0a                      | b'4,6*64\r\n' |
<NMEA(GPGSV, numMsg=3, msgNum=3, numSV=9, svid_01=32, elv_01=44.0, az_01=278, cno_01=40, signalID=6)>000: 2447 5047 5356 2c33 2c33 2c30 392c 3332  | b'$GPGSV,3,3,09,32' |
016: 2c34 342c 3237 382c 3430 2c36 2a35 320d  | b',44,278,40,6*52\r' |
032: 0a                                       | b'\n' |
<NMEA(GLGSV, numMsg=3, msgNum=1, numSV=10, svid_01=70, elv_01=55.0, az_01=62, cno_01=37, svid_02=71, elv_02=51.0, az_02=322, cno_02=50, svid_03=72, elv_03=9.0, az_03=293, cno_03=36, svid_04=73, elv_04=38.0, az_04=154, cno_04=46, signalID=1)>000: 2447 4c47 5356 2c33 2c31 2c31 302c 3730  | b'$GLGSV,3,1,10,70' |
016: 2c35 352c 3036 322c 3337 2c37 312c 3531  | b',55,062,37,71,51' |
032: 2c33 3232 2c35 302c 3732 2c30 392c 3239  | b',322,50,72,09,29' |
048: 332c 3336 2c37 332c 3338 2c31 3534 2c34  | b'3,36,73,38,154,4' |
064: 362c 312a 3734 0d0a                      | b'6,1*74\r\n' |
<NMEA(GLGSV, numMsg=3, msgNum=2, numSV=10, svid_01=74, elv_01=2.0, az_01=181, cno_01=17, svid_02=79, elv_02=13.0, az_02=25, cno_02=38, svid_03=80, elv_03=50.0, az_03=71, cno_03=49, svid_04=85, elv_04=8.0, az_04=218, cno_04=32, signalID=1)>000: 2447 4c47 5356 2c33 2c32 2c31 302c 3734  | b'$GLGSV,3,2,10,74' |
016: 2c30 322c 3138 312c 3137 2c37 392c 3133  | b',02,181,17,79,13' |
032: 2c30 3235 2c33 382c 3830 2c35 302c 3037  | b',025,38,80,50,07' |
048: 312c 3439 2c38 352c 3038 2c32 3138 2c33  | b'1,49,85,08,218,3' |
064: 322c 312a 3745 0d0a                      | b'2,1*7E\r\n' |
<NMEA(GLGSV, numMsg=3, msgNum=3, numSV=10, svid_01=86, elv_01=30.0, az_01=261, cno_01=45, svid_02=87, elv_02=22.0, az_02=322, cno_02=41, signalID=1)>000: 2447 4c47 5356 2c33 2c33 2c31 302c 3836  | b'$GLGSV,3,3,10,86' |
016: 2c33 302c 3236 312c 3435 2c38 372c 3232  | b',30,261,45,87,22' |
032: 2c33 3232 2c34 312c 312a 3739 0d0a       | b',322,41,1*79\r\n' |
<NMEA(GLGSV, numMsg=2, msgNum=1, numSV=5, svid_01=71, elv_01=51.0, az_01=322, cno_01=37, svid_02=73, elv_02=38.0, az_02=154, cno_02=34, svid_03=79, elv_03=13.0, az_03=25, cno_03=32, svid_04=80, elv_04=50.0, az_04=71, cno_04=38, signalID=3)>000: 2447 4c47 5356 2c32 2c31 2c30 352c 3731  | b'$GLGSV,2,1,05,71' |
016: 2c35 312c 3332 322c 3337 2c37 332c 3338  | b',51,322,37,73,38' |
032: 2c31 3534 2c33 342c 3739 2c31 332c 3032  | b',154,34,79,13,02' |
048: 352c 3332 2c38 302c 3530 2c30 3731 2c33  | b'5,32,80,50,071,3' |
064: 382c 332a 3742 0d0a                      | b'8,3*7B\r\n' |
<NMEA(GLGSV, numMsg=2, msgNum=2, numSV=5, svid_01=86, elv_01=30.0, az_01=261, cno_01=34, signalID=3)>000: 2447 4c47 5356 2c32 2c32 2c30 352c 3836  | b'$GLGSV,2,2,05,86' |
016: 2c33 302c 3236 312c 3334 2c33 2a34 300d  | b',30,261,34,3*40\r' |
032: 0a                                       | b'\n' |
<NMEA(GLGSV, numMsg=1, msgNum=1, numSV=1, svid_01=69, elv_01=2.0, az_01=97, cno_01=, signalID=0)>000: 2447 4c47 5356 2c31 2c31 2c30 312c 3639  | b'$GLGSV,1,1,01,69' |
016: 2c30 322c 3039 372c 2c30 2a34 420d 0a    | b',02,097,,0*4B\r\n' |
<NMEA(GAGSV, numMsg=2, msgNum=1, numSV=8, svid_01=4, elv_01=15.0, az_01=78, cno_01=34, svid_02=5, elv_02=53.0, az_02=283, cno_02=41, svid_03=9, elv_03=63.0, az_03=53, cno_03=42, svid_04=15, elv_04=13.0, az_04=327, cno_04=32, signalID=2)>000: 2447 4147 5356 2c32 2c31 2c30 382c 3034  | b'$GAGSV,2,1,08,04' |
016: 2c31 352c 3037 382c 3334 2c30 352c 3533  | b',15,078,34,05,53' |
032: 2c32 3833 2c34 312c 3039 2c36 332c 3035  | b',283,41,09,63,05' |
048: 332c 3432 2c31 352c 3133 2c33 3237 2c33  | b'3,42,15,13,327,3' |
064: 322c 322a 3737 0d0a                      | b'2,2*77\r\n' |
<NMEA(GAGSV, numMsg=2, msgNum=2, numSV=8, svid_01=24, elv_01=15.0, az_01=149, cno_01=34, svid_02=31, elv_02=30.0, az_02=98, cno_02=39, svid_03=34, elv_03=41.0, az_03=279, cno_03=40, svid_04=36, elv_04=32.0, az_04=212, cno_04=37, signalID=2)>000: 2447 4147 5356 2c32 2c32 2c30 382c 3234  | b'$GAGSV,2,2,08,24' |
016: 2c31 352c 3134 392c 3334 2c33 312c 3330  | b',15,149,34,31,30' |
032: 2c30 3938 2c33 392c 3334 2c34 312c 3237  | b',098,39,34,41,27' |
048: 392c 3430 2c33 362c 3332 2c32 3132 2c33  | b'9,40,36,32,212,3' |
064: 372c 322a 3736 0d0a                      | b'7,2*76\r\n' |
<NMEA(GAGSV, numMsg=2, msgNum=1, numSV=8, svid_01=4, elv_01=15.0, az_01=78, cno_01=37, svid_02=5, elv_02=53.0, az_02=283, cno_02=47, svid_03=9, elv_03=63.0, az_03=53, cno_03=47, svid_04=15, elv_04=13.0, az_04=327, cno_04=36, signalID=7)>000: 2447 4147 5356 2c32 2c31 2c30 382c 3034  | b'$GAGSV,2,1,08,04' |
016: 2c31 352c 3037 382c 3337 2c30 352c 3533  | b',15,078,37,05,53' |
032: 2c32 3833 2c34 372c 3039 2c36 332c 3035  | b',283,47,09,63,05' |
048: 332c 3437 2c31 352c 3133 2c33 3237 2c33  | b'3,47,15,13,327,3' |
064: 362c 372a 3736 0d0a                      | b'6,7*76\r\n' |
<NMEA(GAGSV, numMsg=2, msgNum=2, numSV=8, svid_01=24, elv_01=15.0, az_01=149, cno_01=36, svid_02=31, elv_02=30.0, az_02=98, cno_02=39, svid_03=34, elv_03=41.0, az_03=279, cno_03=45, svid_04=36, elv_04=32.0, az_04=212, cno_04=42, signalID=7)>000: 2447 4147 5356 2c32 2c32 2c30 382c 3234  | b'$GAGSV,2,2,08,24' |
016: 2c31 352c 3134 392c 3336 2c33 312c 3330  | b',15,149,36,31,30' |
032: 2c30 3938 2c33 392c 3334 2c34 312c 3237  | b',098,39,34,41,27' |
048: 392c 3435 2c33 362c 3332 2c32 3132 2c34  | b'9,45,36,32,212,4' |
064: 322c 372a 3736 0d0a                      | b'2,7*76\r\n' |
<NMEA(GAGSV, numMsg=1, msgNum=1, numSV=2, svid_01=3, elv_01=4.0, az_01=267, cno_01=, svid_02=11, elv_02=0.0, az_02=177, cno_02=, signalID=0)>000: 2447 4147 5356 2c31 2c31 2c30 322c 3033  | b'$GAGSV,1,1,02,03' |
016: 2c30 342c 3236 372c 2c31 312c 3030 2c31  | b',04,267,,11,00,1' |
032: 3737 2c2c 302a 3733 0d0a                 | b'77,,0*73\r\n' |
